,level_0,index,Borough,date_listed,agency_name,chain_free,address,isRetirementHome,isSharedOwnership,listingCondition,price,propertyType,isAuction,tenure,title,latitude,longitude,floor_area_msq,numBedrooms,numBathrooms,numLivingRooms,firstPublishedDate,firstPublishedPrice,balcony_terrace,parking,garden,closest_station_name,closest_station_distance_sec,pub_restaurant,amenities_shop
15900,15900,15900,Hillingdon,2021-05-08,Life Less Ordinary - Solis Mews,1,"Field End Road, Eastcote HA4",0,0,new,485000.0,mews,0,leasehold,2 bed mews house for sale,51.575889,-0.397887,71.0,2,1,0,2021-05-08,485000.0,1,1,0,Eastcote,96,5,"[2, 0, 0, 1]"
15901,15901,15901,Hillingdon,2021-05-06,Savills - Northwood,0,"Anthus Mews, Northwood, Middlesex HA6",0,0,pre-owned,300000.0,flat,0,share_of_freehold,1 bed flat for sale,51.611241,-0.427289,55.0,1,1,1,2021-05-06,300000.0,0,1,1,Northwood,261,4,"[6, 1, 0, 1]"
15902,15902,15902,Hillingdon,2021-05-06,Hiltons Estates,0,"Perkins Gardens, Ickenham, Uxbridge UB10",0,0,pre-owned,339000.0,flat,0,leasehold,1 bed flat for sale,51.568566,-0.438861,53.0,1,1,1,2021-05-06,339000.0,1,1,0,West Ruislip,304,5,"[1, 0, 0, 0]"
15903,15903,15903,Hillingdon,2021-05-06,Robsons - Northwood,0,"Watford Road, Northwood HA6",0,0,pre-owned,2500000.0,Other,0,freehold,7 bed property for sale,51.614707,-0.410827,465.0,7,3,4,2021-05-06,2500000.0,0,1,1,Northwood,836,0,"[3, 0, 0, 0]"
15904,15904,15904,Hillingdon,2021-05-06,Coopers Residential - Pinner,1,"Nursery Road, Pinner HA5",0,0,pre-owned,335000.0,flat,0,Other,2 bed flat for sale,51.595836,-0.396248,56.0,2,1,1,2021-05-06,335000.0,1,1,1,Northwood Hills,887,1,"[2, 0, 0, 1]"
15905,15905,15905,Hillingdon,2021-05-05,Gibbs Gillespie - Uxbridge,1,"Turnpike Lane, Uxbridge, Middlesex UB10",0,0,pre-owned,230000.0,flat,0,leasehold,1 bed flat for sale,51.535155,-0.4711,37.0,1,1,1,2021-05-05,269950.0,0,1,0,Uxbridge,1255,1,"[12, 1, 0, 0]"
15906,15906,15906,Hillingdon,2021-05-05,Coopers Residential - Ruislip,0,"Ladygate Lane, Ruislip HA4",0,0,pre-owned,475000.0,flat,0,Other,2 bed flat for sale,51.580577,-0.433965,71.0,2,2,1,2021-05-05,475000.0,0,1,1,Upminster,1075,5,"[3, 0, 1, 0]"
15907,15907,15907,Hillingdon,2021-05-05,Gibbs Gillespie - Ickenham,1,"The Drive, Ickenham, Uxbridge UB10",0,0,pre-owned,1475000.0,detached,0,Other,4 bed detached house for sale,51.567356,-0.466626,223.0,4,2,4,2021-05-05,1475000.0,0,0,1,Hillingdon,1854,0,"[0, 0, 0, 0]"
15908,15908,15908,Hillingdon,2021-05-05,Property Inside London,0,"Jessop Court, 3 Brindley Place, Uxbridge UB8",0,0,pre-owned,218000.0,studio,0,leasehold,Studio for sale,51.521085,-0.482804,34.0,0,1,1,2021-05-05,218000.0,1,1,1,Uxbridge,2740,2,"[2, 0, 0, 0]"
15909,15909,15909,Hillingdon,2021-05-05,Gibbs Gillespie - Northwood,0,"Green Lane, Northwood, Middlesex HA6",0,0,pre-owned,600000.0,maisonette,0,share_of_freehold,3 bed maisonette for sale,51.611236,-0.421497,131.0,3,2,1,2021-05-05,635000.0,0,1,1,Northwood,126,4,"[3, 1, 0, 1]"
15910,15910,15910,Hillingdon,2021-05-05,Robert Cooper & Co,0,"Salisbury House, Rodwell Close, Eastcote HA4",0,0,pre-owned,350000.0,flat,0,leasehold,2 bed flat for sale,51.574401,-0.39814,57.0,2,1,1,2021-05-05,370000.0,0,0,0,Eastcote,386,3,"[1, 0, 0, 0]"
15911,15911,15911,Hillingdon,2021-05-05,Gibbs Gillespie - Uxbridge,0,"Mill Bridge Place, Uxbridge, UK UB8",0,0,pre-owned,300000.0,flat,0,leasehold,2 bed flat for sale,51.539143,-0.487361,57.0,2,1,1,2021-05-05,300000.0,0,1,0,Uxbridge,1196,4,"[5, 0, 0, 1]"
15912,15912,15912,Hillingdon,2021-05-04,Lawrence Rand - Ruislip,0,"Elliott Court, 161 Elliott Avenue, Ruislip, Middlesex HA4",0,0,pre-owned,425000.0,flat,0,Other,2 bed flat for sale,51.569113,-0.403318,85.0,2,0,0,2021-05-04,450000.0,1,1,1,Upminster,894,0,"[1, 0, 0, 0]"
15913,15913,15913,Hillingdon,2021-05-04,Gibbs Gillespie - Ruislip,0,"Eastcote Road, Ruislip, Middlesex HA4",0,0,pre-owned,750000.0,detached,0,Other,3 bed detached house for sale,51.582437,-0.410415,110.0,3,1,2,2021-05-04,795000.0,0,0,0,Ruislip Manor,882,0,"[4, 0, 0, 0]"
15914,15914,15914,Hillingdon,2021-05-01,Gibbs Gillespie - Northwood,0,"Murray Road, Northwood, Hillingdon HA6",0,0,pre-owned,500000.0,flat,0,Other,2 bed flat for sale,51.606957,-0.425904,87.0,2,1,1,2021-05-01,525000.0,0,0,1,Northwood,437,0,"[3, 0, 0, 1]"
15915,15915,15915,Hillingdon,2021-04-29,Hunters - Hayes,0,"West Walk, Hayes UB3",0,0,pre-owned,475000.0,semi_detached,0,Other,3 bed semi-detached house for sale,51.509246,-0.413482,82.0,3,0,0,2021-04-29,475000.0,0,1,1,Upminster,4229,2,"[2, 2, 0, 1]"
15916,15916,15916,Hillingdon,2021-04-29,Robert Cooper & Co,1,"Woodlands Avenue, Ruislip HA4",0,0,new,749950.0,end_terrace,0,Other,3 bed end terrace house for sale,51.575298,-0.395224,117.0,3,2,1,2021-04-29,749950.0,0,1,1,Eastcote,285,4,"[2, 0, 0, 1]"
15917,15917,15917,Hillingdon,2021-04-29,Savills - Northwood,1,"Church Road, Northwood, Middlesex HA6",0,0,pre-owned,1100000.0,semi_detached,0,freehold,5 bed semi-detached house for sale,51.609155,-0.415273,178.0,5,2,2,2021-04-29,1150000.0,0,1,1,Northwood,538,0,"[4, 0, 0, 0]"
15918,15918,15918,Hillingdon,2021-04-29,Robert Cooper & Co,1,"Woodlands Avenue, Ruislip HA4",0,0,new,725000.0,terraced,0,Other,3 bed terraced house for sale,51.575298,-0.395224,116.0,3,2,1,2021-04-29,725000.0,0,1,1,Eastcote,285,4,"[2, 0, 0, 1]"
15919,15919,15919,Hillingdon,2021-04-29,Gibbs Gillespie - Ruislip,0,"Flat 8, Masters Court, Wood Lane, Ruislip HA4",1,0,pre-owned,350000.0,flat,0,leasehold,2 bed flat for sale,51.570162,-0.423235,62.0,2,1,1,2021-04-29,350000.0,0,1,0,Ruislip,242,8,"[1, 0, 0, 1]"
15920,15920,15920,Hillingdon,2021-04-29,Coopers Residential - Pinner,0,"Burlington Close, Pinner HA5",0,0,pre-owned,500000.0,end_terrace,0,Other,2 bed end terrace house for sale,51.596492,-0.398523,71.0,2,1,1,2021-04-29,535000.0,1,1,1,Northwood Hills,746,1,"[1, 0, 0, 1]"
15921,15921,15921,Hillingdon,2021-04-29,Robert Cooper & Co,1,"Woodlands Avenue, Ruislip HA4",0,0,new,799950.0,end_terrace,0,Other,4 bed end terrace house for sale,51.575298,-0.395224,126.0,4,2,1,2021-04-29,799950.0,0,1,1,Eastcote,285,4,"[2, 0, 0, 1]"
15922,15922,15922,Hillingdon,2021-04-29,Coopers Residential - Pinner,0,"Oakdale Avenue, Northwood HA6",0,0,pre-owned,350000.0,block_of_flats,0,Other,2 bed block of flats for sale,51.601638,-0.408575,72.0,2,1,1,2021-04-29,350000.0,0,1,1,Northwood Hills,172,2,"[2, 1, 0, 0]"
15923,15923,15923,Hillingdon,2021-04-28,Andrew Pearce Estate Agents & Chartered Surveyors,0,"Joel Street, Northwood HA6",0,0,pre-owned,275000.0,flat,0,Other,1 bed flat for sale,51.597999,-0.411751,47.0,1,1,1,2021-04-28,275000.0,1,1,0,Northwood Hills,269,2,"[2, 0, 0, 0]"
15924,15924,15924,Hillingdon,2021-04-27,Gibbs Gillespie - Pinner,0,"The Close, Eastcote, Pinner HA5",0,0,pre-owned,325000.0,flat,0,leasehold,1 bed flat for sale,51.578456,-0.397182,66.0,1,1,1,2021-04-27,325000.0,0,0,1,Eastcote,243,5,"[3, 0, 0, 1]"
15925,15925,15925,Hillingdon,2021-04-27,Gibbs Gillespie - Pinner,0,"Rickmansworth Road, Pinner, Greater London HA5",0,0,pre-owned,800000.0,detached,0,freehold,3 bed detached house for sale,51.599479,-0.399734,119.0,3,2,2,2021-04-27,825000.0,0,1,1,Northwood Hills,701,1,"[3, 0, 0, 1]"
15926,15926,15926,Hillingdon,2021-04-27,Vantage Properties & Management Ltd,0,"Evergreen Drive, West Drayton UB7",0,0,pre-owned,550000.0,semi_detached,0,freehold,3 bed semi-detached house for sale,51.505797,-0.458712,102.0,3,2,1,2021-04-27,575000.0,0,1,0,Upminster,4337,0,"[0, 0, 0, 0]"
15927,15927,15927,Hillingdon,2021-04-27,Cameron Estate Agents,0,"Duval House, Harmondsworth, West Drayton UB7",0,0,pre-owned,190000.0,studio,0,Other,Studio for sale,51.483596,-0.481204,0.0,0,1,1,2021-04-27,190000.0,0,1,1,Upminster,5205,2,"[1, 0, 0, 0]"
15928,15928,15928,Hillingdon,2021-04-27,Chase Evans City & Aldgate,0,"Park Lodge Avenue, West Drayton UB7",0,0,pre-owned,650000.0,semi_detached,0,leasehold,4 bed semi-detached house for sale,51.506425,-0.462269,174.0,4,3,1,2021-04-27,650000.0,1,0,1,Upminster,4153,3,"[1, 0, 0, 0]"
15929,15929,15929,Hillingdon,2021-04-26,Hamptons - Gerrards Cross Sales,0,"Willow Crescent East, Denham, Buckinghamshire UB9",0,0,pre-owned,1350000.0,detached,0,freehold,4 bed detached house for sale,51.556407,-0.483692,223.0,4,5,3,2021-04-26,1350000.0,0,1,1,Uxbridge,1056,0,"[0, 0, 0, 0]"
15930,15930,15930,Hillingdon,2021-04-26,Robert Cooper & Co,1,"Field End Road, Eastcote HA5",0,0,pre-owned,279950.0,flat,0,leasehold,2 bed flat for sale,51.579799,-0.400837,73.0,2,1,1,2021-04-26,299950.0,0,0,0,Eastcote,470,5,"[1, 0, 0, 1]"
15931,15931,15931,Hillingdon,2021-04-26,Gibbs Gillespie - Uxbridge,0,"Little Grebe House, 130 Wraysbury Drive, West Drayton, Middlesex UB7",0,0,pre-owned,320000.0,flat,0,leasehold,2 bed flat for sale,51.51553,-0.478508,63.0,2,1,1,2021-04-26,330000.0,1,1,0,Uxbridge,3716,10,"[4, 1, 0, 2]"
15932,15932,15932,Hillingdon,2021-04-26,Gibbs Gillespie - Ruislip,0,"Springwell Lane, Harefield, Uxbridge UB9",0,0,pre-owned,1900000.0,detached,0,freehold,4 bed detached house for sale,51.615844,-0.485115,576.0,4,4,3,2021-04-26,1900000.0,0,1,1,Rickmansworth,2989,0,"[1, 0, 0, 0]"
15933,15933,15933,Hillingdon,2021-04-24,Hiltons Estates,0,"Tudor Road, Hayes UB3",0,0,pre-owned,514950.0,detached,0,leasehold,3 bed detached house for sale,51.520999,-0.436053,90.0,3,2,3,2021-04-24,540000.0,0,1,1,Hillingdon,3204,0,"[2, 0, 0, 0]"
15934,15934,15934,Hillingdon,2021-04-24,Coopers Residential - Ruislip,0,"Priory Close, Ruislip HA4",0,0,pre-owned,415000.0,maisonette,0,Other,2 bed maisonette for sale,51.574882,-0.415643,68.0,2,1,1,2021-04-24,425000.0,0,0,1,Ruislip Manor,297,5,"[3, 0, 0, 1]"
15935,15935,15935,Hillingdon,2021-04-23,Savills - Northwood,0,"Alexander Court, 91 Ducks Hill Road, Northwood, Middlesex HA6",0,0,pre-owned,795000.0,flat,0,share_of_freehold,2 bed flat for sale,51.607013,-0.44332,100.0,2,2,1,2021-04-23,795000.0,1,1,1,Northwood,1219,0,"[0, 0, 0, 0]"
15936,15936,15936,Hillingdon,2021-04-23,Gibbs Gillespie - Ickenham,0,"The Drive, Ickenham, Uxbridge, Middlesex UB10",0,0,pre-owned,1550000.0,detached,0,freehold,4 bed detached house for sale,51.561202,-0.47029,289.0,4,4,4,2021-04-23,1650000.0,0,0,1,Upminster,1465,0,"[1, 0, 0, 0]"
15937,15937,15937,Hillingdon,2021-04-23,Gibbs Gillespie - Ruislip,0,"Embassy Court, Regency Drive, Ruislip, Middlesex HA4",0,0,pre-owned,365000.0,flat,0,leasehold,2 bed flat for sale,51.57277,-0.424403,54.0,2,1,1,2021-04-23,365000.0,0,1,0,Ruislip,236,15,"[0, 0, 0, 1]"
15938,15938,15938,Hillingdon,2021-04-23,David Charles,1,"Joel Street, Northwood HA6",0,0,pre-owned,259950.0,flat,0,Other,1 bed flat for sale,51.598438,-0.410136,50.0,1,1,1,2021-04-23,269950.0,1,1,0,Northwood Hills,164,2,"[3, 0, 0, 0]"
15939,15939,15939,Hillingdon,2021-04-22,Gibbs Gillespie - Pinner,0,"Widenham Close, Pinner, Middlesex HA5",0,0,pre-owned,475000.0,terraced,0,freehold,2 bed terraced house for sale,51.584965,-0.397956,77.0,2,1,1,2021-04-22,525000.0,0,0,1,Eastcote,822,1,"[1, 0, 0, 0]"
15940,15940,15940,Hillingdon,2021-04-21,Gibbs Gillespie - Uxbridge,1,"Holly Gardens, West Drayton UB7",0,0,pre-owned,165000.0,studio,0,leasehold,Studio for sale,51.508013,-0.464534,29.0,0,1,1,2021-04-21,165000.0,0,1,0,Upminster,3894,5,"[3, 0, 0, 0]"
15941,15941,15941,Hillingdon,2021-04-21,Coopers Residential - Ruislip,0,"Woodville Gardens, Ruislip HA4",0,0,pre-owned,600000.0,semi_detached_bungalow,0,Other,4 bed semi-detached bungalow for sale,51.577049,-0.439452,98.0,4,2,2,2021-04-21,625000.0,0,1,1,West Ruislip,865,0,"[3, 0, 0, 0]"
15942,15942,15942,Hillingdon,2021-04-21,Elliott and Company,0,"Flamborough Road, Ruislip Manor, Ruislip HA4",0,0,pre-owned,80000.0,land,1,leasehold,Land for sale,51.565906,-0.408444,106.0,0,0,0,2021-04-21,80000.0,0,0,0,Ruislip Gardens,682,2,"[2, 0, 0, 0]"
15943,15943,15943,Hillingdon,2021-04-21,Gibbs Gillespie - Uxbridge,1,"Albert Road, Yiewsley, West Drayton UB7",0,0,pre-owned,475000.0,semi_detached,0,freehold,4 bed semi-detached house for sale,51.512807,-0.470868,108.0,4,3,1,2021-04-21,490000.0,0,1,1,Uxbridge,3390,14,"[4, 1, 0, 2]"
15944,15944,15944,Hillingdon,2021-04-21,Gibbs Gillespie - Ickenham,0,"Crosier Road, Ickenham, Uxbridge UB10",0,0,pre-owned,500000.0,end_terrace,0,freehold,2 bed end terrace house for sale,51.56135,-0.438739,110.0,2,2,1,2021-04-21,500000.0,1,0,1,Ickenham,238,3,"[4, 1, 1, 0]"
15945,15945,15945,Hillingdon,2021-04-20,Hunters - Hayes,0,"St Jeromes Grove, Hayes, Middlesex UB3",0,0,pre-owned,285000.0,flat,0,Other,2 bed flat for sale,51.518527,-0.441049,73.0,2,0,0,2021-04-20,300000.0,0,1,1,Hillingdon,3327,0,"[1, 0, 0, 0]"
15946,15946,15946,Hillingdon,2021-04-20,LRC - London Sales and Letting Agency,1,"Furzeham Road, West Drayton, London UB7",0,0,new,455000.0,flat,0,leasehold,2 bed flat for sale,51.507959,-0.468875,80.0,2,2,1,2021-04-20,455000.0,0,1,1,Uxbridge,3920,11,"[4, 2, 0, 0]"
15947,15947,15947,Hillingdon,2021-04-20,Gibbs Gillespie - Uxbridge,1,"Lawn Avenue, West Drayton UB7",0,0,pre-owned,750000.0,detached,0,freehold,4 bed detached house for sale,51.507787,-0.479888,152.0,4,2,2,2021-04-20,750000.0,0,1,1,Uxbridge,3943,4,"[2, 1, 0, 0]"
15948,15948,15948,Hillingdon,2021-04-20,DRE Residential,1,"Padcroft, Bentinck Road, West Drayton UB7",0,0,new,461000.0,flat,0,leasehold,2 bed flat for sale,51.511124,-0.474067,80.0,2,2,1,2021-04-20,461000.0,1,1,1,Uxbridge,3515,16,"[3, 1, 0, 2]"
15949,15949,15949,Hillingdon,2021-04-19,Gibbs Gillespie - New Homes,1,"The Mansion, 13 Eastbury Avenue, Northwood HA6",0,0,new,595000.0,flat,0,leasehold,2 bed flat for sale,51.617612,-0.41799,71.0,2,2,0,2021-04-19,650000.0,0,1,0,Northwood,650,0,"[2, 0, 0, 0]"
15950,15950,15950,Hillingdon,2021-04-17,Sab Estate Agent Ltd,0,"Nursery Road, Pinner HA5",0,0,pre-owned,425000.0,terraced,0,leasehold,3 bed terraced house for sale,51.595889,-0.39519,84.0,3,1,1,2021-04-17,425000.0,1,1,1,Northwood Hills,945,1,"[2, 0, 0, 1]"
15951,15951,15951,Hillingdon,2021-04-17,Hiltons Estates,0,"Carfax Road, Hayes UB3",0,0,pre-owned,799950.0,semi_detached,0,Other,6 bed semi-detached house for sale,51.494598,-0.416785,204.0,6,4,2,2021-04-17,799950.0,0,1,1,Upminster,2933,1,"[1, 0, 0, 0]"
15952,15952,15952,Hillingdon,2021-04-16,Savills - Northwood,0,"Church Road, Northwood, Middlesex HA6",0,0,pre-owned,725000.0,detached,0,freehold,3 bed detached house for sale,51.609155,-0.415273,103.0,3,2,2,2021-04-16,725000.0,0,0,1,Northwood,538,0,"[4, 0, 0, 0]"
15953,15953,15953,Hillingdon,2021-04-16,Gibbs Gillespie - Ruislip,0,"Flowers Avenue, Ruislip HA4",0,0,pre-owned,375000.0,flat,0,Other,2 bed flat for sale,51.582751,-0.407997,61.0,2,2,2,2021-04-16,375000.0,0,1,0,Upminster,986,0,"[3, 0, 0, 0]"
15954,15954,15954,Hillingdon,2021-04-16,Coopers Residential - Ruislip,1,"Mill Drive, Ruislip Manor, Ruislip HA4",0,0,pre-owned,410000.0,flat,0,leasehold,2 bed flat for sale,51.578243,-0.430466,68.0,2,2,1,2021-04-16,430000.0,1,1,1,Upminster,762,7,"[1, 0, 1, 0]"
15955,15955,15955,Hillingdon,2021-04-16,BEWEST,1,"Horton Road, West Drayton UB7",0,1,new,117000.0,flat,0,leasehold,2 bed flat for sale,51.510767,-0.471915,72.0,2,2,0,2021-04-16,92250.0,1,1,0,Uxbridge,3493,16,"[3, 1, 0, 2]"
15956,15956,15956,Hillingdon,2021-04-15,Gibbs Gillespie - Ruislip Manor,0,"Cardinal Road, Ruislip, Middlesex HA4",0,0,pre-owned,550000.0,bungalow,0,freehold,3 bed bungalow for sale,51.573686,-0.390398,88.0,3,1,1,2021-04-15,550000.0,0,0,1,Eastcote,768,1,"[3, 0, 0, 0]"
15957,15957,15957,Hillingdon,2021-04-14,Urban Moves,0,"Pounden Court, 6 Aitken Close, Ruislip, Greater London HA4",0,1,pre-owned,135000.0,flat,0,Other,1 bed flat for sale,51.583321,-0.407295,48.0,1,0,0,2021-04-14,141750.0,0,1,1,Upminster,1073,0,"[3, 0, 0, 0]"
15958,15958,15958,Hillingdon,2021-04-14,Robert Cooper & Co,1,"Wood Lane, Ruislip HA4",1,0,pre-owned,249950.0,flat,0,Other,1 bed flat for sale,51.570301,-0.424261,45.0,1,1,1,2021-04-14,249950.0,0,1,1,Ruislip,401,10,"[1, 0, 0, 1]"
15959,15959,15959,Hillingdon,2021-04-14,Gibbs Gillespie - Northwood,0,"Murray Road, Northwood, Middlesex HA6",0,0,pre-owned,1075000.0,semi_detached,0,freehold,4 bed semi-detached house for sale,51.609886,-0.425249,147.0,4,2,2,2021-04-14,1100000.0,0,1,1,Northwood,184,4,"[5, 1, 0, 1]"
15960,15960,15960,Hillingdon,2021-04-14,Gibbs Gillespie - Uxbridge,0,"Windsor Avenue, Hillingdon, Uxbridge UB10",0,0,pre-owned,650000.0,semi_detached,0,freehold,4 bed semi-detached house for sale,51.545043,-0.444662,141.0,4,2,2,2021-04-14,650000.0,0,1,1,Hillingdon,916,0,"[5, 3, 0, 0]"
15961,15961,15961,Hillingdon,2021-04-13,Hiltons Estates,0,"Longhook Gardens, Northolt UB5",0,0,pre-owned,699950.0,semi_detached,0,Other,6 bed semi-detached house for sale,51.534099,-0.408208,181.0,6,3,1,2021-04-13,599950.0,0,1,1,South Ruislip,2769,0,"[5, 0, 0, 0]"
15962,15962,15962,Hillingdon,2021-04-13,Hiltons Estates,0,"Longhook Gardens, Northolt UB5",0,0,pre-owned,699950.0,semi_detached,0,Other,6 bed semi-detached house for sale,51.534099,-0.408208,181.0,6,3,1,2021-04-13,599950.0,0,1,1,South Ruislip,2769,0,"[5, 0, 0, 0]"
15963,15963,15963,Hillingdon,2021-04-13,Gibbs Gillespie - Northwood,0,"Knoll Crescent, Northwood, Northwood, Northwood HA6",0,0,pre-owned,530000.0,end_terrace,0,freehold,3 bed end terrace house for sale,51.603763,-0.419279,85.0,3,1,1,2021-04-13,565000.0,1,1,1,Upminster,901,0,"[0, 0, 0, 0]"
15964,15964,15964,Hillingdon,2021-04-13,Gibbs Gillespie - Uxbridge,0,"Albacore Way, Hayes UB3",0,0,pre-owned,250000.0,flat,0,leasehold,1 bed flat for sale,51.51501,-0.42273,52.0,1,1,1,2021-04-13,275000.0,0,1,1,Upminster,4315,0,"[3, 0, 1, 0]"
15965,15965,15965,Hillingdon,2021-04-12,Gibbs Gillespie - Uxbridge,0,"Braybourne Close, Uxbridge, London UB8",0,0,pre-owned,265000.0,flat,0,leasehold,1 bed flat for sale,51.551978,-0.481576,47.0,1,1,1,2021-04-12,275000.0,1,1,0,Uxbridge,603,6,"[2, 0, 0, 2]"
15966,15966,15966,Hillingdon,2021-04-12,Coopers Residential - Ruislip,1,"Wyevale Close, Northwood Hills HA5",0,0,pre-owned,245000.0,flat,0,Other,1 bed flat for sale,51.594139,-0.40953,55.0,1,1,1,2021-04-12,250000.0,0,1,0,Northwood Hills,516,0,"[2, 0, 0, 0]"
15967,15967,15967,Hillingdon,2021-04-09,Coopers Residential - Uxbridge,1,"Plot 76, The Dice, St Andrew's Park, Uxbridge UB10",0,0,new,481950.0,flat,0,Other,2 bed flat for sale,51.543003,-0.469915,69.0,2,2,1,2021-04-09,481950.0,1,0,0,Uxbridge,639,0,"[2, 1, 1, 0]"
15968,15968,15968,Hillingdon,2021-04-09,Allday & Miller,1,"Brindley Place, Uxbridge UB8",0,0,pre-owned,270000.0,flat,0,Other,1 bed flat for sale,51.520679,-0.482423,53.0,1,1,1,2021-04-09,270000.0,1,1,1,Uxbridge,2708,2,"[2, 0, 0, 1]"
15969,15969,15969,Hillingdon,2021-04-08,Gibbs Gillespie - Ickenham,0,"Tayfield Close, Ickenham, Uxbridge UB10",0,0,pre-owned,835000.0,detached,0,Other,5 bed detached house for sale,51.565925,-0.43612,175.0,5,3,2,2021-04-08,875000.0,0,0,1,West Ruislip,511,4,"[1, 1, 1, 0]"
15970,15970,15970,Hillingdon,2021-04-07,Hiltons Estates,0,"Drenon Square, Hayes UB3",0,0,pre-owned,489950.0,terraced,0,Other,4 bed terraced house for sale,51.5135,-0.417571,126.0,4,2,1,2021-04-07,489950.0,0,1,1,Upminster,4357,0,"[3, 2, 0, 0]"
15971,15971,15971,Hillingdon,2021-04-01,Carson & Co. - Maidenhead Sales,1,"Hayes, Middlesex UB3",0,1,new,101250.0,flat,0,leasehold,2 bed flat for sale,51.503882,-0.421751,75.0,2,2,1,2021-04-01,101250.0,1,0,0,Hatton Cross,4240,3,"[1, 1, 0, 2]"
15972,15972,15972,Hillingdon,2021-04-01,Carson & Co. - Maidenhead Sales,1,"Hayes, Middlesex UB3",0,1,new,80000.0,flat,0,leasehold,1 bed flat for sale,51.503882,-0.421751,51.0,1,1,1,2021-04-01,80000.0,1,0,0,Hatton Cross,4240,3,"[1, 1, 0, 2]"
15973,15973,15973,Hillingdon,2021-04-01,Carson & Co. - Maidenhead Sales,1,"Hayes, Middlesex UB3",0,1,new,75000.0,studio,0,leasehold,Studio for sale,51.503882,-0.421751,47.0,0,1,1,2021-04-01,75000.0,1,0,0,Hatton Cross,4240,3,"[1, 1, 0, 2]"
15974,15974,15974,Hillingdon,2021-04-01,Carson & Co. - Maidenhead Sales,1,"Hayes, Middlesex UB3",0,1,new,118750.0,flat,0,leasehold,3 bed flat for sale,51.503882,-0.421751,97.0,3,2,1,2021-04-01,118750.0,1,0,0,Hatton Cross,4240,3,"[1, 1, 0, 2]"
15975,15975,15975,Hillingdon,2021-04-01,Carson & Co. - Maidenhead Sales,1,"Hayes, Middlesex UB3",0,1,new,127500.0,flat,0,leasehold,3 bed flat for sale,51.503882,-0.421751,115.0,3,2,1,2021-04-01,127500.0,1,0,0,Hatton Cross,4240,3,"[1, 1, 0, 2]"
15976,15976,15976,Hillingdon,2021-04-01,Carson & Co. - Maidenhead Sales,1,"Hayes, Middlesex UB3",0,1,new,98750.0,flat,0,leasehold,2 bed flat for sale,51.503882,-0.421751,70.0,2,2,1,2021-04-01,98750.0,1,0,0,Hatton Cross,4240,3,"[1, 1, 0, 2]"
15977,15977,15977,Hillingdon,2021-04-01,Carson & Co. - Maidenhead Sales,1,"Hayes, Middlesex UB3",0,1,new,96250.0,flat,0,leasehold,2 bed flat for sale,51.503882,-0.421751,63.0,2,2,1,2021-04-01,96250.0,1,0,0,Hatton Cross,4240,3,"[1, 1, 0, 2]"
15978,15978,15978,Hillingdon,2021-04-01,Carson & Co. - Maidenhead Sales,1,"Hayes, Middlesex UB3",0,1,new,103750.0,flat,0,leasehold,2 bed flat for sale,51.503882,-0.421751,74.0,2,2,1,2021-04-01,103750.0,1,0,0,Hatton Cross,4240,3,"[1, 1, 0, 2]"
15979,15979,15979,Hillingdon,2021-04-01,Carson & Co. - Maidenhead Sales,1,"Hayes, Middlesex UB3",0,1,new,93750.0,flat,0,leasehold,2 bed flat for sale,51.503882,-0.421751,63.0,2,2,1,2021-04-01,93750.0,1,0,0,Hatton Cross,4240,3,"[1, 1, 0, 2]"
15980,15980,15980,Hillingdon,2021-04-01,Gibbs Gillespie - Ruislip,0,"Coleridge Drive, Ruislip HA4",0,0,pre-owned,550000.0,terraced,0,freehold,3 bed terraced house for sale,51.58201,-0.403264,114.0,3,2,1,2021-04-01,550000.0,0,0,1,Eastcote,838,4,"[2, 0, 0, 1]"
15981,15981,15981,Hillingdon,2021-04-01,Coopers Residential - Ickenham,0,"Gilbey Close, Ickenham UB10",0,0,pre-owned,775000.0,detached,0,Other,4 bed detached house for sale,51.558582,-0.446335,65.0,4,1,1,2021-04-01,775000.0,0,1,1,Upminster,529,0,"[2, 0, 1, 0]"
15982,15982,15982,Hillingdon,2021-04-01,Robert Cooper & Co,0,"North View, Pinner HA5",0,0,pre-owned,775000.0,semi_detached,0,Other,4 bed semi-detached house for sale,51.577098,-0.396604,144.0,4,2,2,2021-04-01,839950.0,0,1,1,Eastcote,184,5,"[3, 0, 0, 1]"
15983,15983,15983,Hillingdon,2021-03-31,Coopers Residential - Ruislip,0,"Withy Lane, Ruislip HA4",0,0,pre-owned,355000.0,flat,0,Other,2 bed flat for sale,51.588668,-0.436651,64.0,2,1,1,2021-03-31,355000.0,0,1,1,Upminster,1762,2,"[0, 0, 0, 0]"
15984,15984,15984,Hillingdon,2021-03-31,Chancellors - Northwood,1,"Northwood HA6,",0,0,pre-owned,237500.0,flat,0,leasehold,3 bed flat for sale,51.600773,-0.410279,66.0,3,0,1,2021-03-31,250000.0,0,0,0,Northwood Hills,41,2,"[2, 1, 0, 0]"
15985,15985,15985,Hillingdon,2021-03-31,Robert Cooper & Co,1,"Kent Gardens, Ruislip HA4",0,0,pre-owned,275000.0,maisonette,0,leasehold,1 bed maisonette for sale,51.580799,-0.408017,48.0,1,1,1,2021-03-31,349950.0,0,0,1,Ruislip Manor,851,0,"[3, 0, 0, 0]"
15986,15986,15986,Hillingdon,2021-03-31,Gibbs Gillespie - Uxbridge,1,"Woodhall Close, Uxbridge, Middlesex UB8",0,0,pre-owned,783000.0,detached,0,freehold,4 bed detached house for sale,51.55907,-0.47558,135.0,4,2,3,2021-03-31,830000.0,0,1,1,Uxbridge,1210,0,"[0, 0, 0, 0]"
15987,15987,15987,Hillingdon,2021-03-30,Coopers Residential - Ruislip,0,"Wood Lane, Ruislip HA4",1,0,pre-owned,360000.0,flat,0,leasehold,2 bed flat for sale,51.571163,-0.428056,55.0,2,1,1,2021-03-30,360000.0,0,1,1,Ruislip,477,10,"[1, 0, 0, 1]"
15988,15988,15988,Hillingdon,2021-03-29,Gibbs Gillespie - Uxbridge,1,"Colley House, Whitehall Road, Uxbridge, Middlesex UB8",0,0,pre-owned,175000.0,studio,0,leasehold,Studio for sale,51.542308,-0.478437,32.0,0,1,1,2021-03-29,190000.0,1,1,1,Uxbridge,864,9,"[4, 1, 1, 0]"
15989,15989,15989,Hillingdon,2021-03-29,Coopers Residential - Ruislip,1,"Sharps Lane, Ruislip HA4",0,0,pre-owned,875000.0,detached,0,Other,4 bed detached house for sale,51.573089,-0.432219,135.0,4,2,2,2021-03-29,900000.0,0,0,1,West Ruislip,493,8,"[1, 0, 0, 0]"
15990,15990,15990,Hillingdon,2021-03-29,Reinhardts Estate Agents,0,"Coldharbour Lane, Hayes UB3",0,0,pre-owned,249950.0,flat,0,leasehold,2 bed flat for sale,51.507982,-0.416774,6.0,2,1,1,2021-03-29,254950.0,0,0,0,Upminster,4319,2,"[2, 2, 0, 1]"
15991,15991,15991,Hillingdon,2021-03-29,Strike,1,"Field End Road, Eastcote, Pinner HA5",0,0,pre-owned,250000.0,flat,0,leasehold,1 bed flat for sale,51.578016,-0.398329,40.0,1,1,1,2021-03-29,260000.0,0,0,0,Eastcote,182,5,"[2, 0, 0, 1]"
15992,15992,15992,Hillingdon,2021-03-27,Gibbs Gillespie - Northwood,0,"Addison Way, Northwood, Middlesex HA6",0,0,pre-owned,475000.0,terraced,0,Other,3 bed terraced house for sale,51.604519,-0.414932,95.0,3,1,2,2021-03-27,500000.0,1,1,1,Northwood Hills,533,1,"[2, 1, 0, 0]"
15993,15993,15993,Hillingdon,2021-03-26,Savills - Northwood,1,"Woodchester Court, 36 Rickmansworth Road, Northwood, Middlesex HA6",0,0,pre-owned,515000.0,flat,0,leasehold,2 bed flat for sale,51.606475,-0.425229,68.0,2,1,1,2021-03-26,530000.0,0,1,1,Northwood,598,0,"[1, 0, 0, 1]"
15994,15994,15994,Hillingdon,2021-03-25,Gibbs Gillespie - Northwood,0,"Murray Road, Northwood, Middlesex HA6",0,0,pre-owned,600000.0,flat,0,leasehold,4 bed flat for sale,51.609747,-0.424658,101.0,4,2,1,2021-03-25,675000.0,0,0,1,Northwood,179,4,"[5, 1, 0, 1]"
15995,15995,15995,Hillingdon,2021-03-25,Coopers Residential - Pinner,1,"Hills Lane, Northwood HA6",0,0,pre-owned,900000.0,detached,0,Other,3 bed detached house for sale,51.604915,-0.425794,91.0,3,2,1,2021-03-25,900000.0,0,1,1,Northwood,642,0,"[1, 0, 0, 0]"
15996,15996,15996,Hillingdon,2021-03-24,Cameron Estate Agents,1,"Vine Street, Uxbridge UB8",0,0,new,350000.0,flat,0,Other,1 bed flat for sale,51.544914,-0.477158,0.0,1,1,1,2021-03-24,350000.0,1,0,0,Uxbridge,385,14,"[5, 1, 1, 2]"
15997,15997,15997,Hillingdon,2021-03-23,Gibbs Gillespie - Northwood,0,"Silverwood House, Sandy Lane, Northwood, Middlesex HA6",0,0,pre-owned,3000000.0,detached,0,freehold,5 bed detached house for sale,51.616393,-0.406204,469.0,5,6,4,2021-03-23,3500000.0,1,1,1,Upminster,1262,0,"[1, 0, 0, 0]"
15998,15998,15998,Hillingdon,2021-03-22,Gibbs Gillespie - Ruislip Manor,0,"Elliott Avenue, Ruislip, Middlesex HA4",0,0,pre-owned,440000.0,terraced,0,freehold,2 bed terraced house for sale,51.570348,-0.405164,61.0,2,1,1,2021-03-22,475000.0,1,1,1,Ruislip Manor,654,0,"[1, 0, 0, 0]"
15999,15999,15999,Hillingdon,2021-03-19,Chancellors - Northwood,0,"Ruislip, Middlesex HA4",0,0,pre-owned,850000.0,semi_detached,0,freehold,6 bed semi-detached house for sale,51.552,-0.403,188.0,6,3,0,2021-03-19,850000.0,0,0,0,South Ruislip,551,1,"[1, 0, 0, 0]"
