,level_0,index,Borough,date_listed,agency_name,chain_free,address,isRetirementHome,isSharedOwnership,listingCondition,price,propertyType,isAuction,tenure,title,latitude,longitude,floor_area_msq,numBedrooms,numBathrooms,numLivingRooms,firstPublishedDate,firstPublishedPrice,balcony_terrace,parking,garden,closest_station_name,closest_station_distance_sec,pub_restaurant,amenities_shop
17300,17300,17300,Newham,2021-04-23,Spencer James Residential,0,"Lowestoft Mews, Galleons Lock E16",0,0,pre-owned,284995.0,flat,0,share_of_freehold,1 bed flat for sale,51.499866,0.070164,50.0,1,1,1,2021-04-23,285000.0,1,1,0,Gallions Reach,819,2,"[2, 1, 0, 0]"
17301,17301,17301,Newham,2021-04-23,Winkworth - Bow,1,"Western Gateway, London E16",0,0,pre-owned,360000.0,flat,0,leasehold,1 bed flat for sale,51.508331,0.019274,53.0,1,1,1,2021-04-23,360000.0,1,0,0,Royal Victoria,93,14,"[4, 2, 0, 0]"
17302,17302,17302,Newham,2021-04-23,Winkworth - Bow,1,"Western Gateway, London E16",0,0,pre-owned,550000.0,flat,0,leasehold,2 bed flat for sale,51.508331,0.019274,81.0,2,1,1,2021-04-23,550000.0,1,0,0,Royal Victoria,93,14,"[4, 2, 0, 0]"
17303,17303,17303,Newham,2021-04-23,Winkworth - Bow,1,"Western Gateway, London E16",0,0,new,360000.0,flat,0,leasehold,1 bed flat for sale,51.508331,0.019274,53.0,1,1,1,2021-04-23,360000.0,1,0,0,Royal Victoria,93,14,"[4, 2, 0, 0]"
17304,17304,17304,Newham,2021-04-23,Winkworth - Bow,1,"Western Gateway, London E16",0,0,new,550000.0,flat,0,leasehold,2 bed flat for sale,51.508331,0.019274,81.0,2,1,1,2021-04-23,550000.0,1,0,0,Royal Victoria,93,14,"[4, 2, 0, 0]"
17305,17305,17305,Newham,2021-04-21,Fraser & Co - City,1,"Discovery Tower, Canning Town E16",0,0,new,640000.0,flat,0,leasehold,2 bed flat for sale,51.514432,0.011456,74.0,2,2,1,2021-04-21,640000.0,1,0,1,Canning Town,375,13,"[3, 2, 0, 4]"
17306,17306,17306,Newham,2021-04-21,Prime London (Central and Riverside),1,"Townhouse, Starboard Way, Royal Wharf E16",0,0,pre-owned,820000.0,terraced,0,leasehold,4 bed terraced house for sale,51.5005,0.03081,164.0,4,2,1,2021-04-21,820000.0,1,1,1,Prince Regent,1351,2,"[2, 1, 0, 0]"
17307,17307,17307,Newham,2021-04-21,Vesper Group,0,"Bawley Court, Atlantis Avenue, London E16",0,0,pre-owned,425000.0,flat,0,Other,2 bed flat for sale,51.507758,0.078021,70.0,2,2,1,2021-04-21,375000.0,1,0,0,Gallions Reach,420,0,"[2, 0, 0, 1]"
17308,17308,17308,Newham,2021-04-20,Redrow - Pontoon Reach,1,"Thames Road, London E16",0,0,new,590000.0,flat,0,leasehold,3 bed flat for sale,51.502282,0.038343,86.0,3,2,0,2021-04-20,590000.0,1,0,1,Chesham,862,0,"[0, 0, 0, 0]"
17309,17309,17309,Newham,2021-04-20,Redrow - Pontoon Reach,1,"Thames Road, London E16",0,0,new,500000.0,flat,0,leasehold,2 bed flat for sale,51.502282,0.038343,68.0,2,2,0,2021-04-20,500000.0,1,0,1,Chesham,862,0,"[0, 0, 0, 0]"
17310,17310,17310,Newham,2021-04-20,Hawks,0,"Balaam Street, London E13",0,0,pre-owned,335000.0,flat,0,Other,1 bed flat for sale,51.528545,0.024157,65.0,1,1,1,2021-04-20,350000.0,0,0,1,Plaistow,511,4,"[5, 5, 0, 1]"
17311,17311,17311,Newham,2021-04-20,Idasons,1,"Apartment, Tidal Basin Road, London E16",0,0,new,1150000.0,flat,0,leasehold,3 bed flat for sale,51.50838,0.015384,110.0,3,2,1,2021-04-20,1150000.0,1,0,0,Royal Victoria,220,8,"[3, 1, 0, 0]"
17312,17312,17312,Newham,2021-04-19,Nested Ltd,0,"Taylor House, Upton Park, London E13",0,0,pre-owned,475000.0,flat,0,leasehold,3 bed flat for sale,51.532622,0.038528,90.0,3,2,1,2021-04-19,500000.0,1,0,0,Upton Park,370,6,"[4, 1, 1, 3]"
17313,17313,17313,Newham,2021-04-19,Ernest-Brooks International,0,"Parkside Court, 15 Booth Road E16",0,0,pre-owned,560000.0,flat,0,leasehold,2 bed flat for sale,51.500984,0.036333,79.0,2,2,1,2021-04-19,560000.0,0,1,0,Prince Regent,1133,2,"[0, 1, 0, 0]"
17314,17314,17314,Newham,2021-04-18,DRE Residential,1,"Pontoon Reach, Thames Rd, Royal Docks E16",0,0,new,500000.0,flat,0,leasehold,2 bed flat for sale,51.501828,0.039214,70.0,2,2,1,2021-04-18,500000.0,1,0,1,Chesham,862,1,"[0, 0, 0, 0]"
17315,17315,17315,Newham,2021-04-17,Hawks,1,"Great Eastern Road, London E15",0,0,new,599500.0,flat,0,Other,2 bed flat for sale,51.540699,-0.001832,72.0,2,2,1,2021-04-17,599500.0,0,0,0,Stratford,743,59,"[9, 3, 4, 5]"
17316,17316,17316,Newham,2021-04-16,Outlook Property - Stratford,0,"Turnstone Close, Plaistow, London E13",0,0,pre-owned,625000.0,end_terrace,0,freehold,4 bed end terrace house for sale,51.526397,0.018356,139.0,4,2,1,2021-04-16,625000.0,0,1,1,Plaistow,583,7,"[4, 4, 0, 0]"
17317,17317,17317,Newham,2021-04-16,Barratt London - New Market Place,1,"""Raine House"" at Pilgrims Way, London E6",0,0,new,338995.0,flat,0,leasehold,1 bed flat for sale,51.535022,0.051874,51.0,1,1,1,2021-04-16,338995.0,1,0,1,East Ham,440,9,"[7, 3, 0, 3]"
17318,17318,17318,Newham,2021-04-15,DRE Residential,1,"Pontoon Reach, Thames Rd, Royal Docks E16",0,0,new,372500.0,flat,0,leasehold,1 bed flat for sale,51.501828,0.039214,51.0,1,1,1,2021-04-15,372500.0,1,0,1,Chesham,862,1,"[0, 0, 0, 0]"
17319,17319,17319,Newham,2021-04-15,Madison Brook International E16,0,"Tidal Basin Road, Royal Victoria Dock E16",0,0,pre-owned,595000.0,flat,0,Other,2 bed flat for sale,51.50838,0.015412,83.0,2,2,1,2021-04-15,595000.0,1,0,0,Royal Victoria,221,8,"[3, 1, 0, 0]"
17320,17320,17320,Newham,2021-04-15,JLL - Canary Wharf,0,"Schooner Road, London E16",0,0,pre-owned,575000.0,flat,0,leasehold,2 bed flat for sale,51.499738,0.028461,74.0,2,2,1,2021-04-15,599000.0,1,0,0,Chesham,1483,2,"[2, 1, 0, 0]"
17321,17321,17321,Newham,2021-04-14,Nested Ltd,0,"Corporation Street, Stratford, London E15",0,0,pre-owned,350000.0,flat,0,leasehold,2 bed flat for sale,51.530445,0.008732,63.0,2,0,0,2021-04-14,350000.0,0,0,1,West Ham,360,6,"[3, 1, 1, 2]"
17322,17322,17322,Newham,2021-04-14,CBRE,0,"Hammersley Road, London E16",0,0,pre-owned,450000.0,flat,0,leasehold,2 bed flat for sale,51.516899,0.019755,66.0,2,1,1,2021-04-14,485000.0,1,0,0,Royal Victoria,923,7,"[7, 1, 0, 0]"
17323,17323,17323,Newham,2021-04-14,"Purplebricks, Head Office",0,"Western Road, London E13",0,0,pre-owned,650000.0,terraced,0,freehold,5 bed terraced house for sale,51.532139,0.032049,170.0,5,2,1,2021-04-14,650000.0,1,0,1,Upton Park,330,6,"[6, 0, 1, 3]"
17324,17324,17324,Newham,2021-04-13,Madison Brook International E16,0,"The Oxygen Apartments, Royal Victoria Dock E16",0,0,pre-owned,360000.0,flat,0,Other,1 bed flat for sale,51.50825,0.019153,55.0,1,1,1,2021-04-13,360000.0,1,0,0,Royal Victoria,98,13,"[4, 2, 0, 0]"
17325,17325,17325,Newham,2021-04-13,Madison Brook International E16,0,"The Oxygen Apartments, Royal Victoria Dock E16",0,0,pre-owned,550000.0,flat,0,Other,2 bed flat for sale,51.508445,0.019408,81.0,2,2,1,2021-04-13,550000.0,1,0,0,Royal Victoria,131,15,"[4, 2, 0, 0]"
17326,17326,17326,Newham,2021-04-13,Nested Ltd,0,"Pendant Court, Royal Wharf, London E16",0,0,pre-owned,695000.0,flat,0,leasehold,3 bed flat for sale,51.499751,0.026687,102.0,3,2,2,2021-04-13,725000.0,1,0,0,Chesham,1497,2,"[2, 1, 0, 0]"
17327,17327,17327,Newham,2021-04-13,London Move,1,"Cranbourne Road, Leyton E15",0,0,pre-owned,500000.0,terraced,0,freehold,3 bed terraced house for sale,51.55342,-0.006455,70.0,3,1,2,2021-04-13,515000.0,0,0,1,Leyton,324,6,"[5, 1, 0, 1]"
17328,17328,17328,Newham,2021-04-12,Keatons - Stratford,1,"Gerry Raffles Square, Stratford, London E15",0,0,pre-owned,295000.0,flat,0,leasehold,1 bed flat for sale,51.542587,0.000225,46.0,1,1,1,2021-04-12,300000.0,1,0,0,Stratford,837,46,"[11, 7, 4, 7]"
17329,17329,17329,Newham,2021-04-12,Capital Stay,0,"130 Barking Road, London E16",0,0,pre-owned,443000.0,flat,0,leasehold,2 bed flat for sale,51.516518,0.011297,74.0,2,2,1,2021-04-12,430000.0,1,1,0,Canning Town,369,17,"[5, 2, 0, 4]"
17330,17330,17330,Newham,2021-04-12,Vantage Properties & Management Ltd,0,"Mercier Court, 3 Starboard Way, Royal Wharf E16",0,0,pre-owned,425000.0,flat,0,leasehold,1 bed flat for sale,51.50183,0.030548,55.0,1,1,1,2021-04-12,450000.0,1,0,0,Prince Regent,1250,3,"[2, 1, 0, 0]"
17331,17331,17331,Newham,2021-04-11,Pioneer Property Group,1,"Manor Road, London E15",0,0,new,857000.0,flat,0,leasehold,3 bed flat for sale,51.5328985460123,0.0092343558282208,95.0,3,2,1,2021-04-11,857000.0,0,0,1,West Ham,582,12,"[7, 2, 0, 2]"
17332,17332,17332,Newham,2021-04-11,Pioneer Property Group,1,"Manor Road, London E15",0,0,new,685000.0,flat,0,leasehold,2 bed flat for sale,51.5328985460123,0.0092343558282208,80.0,2,2,1,2021-04-11,685000.0,0,0,1,West Ham,582,12,"[7, 2, 0, 2]"
17333,17333,17333,Newham,2021-04-11,Pioneer Property Group,1,"North Woolwich, London E16",0,0,new,377500.0,flat,0,leasehold,1 bed flat for sale,51.499689,0.063211,50.0,1,1,1,2021-04-11,377500.0,1,0,0,Cyprus,1389,3,"[3, 0, 0, 0]"
17334,17334,17334,Newham,2021-04-11,Pioneer Property Group,1,"Manor Road, London E15",0,0,new,445000.0,studio,0,leasehold,Studio for sale,51.5328985460123,0.0092343558282208,44.0,0,1,1,2021-04-11,445000.0,0,0,1,West Ham,582,12,"[7, 2, 0, 2]"
17335,17335,17335,Newham,2021-04-11,Pioneer Property Group,1,"North Woolwich, London E16",0,0,new,370000.0,studio,0,leasehold,Studio for sale,51.499689,0.063211,46.0,0,1,1,2021-04-11,370000.0,1,0,0,Cyprus,1389,3,"[3, 0, 0, 0]"
17336,17336,17336,Newham,2021-04-11,Pioneer Property Group,1,"North Woolwich, London E16",0,0,new,605000.0,flat,0,leasehold,3 bed flat for sale,51.499689,0.063211,86.0,3,2,1,2021-04-11,605000.0,1,0,0,Cyprus,1389,3,"[3, 0, 0, 0]"
17337,17337,17337,Newham,2021-04-11,Pioneer Property Group,1,"Manor Road, London E15",0,0,new,485000.0,flat,0,leasehold,1 bed flat for sale,51.5328985460123,0.0092343558282208,60.0,1,1,1,2021-04-11,485000.0,0,0,1,West Ham,582,12,"[7, 2, 0, 2]"
17338,17338,17338,Newham,2021-04-11,Pioneer Property Group,1,"North Woolwich, London E16",0,0,new,500000.0,flat,0,leasehold,2 bed flat for sale,51.499689,0.063211,70.0,2,2,1,2021-04-11,500000.0,1,0,0,Cyprus,1389,3,"[3, 0, 0, 0]"
17339,17339,17339,Newham,2021-04-10,Petty Son & Prestwich,1,"Aldersbrook Road, London E12",0,0,pre-owned,325000.0,flat,0,Other,2 bed flat for sale,51.562614,0.034208,69.0,2,1,1,2021-04-10,400000.0,0,1,1,Wanstead,1772,0,"[1, 1, 0, 0]"
17340,17340,17340,Newham,2021-04-10,Ballymore - London City Island,1,"123 City Island Way, London E14",0,0,new,545000.0,flat,0,leasehold,1 bed flat for sale,51.513041,0.006967,52.0,1,1,1,2021-04-10,545000.0,0,0,1,Canning Town,235,11,"[2, 1, 0, 4]"
17341,17341,17341,Newham,2021-04-10,JLL - Stratford,0,"Great Eastern Road, London E15",0,0,pre-owned,465000.0,flat,0,leasehold,1 bed flat for sale,51.540154,-0.00056,53.0,1,1,1,2021-04-10,465000.0,1,0,1,Stratford,785,48,"[10, 4, 5, 4]"
17342,17342,17342,Newham,2021-04-09,Strike,1,"Becket Avenue, London E6",0,0,pre-owned,475000.0,terraced,0,freehold,4 bed terraced house for sale,51.525765,0.062532,93.0,4,3,2,2021-04-09,495000.0,1,0,1,Beckton,1082,2,"[4, 1, 0, 2]"
17343,17343,17343,Newham,2021-04-09,JOHNS&CO - New Providence Wharf,0,"Amelia House, London City Island, London E14",0,0,pre-owned,465000.0,flat,0,Other,1 bed flat for sale,51.513524,0.006222,52.0,1,1,1,2021-04-09,465000.0,1,0,1,Canning Town,201,11,"[1, 1, 0, 4]"
17344,17344,17344,Newham,2021-04-09,JOHNS&CO - Royal Wharf,0,"Liner House, Royal Wharf, London E16",0,0,pre-owned,550000.0,flat,0,Other,1 bed flat for sale,51.500969,0.030547,76.0,1,1,1,2021-04-09,479950.0,1,0,1,Prince Regent,1319,3,"[2, 1, 0, 0]"
17345,17345,17345,Newham,2021-04-08,Strawberry Star - Nine Elms,0,"Hoola, 3 Tidal Basin Road, Royal Docks, London E16",0,0,pre-owned,435000.0,flat,0,leasehold,1 bed flat for sale,51.508462,0.015275,56.0,1,1,1,2021-04-08,435000.0,1,0,0,Royal Victoria,239,9,"[3, 1, 0, 0]"
17346,17346,17346,Newham,2021-04-08,Strawberry Star - Nine Elms,0,"Hoola, 1 Tidal Basin Road, Royal Docks, London E16",0,0,pre-owned,440000.0,flat,0,leasehold,1 bed flat for sale,51.508329,0.014747,56.0,1,1,1,2021-04-08,440000.0,1,0,0,Royal Victoria,223,8,"[3, 1, 0, 0]"
17347,17347,17347,Newham,2021-04-08,JLL - Stratford,1,"Great Eastern Road, London E15",0,0,pre-owned,500000.0,flat,0,leasehold,1 bed flat for sale,51.542733,-0.001485,50.0,1,1,1,2021-04-08,500000.0,0,0,0,Stratford,745,62,"[10, 2, 4, 7]"
17348,17348,17348,Newham,2021-04-08,Telford Homes - Gallions Point,1,"Atlantis Avenue, Newham E16",0,0,new,348750.0,flat,0,leasehold,1 bed flat for sale,51.509104,0.072027,47.0,1,1,0,2021-04-08,348750.0,0,0,0,Gallions Reach,118,0,"[5, 1, 0, 1]"
17349,17349,17349,Newham,2021-04-08,Keatons - Stratford,0,"Idmiston Road, Stratford, London E15",0,0,pre-owned,290000.0,flat,0,leasehold,2 bed flat for sale,51.550318,0.012492,47.0,2,1,1,2021-04-08,300000.0,0,0,0,Chesham,1358,15,"[10, 0, 1, 8]"
17350,17350,17350,Newham,2021-04-08,Keatons - Stratford,1,"Bridgepoint Lofts, 6 Shaftesbury Road, London E7",0,0,pre-owned,310000.0,flat,0,leasehold,2 bed flat for sale,51.540385,0.0383,83.0,2,1,1,2021-04-08,370000.0,0,0,0,Upton Park,647,6,"[5, 0, 0, 5]"
17351,17351,17351,Newham,2021-04-08,Keatons - Stratford,0,"Decapod Street, Stratford, London E15",0,0,pre-owned,700000.0,flat,0,leasehold,3 bed flat for sale,51.548141,-0.003239,119.0,3,3,1,2021-04-08,725000.0,0,0,1,Stratford,688,13,"[9, 1, 0, 2]"
17352,17352,17352,Newham,2021-04-08,Keatons - Stratford,1,"Ironbridge Mews, Stratford, London E15",0,0,pre-owned,500000.0,bungalow,0,freehold,2 bed bungalow for sale,51.5414016432432,0.0089440108108108,64.0,2,1,1,2021-04-08,500000.0,0,0,1,Chesham,1300,21,"[13, 9, 1, 4]"
17353,17353,17353,Newham,2021-04-07,Madison Brook International E16,0,"Westgate, Royal Victoria Dock E16",0,0,pre-owned,425000.0,flat,0,Other,2 bed flat for sale,51.508239,0.021602,69.0,2,2,1,2021-04-07,425000.0,1,0,0,Royal Victoria,230,14,"[3, 2, 1, 0]"
17354,17354,17354,Newham,2021-04-07,West End Residence,0,"Henniker Gardens, Upton Park E6",0,0,pre-owned,600000.0,terraced,0,freehold,3 bed terraced house for sale,51.527691,0.047364,132.0,3,3,1,2021-04-07,750000.0,0,0,1,Chesham,1108,2,"[3, 1, 0, 0]"
17355,17355,17355,Newham,2021-04-07,Jamie Lester Properties,0,"Kempton Mews, London E62Bf E6",0,0,pre-owned,350000.0,flat,0,leasehold,1 bed flat for sale,51.5358408703704,0.0592230679012345,50.0,1,1,0,2021-04-07,350000.0,1,0,0,East Ham,709,3,"[6, 1, 0, 2]"
17356,17356,17356,Newham,2021-04-06,Tyron Ash,0,"Crescent Road, London E13",0,0,pre-owned,800000.0,semi_detached,0,leasehold,6 bed semi-detached house for sale,51.535316,0.023826,186.0,6,2,2,2021-04-06,800000.0,0,0,1,Plaistow,681,2,"[8, 2, 0, 0]"
17357,17357,17357,Newham,2021-04-02,"Purplebricks, Head Office",1,"Claremont Close, London E16",0,0,new,240000.0,flat,1,leasehold,3 bed flat for sale,51.501715,0.064095,72.0,3,1,1,2021-04-02,300000.0,0,0,0,Chesham,1052,3,"[2, 0, 0, 0]"
17358,17358,17358,Newham,2021-04-01,Hamptons - Canary Wharf Sales,0,"Bywell Place, London E16",0,0,pre-owned,495000.0,flat,0,leasehold,2 bed flat for sale,51.516896,0.011274,73.0,2,2,1,2021-04-01,495000.0,1,0,0,Canning Town,330,17,"[5, 2, 0, 4]"
17359,17359,17359,Newham,2021-04-01,Hamptons - Canary Wharf Sales,0,"Maud Street, London E16",0,0,pre-owned,350000.0,flat,0,leasehold,1 bed flat for sale,51.516485,0.012282,56.0,1,1,1,2021-04-01,365000.0,1,0,0,Canning Town,760,18,"[5, 2, 0, 4]"
17360,17360,17360,Newham,2021-04-01,Madison Brook International E16,0,"Manchester Court, Custom House E16",0,0,pre-owned,325000.0,flat,0,Other,2 bed flat for sale,51.51213,0.028908,47.0,2,1,1,2021-04-01,345000.0,0,1,0,Chesham,903,9,"[4, 1, 0, 0]"
17361,17361,17361,Newham,2021-04-01,Love Your Home Ltd,0,"Maud Street, London E16",0,0,pre-owned,775000.0,flat,0,Other,3 bed flat for sale,51.516983,0.012141,127.0,3,2,1,2021-04-01,775000.0,1,1,1,Canning Town,437,17,"[6, 2, 0, 4]"
17362,17362,17362,Newham,2021-03-31,Benjamin Stevens,0,"Candle Light Court, 124 Romford Road, London E15",0,0,pre-owned,350000.0,flat,0,leasehold,2 bed flat for sale,51.543472,0.012615,58.0,2,1,1,2021-03-31,350000.0,0,1,0,Plaistow,1485,10,"[9, 8, 1, 5]"
17363,17363,17363,Newham,2021-03-31,Your Move - Forest Gate,0,"Earlham Grove, London E7",0,0,pre-owned,1000000.0,semi_detached,0,leasehold,6 bed semi-detached house for sale,51.547299,0.015914,242.0,6,2,2,2021-03-31,1000000.0,0,0,1,Chesham,1466,2,"[10, 1, 1, 2]"
17364,17364,17364,Newham,2021-03-31,Barratt London - Upton Gardens,1,"""St Pier Court"" at 1 Academy House, Thunderer Street, London E13",0,0,new,365000.0,flat,0,leasehold,1 bed flat for sale,51.53246,0.037413,51.0,1,1,1,2021-03-31,365000.0,1,0,1,Upton Park,308,5,"[6, 0, 1, 3]"
17365,17365,17365,Newham,2021-03-30,LiFE Residential - Royal Wharf,0,"Kelson House, 8 Schooner Road, Royal Wharf, London E16",0,0,pre-owned,700000.0,flat,0,leasehold,3 bed flat for sale,51.499073,0.028034,102.0,3,2,1,2021-03-30,720000.0,1,1,0,Chesham,1561,2,"[2, 1, 0, 0]"
17366,17366,17366,Newham,2021-03-30,Madison Brook International E16,0,"The Oxygen Apartments, Royal Victoria Dock E16",0,0,pre-owned,320000.0,flat,0,Other,1 bed flat for sale,51.508716,0.019447,45.0,1,1,1,2021-03-30,325000.0,1,0,0,Royal Victoria,111,15,"[3, 2, 0, 0]"
17367,17367,17367,Newham,2021-03-29,LiFE Residential - Royal Wharf,1,"Pinnacle House, 4 Schooner Road, Royal Wharf, London E16",0,0,pre-owned,325000.0,studio,0,leasehold,Studio for sale,51.499912,0.028181,38.0,0,1,1,2021-03-29,350000.0,1,0,0,Chesham,1470,2,"[2, 1, 0, 0]"
17368,17368,17368,Newham,2021-03-29,Savills - Canary Wharf RDS,1,"Royal Albert Wharf, Docklands, London E16",0,0,new,762500.0,flat,0,leasehold,3 bed flat for sale,51.503943,0.073864,126.0,3,1,1,2021-03-29,762500.0,1,0,0,Gallions Reach,661,0,"[3, 1, 0, 0]"
17369,17369,17369,Newham,2021-03-29,Outlook Property - Stratford,1,"Pitchford Street, Stratford, London E15",0,0,pre-owned,315000.0,flat,0,freehold,2 bed flat for sale,51.538345,0.00324,51.0,2,1,1,2021-03-29,325000.0,0,0,0,Chesham,1049,24,"[13, 11, 3, 4]"
17370,17370,17370,Newham,2021-03-29,Daniel Rose Residential Ltd,0,"Channelsea House, Canning Road, London E15",0,0,pre-owned,275000.0,flat,0,leasehold,1 bed flat for sale,51.53014,0.001856,41.0,1,1,1,2021-03-29,275000.0,0,0,0,West Ham,359,0,"[3, 0, 2, 2]"
17371,17371,17371,Newham,2021-03-29,Southern Home Ownership - The Refinery,1,"Knights Road, Silvertown, London E16",0,1,new,445500.0,flat,0,leasehold,2 bed flat for sale,51.501539,0.020976,84.0,2,2,0,2021-03-29,445500.0,1,0,1,Royal Victoria,1120,2,"[2, 0, 0, 0]"
17372,17372,17372,Newham,2021-03-29,Southern Home Ownership - The Refinery,1,"Knights Road, Silvertown, London E16",0,1,new,155925.0,flat,0,leasehold,2 bed flat for sale,51.501539,0.020976,84.0,2,2,0,2021-03-29,155925.0,1,0,1,Royal Victoria,1120,2,"[2, 0, 0, 0]"
17373,17373,17373,Newham,2021-03-29,Properly,1,"City Island Way, London E14",0,0,pre-owned,475000.0,flat,0,Other,1 bed flat for sale,51.512203,0.006726,52.0,1,1,1,2021-03-29,499999.0,1,0,0,Canning Town,327,10,"[2, 1, 0, 3]"
17374,17374,17374,Newham,2021-03-27,Capital Stay,1,"12 Western Gateway, London E16",0,0,new,445000.0,flat,0,leasehold,1 bed flat for sale,51.508366,0.02229,55.0,1,1,1,2021-03-27,465000.0,0,0,0,Royal Victoria,276,14,"[3, 2, 1, 0]"
17375,17375,17375,Newham,2021-03-26,Keatons - Stratford,1,"Church Street, Stratford, London E15",0,0,new,600000.0,flat,0,leasehold,3 bed flat for sale,51.535868,0.010817,123.0,3,2,1,2021-03-26,600000.0,0,1,0,Plaistow,807,16,"[9, 2, 1, 2]"
17376,17376,17376,Newham,2021-03-26,Nested Ltd,1,"Sky View Tower, Stratford, London E15",0,0,pre-owned,500000.0,flat,0,leasehold,3 bed flat for sale,51.530452,-0.013155,90.0,3,2,0,2021-03-26,500000.0,1,0,0,Pudding Mill Lane,455,2,"[4, 2, 0, 2]"
17377,17377,17377,Newham,2021-03-25,Tyron Ash,0,"Ward Road, Stratford, London E15",0,0,pre-owned,325000.0,flat,0,Other,1 bed flat for sale,51.537624,-0.003488,47.0,1,1,1,2021-03-25,300000.0,1,1,1,Stratford,712,13,"[8, 3, 1, 3]"
17378,17378,17378,Newham,2021-03-25,Keatons - Stratford,1,"Church Street, Stratford, London E15",0,0,new,465000.0,flat,0,leasehold,2 bed flat for sale,51.535868,0.010817,54.0,2,1,1,2021-03-25,465000.0,1,0,0,Plaistow,807,16,"[9, 2, 1, 2]"
17379,17379,17379,Newham,2021-03-25,Keatons - Stratford,1,"Church Street, Stratford, London E15",0,0,new,345000.0,flat,0,leasehold,1 bed flat for sale,51.535868,0.010817,46.0,1,1,1,2021-03-25,345000.0,1,0,0,Plaistow,807,16,"[9, 2, 1, 2]"
17380,17380,17380,Newham,2021-03-25,Keatons - Stratford,1,"Church Street, Stratford, London E15",0,0,new,565000.0,flat,0,leasehold,2 bed flat for sale,51.535868,0.010817,83.0,2,2,1,2021-03-25,565000.0,1,0,0,Plaistow,807,16,"[9, 2, 1, 2]"
17381,17381,17381,Newham,2021-03-25,JLL - Stratford,0,"Great Eastern Road, London E15",0,0,pre-owned,625000.0,flat,0,leasehold,2 bed flat for sale,51.542733,-0.001485,86.0,2,2,1,2021-03-25,650000.0,1,0,0,Stratford,745,62,"[10, 2, 4, 7]"
17382,17382,17382,Newham,2021-03-25,Your Nxt Place,1,"Dames Road, Forest Gate E7",0,0,pre-owned,560000.0,terraced,0,freehold,3 bed terraced house for sale,51.557185,0.018941,109.0,3,1,2,2021-03-25,560000.0,0,1,1,Leytonstone,1209,6,"[2, 0, 0, 0]"
17383,17383,17383,Newham,2021-03-25,eXp World UK,1,"Silver Town, London E16",0,0,new,650000.0,flat,0,Other,2 bed flat for sale,51.5022758906883,0.0501222591093117,77.0,2,2,1,2021-03-25,650000.0,0,0,0,Royal Albert,1246,4,"[2, 1, 0, 0]"
17384,17384,17384,Newham,2021-03-25,Emoov,1,"6 High Street, Stratford, London E15",0,0,new,500000.0,flat,0,leasehold,3 bed flat for sale,51.53019,-0.013624,86.0,3,2,1,2021-03-25,550000.0,1,0,1,Pudding Mill Lane,490,2,"[4, 2, 0, 2]"
17385,17385,17385,Newham,2021-03-25,Benham and Reeves - Kensington,0,"Royal Dock West, 12 Western Gateway, London E16",0,0,pre-owned,475000.0,flat,0,leasehold,1 bed flat for sale,51.508408,0.022145,55.0,1,1,1,2021-03-25,475000.0,0,0,1,Royal Victoria,274,14,"[3, 2, 1, 0]"
17386,17386,17386,Newham,2021-03-24,MyLondonHome - Canary Wharf,1,"Grantham House, City Island E14",0,0,pre-owned,675000.0,flat,0,leasehold,2 bed flat for sale,51.511198,0.006328,82.0,2,2,1,2021-03-24,700000.0,1,0,1,Canning Town,392,7,"[2, 1, 0, 2]"
17387,17387,17387,Newham,2021-03-24,JOHNS&CO - New Providence Wharf,1,"Echo House, London City Island, London E14",0,0,new,465000.0,flat,0,Other,1 bed flat for sale,51.512276,0.006756,52.0,1,1,1,2021-03-24,465000.0,1,0,1,Canning Town,328,10,"[2, 1, 0, 3]"
17388,17388,17388,Newham,2021-03-24,Dexters - Canary Wharf,0,"Barrier Point Road, London E16",0,0,pre-owned,700000.0,flat,0,leasehold,2 bed flat for sale,51.499315,0.031892,93.0,2,2,1,2021-03-24,735000.0,1,1,0,Prince Regent,1363,2,"[2, 1, 0, 0]"
17389,17389,17389,Newham,2021-03-24,"Urban and Campus Nest Ltd, London",0,"2 Bramwell Way, London E16",0,0,pre-owned,1000000.0,flat,0,leasehold,3 bed flat for sale,51.502222,0.035069,115.0,3,2,1,2021-03-24,1000000.0,0,0,0,Prince Regent,1032,2,"[0, 1, 0, 0]"
17390,17390,17390,Newham,2021-03-24,Yopa,0,"Eighth Avenue, London E12",0,0,pre-owned,625000.0,terraced,0,leasehold,5 bed terraced house for sale,51.553367,0.058037,139.0,5,3,2,2021-03-24,650000.0,1,0,1,East Ham,1550,1,"[5, 1, 0, 1]"
17391,17391,17391,Newham,2021-03-24,"Purplebricks, Head Office",0,"Kensington Avenue, London E12",0,0,pre-owned,550000.0,terraced,0,freehold,3 bed terraced house for sale,51.541938,0.052878,160.0,3,2,1,2021-03-24,575000.0,1,0,1,East Ham,325,6,"[4, 0, 0, 1]"
17392,17392,17392,Newham,2021-03-23,Nest Seekers International,1,"Schooner Road, London E16",0,0,pre-owned,599995.0,flat,0,leasehold,2 bed flat for sale,51.499803,0.028677,74.0,2,2,0,2021-03-23,599995.0,1,0,1,Chesham,1499,2,"[2, 1, 0, 0]"
17393,17393,17393,Newham,2021-03-23,Chase Evans Canary Wharf,0,"Legacy Tower, Stratford Central, London E15",0,0,pre-owned,785000.0,flat,0,leasehold,3 bed flat for sale,51.542733,-0.001485,86.0,3,2,1,2021-03-23,785000.0,1,0,0,Stratford,745,62,"[10, 2, 4, 7]"
17394,17394,17394,Newham,2021-03-22,Belvoir,0,"Gerry Raffles Square, London E15",0,0,pre-owned,275000.0,flat,0,leasehold,1 bed flat for sale,51.542587,0.000225,30.0,1,1,1,2021-03-22,275000.0,0,0,0,Stratford,837,46,"[11, 7, 4, 7]"
17395,17395,17395,Newham,2021-03-22,Madison Brook International E16,0,"The Oxygen Apartments, Royal Victoria Dock E16",0,0,pre-owned,325000.0,flat,0,Other,1 bed flat for sale,51.508331,0.0193,52.0,1,1,1,2021-03-22,335000.0,1,0,0,Royal Victoria,93,14,"[4, 2, 0, 0]"
17396,17396,17396,Newham,2021-03-22,Properties Actually Limited,0,"Corsair House, Royal Wharf, Royal Docks / Silvertown, London E16",0,0,pre-owned,420000.0,flat,0,leasehold,1 bed flat for sale,51.501639,0.030851,57.0,1,1,1,2021-03-22,429950.0,0,0,0,Prince Regent,1257,3,"[2, 1, 0, 0]"
17397,17397,17397,Newham,2021-03-22,Property Inside London,0,"Starboard Way, Royal Wharf, London E16",0,0,pre-owned,925000.0,end_terrace,0,leasehold,3 bed end terrace house for sale,51.500825,0.030801,141.0,3,3,1,2021-03-22,925000.0,0,1,1,Prince Regent,1326,2,"[2, 1, 0, 0]"
17398,17398,17398,Newham,2021-03-20,LiFE Residential - Royal Wharf,1,"Heron Place, 4 Bramwell Way E16",0,0,pre-owned,300000.0,flat,0,leasehold,1 bed flat for sale,51.502158,0.036851,49.0,1,1,1,2021-03-20,375000.0,1,1,1,Chesham,924,1,"[0, 1, 0, 0]"
17399,17399,17399,Newham,2021-03-19,LRC - London Sales and Letting Agency,1,"Ferndale Street, Royal Docks, London E6",0,0,new,488000.0,flat,0,leasehold,2 bed flat for sale,51.50946,0.062932,77.0,2,2,1,2021-03-19,488000.0,0,0,1,Cyprus,115,2,"[9, 2, 0, 0]"
