,index,Borough,date_listed,agency_name,chain_free,address,isRetirementHome,isSharedOwnership,listingCondition,price,propertyType,isAuction,tenure,title,latitude,longitude,floor_area_msq,numBedrooms,numBathrooms,numLivingRooms,firstPublishedDate,firstPublishedPrice,balcony_terrace,parking,garden,closest_station_name,closest_station_distance_sec,pub_restaurant
13000,13000,Bromley,2021-06-25,Edward Ashdale,1,"Stone Road, Bromley BR2",0,0,pre-owned,1500000.0,detached,0,Other,5 bed detached house for sale,51.393699,0.009529,242.0,5,3,2,2021-06-25,1500000.0,0,0,1,Lewisham,6938,1
13001,13001,Bromley,2021-06-25,Langford Russell - Bromley,0,"Marian Gardens, Bromley BR1",0,0,pre-owned,525000.0,flat,0,leasehold,2 bed flat for sale,51.411327,0.027565,85.0,2,2,1,2021-06-25,525000.0,1,1,0,Lewisham,5581,7
13002,13002,Bromley,2021-06-24,Hestia's,1,"Rodway Road, Bromley BR1",0,0,pre-owned,340000.0,flat,0,leasehold,1 bed flat for sale,51.411476,0.021428,34.0,1,1,1,2021-06-24,340000.0,0,0,0,Lewisham,5606,18
13003,13003,Bromley,2021-06-24,jdm Estate Agents,1,"Willow Grove, Chislehurst, Kent BR7",0,0,pre-owned,325000.0,flat,0,Other,2 bed flat for sale,51.417785,0.066061,50.0,2,1,1,2021-06-24,325000.0,0,1,1,Cyprus,8447,6
13004,13004,Bromley,2021-06-24,Sinclair Hammelton - Bromley Sales,1,"Queen Anne Avenue, Bromley, Kent BR2",0,0,pre-owned,400000.0,flat,0,leasehold,2 bed flat for sale,51.398596,0.012885,72.0,2,1,1,2021-06-24,400000.0,0,1,1,Lewisham,6532,5
13005,13005,Bromley,2021-06-24,jdm Estate Agents,0,"Blyth Road, Bromley BR1",0,0,pre-owned,355000.0,flat,0,Other,2 bed flat for sale,51.4081,0.008722,55.0,2,1,0,2021-06-24,355000.0,0,1,1,Lewisham,5556,23
13006,13006,Bromley,2021-06-24,jdm Estate Agents,1,"Ashfield Lane, Chislehurst, Kent BR7",0,0,pre-owned,2250000.0,detached,0,Other,6 bed detached house for sale,51.415603,0.073367,384.0,6,6,3,2021-06-24,2250000.0,0,1,1,Chesham,8322,5
13007,13007,Bromley,2021-06-23,Sinclair Hammelton,0,"Brookmead Avenue, Bromley BR1",0,0,pre-owned,695000.0,semi_detached,0,freehold,4 bed semi-detached house for sale,51.391812,0.050862,140.0,4,1,1,2021-06-23,695000.0,0,1,1,Lewisham,7742,2
13008,13008,Bromley,2021-06-23,Unique - Chislehurst,0,"Perry Street, Chislehurst BR7",0,0,pre-owned,2500000.0,detached,0,freehold,5 bed detached house for sale,51.418073,0.09198,465.0,5,4,3,2021-06-23,2500000.0,1,0,1,Gallions Reach,8891,1
13009,13009,Bromley,2021-06-23,Acorn - Crystal Palace,0,"Maberley Road, London SE19",0,0,pre-owned,350000.0,flat,0,share_of_freehold,1 bed flat for sale,51.412425,-0.073755,52.0,1,1,1,2021-06-23,365000.0,0,0,0,Brixton,4855,4
13010,13010,Bromley,2021-06-23,Acorn - Grove Park,0,"Baring Road, London SE12",0,0,pre-owned,300000.0,flat,0,leasehold,2 bed flat for sale,51.428426,0.021647,51.0,2,1,1,2021-06-23,300000.0,0,1,1,Lewisham,4117,0
13011,13011,Bromley,2021-06-22,George Ellis Property Services,1,"Birkbeck Road, Beckenham BR3",0,0,pre-owned,370000.0,flat,0,leasehold,2 bed flat for sale,51.409606,-0.047444,52.0,2,1,1,2021-06-22,370000.0,0,1,1,Lewisham,5346,5
13012,13012,Bromley,2021-06-22,jdm Estate Agents,1,"Glentrammon Road, Orpington BR6",0,0,pre-owned,585000.0,chalet,0,Other,4 bed property for sale,51.351974,0.096445,113.0,4,2,1,2021-06-22,575000.0,0,1,1,Lewisham,12157,1
13013,13013,Bromley,2021-06-22,jdm Estate Agents,0,"Heathfield, Chislehurst, Kent BR7",0,0,pre-owned,2000000.0,detached,0,Other,5 bed detached house for sale,51.416656,0.074839,234.0,5,3,0,2021-06-22,2000000.0,0,0,1,Chesham,8372,4
13014,13014,Bromley,2021-06-21,Savills - National Auctions,0,"Highland Road, Bromley BR1",0,0,pre-owned,20000.0,land,1,Other,Land for sale,51.410167,0.006131,93.0,0,0,0,2021-06-21,20000.0,0,1,0,Lewisham,5368,12
13015,13015,Bromley,2021-06-20,Strike,1,"Belvoir Close, London SE9",0,0,pre-owned,290000.0,flat,0,leasehold,3 bed flat for sale,51.431636,0.046929,79.0,3,1,1,2021-06-20,300000.0,0,1,1,Lewisham,4962,0
13016,13016,Bromley,2021-06-19,Proctors - Petts Wood,0,"Beechcroft, Chislehurst, Chislehurst BR7",0,0,pre-owned,1395000.0,detached,0,freehold,3 bed detached house for sale,51.415273,0.059149,236.0,3,2,3,2021-06-19,1395000.0,0,1,1,Lewisham,6544,0
13017,13017,Bromley,2021-06-19,jdm Estate Agents,1,"Flat 18, Woodlands, 19 Oaklands Road BR1",0,0,pre-owned,275000.0,flat,0,Other,1 bed flat for sale,51.4136,0.003211,50.0,1,1,1,2021-06-19,275000.0,0,1,1,Lewisham,5003,0
13018,13018,Bromley,2021-06-19,jdm Estate Agents,0,"Berryfield Close, Bickley, Kent BR1",0,0,pre-owned,1450000.0,detached,0,Other,5 bed detached house for sale,51.406421,0.042704,240.0,5,3,3,2021-06-19,1450000.0,0,0,1,Lewisham,6650,0
13019,13019,Bromley,2021-06-18,Osprey,0,"224 Bromley Road, Bromley, London BR2",1,0,pre-owned,185000.0,flat,0,leasehold,1 bed flat for sale,51.40701,-0.004864,46.0,1,1,0,2021-06-18,185000.0,1,1,1,Lewisham,5644,0
13020,13020,Bromley,2021-06-18,jdm Estate Agents,1,"Wilderness Road, Chislehurst, Kent BR7",0,0,pre-owned,750000.0,flat,0,Other,3 bed flat for sale,51.411849,0.066446,107.0,3,2,0,2021-06-18,750000.0,0,0,1,Chesham,7026,3
13021,13021,Bromley,2021-06-17,Bromley Property Company,1,"Polesteeple Hill, Biggin Hill, Westerham TN16",0,0,pre-owned,700000.0,detached,0,freehold,4 bed detached house for sale,51.311296,0.032909,186.0,4,2,2,2021-06-17,749995.0,0,0,1,Lewisham,13962,3
13022,13022,Bromley,2021-06-17,Unique - Locksbottom,0,"Cranford Mews, Bromley BR2",0,0,pre-owned,650000.0,semi_detached,0,freehold,3 bed semi-detached house for sale,51.389292,0.044758,149.0,3,2,1,2021-06-17,650000.0,0,1,1,Lewisham,7920,1
13023,13023,Bromley,2021-06-17,"Purplebricks, Head Office",0,"Howard Road, Bromley BR1",0,0,pre-owned,625000.0,end_terrace,0,freehold,4 bed end terrace house for sale,51.412341,0.012582,111.0,4,2,2,2021-06-17,650000.0,0,0,1,Lewisham,5317,4
13024,13024,Bromley,2021-06-17,Sinclair Hammelton - Bromley Sales,0,"Rodway Road, Bromley, Kent BR1",0,0,pre-owned,550000.0,maisonette,0,leasehold,3 bed maisonette for sale,51.410681,0.020217,117.0,3,1,1,2021-06-17,550000.0,0,1,1,Lewisham,5510,22
13025,13025,Bromley,2021-06-16,"Purplebricks, Head Office",1,"Maple Road, London SE20",0,0,pre-owned,285000.0,flat,0,leasehold,2 bed flat for sale,51.411611,-0.058244,65.0,2,1,1,2021-06-16,285000.0,0,1,1,Chesham,5481,10
13026,13026,Bromley,2021-06-16,Homezone Property Services,0,"Park Hill Road, Shortlands, Bromley BR2",0,0,pre-owned,800000.0,flat,0,leasehold,3 bed flat for sale,51.404525,-0.003238,167.0,3,3,1,2021-06-16,800000.0,1,1,1,Lewisham,5887,2
13027,13027,Bromley,2021-06-16,Edmund - Orpington,0,"Warren Avenue, Farnborough, Orpington BR6",0,0,pre-owned,1300000.0,detached,0,Other,7 bed detached house for sale,51.359001,0.089887,254.0,7,0,0,2021-06-16,1250000.0,0,1,1,Lewisham,11678,4
13028,13028,Bromley,2021-06-16,iMove Property,0,"Trenholme Terrace, London SE20",0,0,pre-owned,375000.0,flat,0,leasehold,3 bed flat for sale,51.414974,-0.064199,74.0,3,1,1,2021-06-16,375000.0,1,0,0,New Cross Gate,5669,5
13029,13029,Bromley,2021-06-16,jdm Estate Agents,1,"Rhodes Court, Jefferson Place, Bromley BR2",0,0,pre-owned,320000.0,flat,0,Other,2 bed flat for sale,51.388266,0.036592,55.0,2,2,1,2021-06-16,320000.0,0,1,1,Lewisham,7697,2
13030,13030,Bromley,2021-06-15,Knight Frank - Dulwich Village Sales,0,"Sundridge Avenue, Bromley BR1",0,0,pre-owned,3000000.0,detached,0,Other,6 bed detached house for sale,51.412892,0.040002,678.0,6,8,4,2021-06-15,3000000.0,0,1,1,Lewisham,6393,0
13031,13031,Bromley,2021-06-15,Alan De Maid - Beckenham,0,"Fern Court, 62 Albemarle Road, Beckenham BR3",0,0,pre-owned,475000.0,flat,0,share_of_freehold,2 bed flat for sale,51.408836,-0.010805,93.0,2,2,1,2021-06-15,475000.0,1,1,1,Lewisham,5447,3
13032,13032,Bromley,2021-06-15,Langford Russell - Orpington,0,"Bruce Grove, Orpington BR6",0,0,pre-owned,675000.0,end_terrace,0,freehold,4 bed end terrace house for sale,51.378263,0.102925,141.0,4,3,1,2021-06-15,675000.0,0,1,1,Gallions Reach,11967,28
13033,13033,Bromley,2021-06-15,jdm Estate Agents,1,"Sandy Lane, Orpington BR6",0,0,pre-owned,700000.0,detached_bungalow,0,Other,2 bed detached bungalow for sale,51.381401,0.096654,57.0,2,1,0,2021-06-15,750000.0,0,1,1,Gallions Reach,11507,16
13034,13034,Bromley,2021-06-14,Galloways,0,"Snowdown Close, London SE20",0,0,pre-owned,450000.0,flat,0,freehold,2 bed flat for sale,51.410728,-0.052297,87.0,2,3,1,2021-06-14,450000.0,1,1,1,Chesham,5366,11
13035,13035,Bromley,2021-06-14,Acorn - Crystal Palace,0,"Orchard Grove, London SE20",0,0,pre-owned,300000.0,flat,0,leasehold,1 bed flat for sale,51.417378,-0.071432,37.0,1,1,1,2021-06-14,300000.0,0,1,0,Brixton,4876,5
13036,13036,Bromley,2021-06-14,Charles Eden,1,"Elmers End Road, Beckenham BR3",0,0,pre-owned,195000.0,studio,0,leasehold,Studio for sale,51.405193,-0.056328,36.0,0,1,1,2021-06-14,195000.0,0,0,1,Chesham,5878,2
13037,13037,Bromley,2021-06-12,Strike,1,"Gillmans Road, Orpington BR5",0,0,pre-owned,535000.0,semi_detached,0,freehold,3 bed semi-detached house for sale,51.375756,0.110359,80.0,3,1,2,2021-06-12,535000.0,0,0,1,Gallions Reach,12474,1
13038,13038,Bromley,2021-06-10,"Purplebricks, Head Office",0,"Glebe Road, Bromley BR1",0,0,pre-owned,375000.0,flat,0,freehold,3 bed flat for sale,51.409734,0.015674,87.0,3,1,1,2021-06-10,390000.0,0,0,0,Lewisham,5415,37
13039,13039,Bromley,2021-06-10,Anthony Martin Locksbottom Limited - Crofton Road,0,"Bradford Close, Bromley BR2",0,0,pre-owned,595000.0,semi_detached,0,Other,3 bed semi-detached house for sale,51.375614,0.047884,103.0,3,2,2,2021-06-10,595000.0,0,1,1,Lewisham,8865,0
13040,13040,Bromley,2021-06-09,jdm Estate Agents,1,"Hastings Road, Bromley BR2",0,0,pre-owned,450000.0,semi_detached,0,Other,2 bed semi-detached house for sale,51.375114,0.04467,76.0,2,1,1,2021-06-09,450000.0,0,0,1,Lewisham,8645,1
13041,13041,Bromley,2021-06-07,Alan De Maid - Locksbottom,0,"Forest Ridge, Keston Park, Kent BR2",0,0,pre-owned,10000000.0,detached,0,freehold,7 bed detached house for sale,51.36309,0.04638,1301.0,7,6,5,2021-06-07,10000000.0,1,1,1,Lewisham,9707,1
13042,13042,Bromley,2021-06-07,Langford Russell - Beckenham,0,"The Avenue, Beckenham BR3",0,0,pre-owned,1000000.0,flat,0,leasehold,3 bed flat for sale,51.411272,-0.016527,195.0,3,3,2,2021-06-07,1000000.0,1,1,1,Lewisham,5168,5
13043,13043,Bromley,2021-06-07,"Purplebricks, Head Office",0,"Harvest Bank Road, West Wickham BR4",0,0,pre-owned,700000.0,detached,0,freehold,4 bed detached house for sale,51.366784,0.01044,177.0,4,6,2,2021-06-07,750000.0,1,1,1,Lewisham,9358,0
13044,13044,Bromley,2021-06-07,Nested Ltd,1,"Croydon Road, Penge, London SE20",0,0,pre-owned,275000.0,flat,0,leasehold,1 bed flat for sale,51.407746,-0.062132,51.0,1,1,1,2021-06-07,275000.0,0,0,0,New Cross Gate,6294,5
13045,13045,Bromley,2021-06-07,Charles Eden,1,"Manor Road, Beckenham BR3",0,0,pre-owned,550000.0,detached,0,freehold,2 bed detached house for sale,51.408065,-0.02471,103.0,2,1,2,2021-06-07,550000.0,1,0,1,Lewisham,5373,24
13046,13046,Bromley,2021-06-07,Alan De Maid - Bromley,0,"Hampton Grange, 14 Marian Gardens, Bromley BR1",0,0,pre-owned,625000.0,flat,0,Other,2 bed flat for sale,51.411411,0.02722,126.0,2,2,1,2021-06-07,625000.0,0,1,0,Lewisham,5570,7
13047,13047,Bromley,2021-06-07,Galloways,0,"Anerley Road, Anerley SE20",0,0,pre-owned,300000.0,flat,0,leasehold,2 bed flat for sale,51.409698,-0.061847,54.0,2,1,1,2021-06-07,300000.0,1,0,1,New Cross Gate,6075,4
13048,13048,Bromley,2021-06-07,jdm Estate Agents,1,"Cumberland Road, Bromley, Kent BR2",0,0,pre-owned,300000.0,flat,0,leasehold,1 bed flat for sale,51.397399,0.005377,47.0,1,1,1,2021-06-07,300000.0,0,1,0,Lewisham,6614,0
13049,13049,Bromley,2021-06-07,jdm Estate Agents,0,"Willow Grove, Chislehurst, Kent BR7",0,0,pre-owned,1400000.0,detached,0,Other,3 bed detached house for sale,51.416275,0.060576,193.0,3,1,0,2021-06-07,1400000.0,0,1,1,Lewisham,6452,2
13050,13050,Bromley,2021-06-05,jdm Estate Agents,0,"Hill Close, Chislehurst, Kent BR7",0,0,pre-owned,575000.0,semi_detached,0,Other,3 bed semi-detached house for sale,51.422714,0.062605,93.0,3,1,1,2021-06-05,575000.0,0,1,1,Cyprus,8040,3
13051,13051,Bromley,2021-06-05,Edmund - Orpington,0,"Hilda Vale Road, Farnborough, Orpington BR6",0,0,pre-owned,495000.0,semi_detached,0,Other,3 bed semi-detached house for sale,51.363998,0.061383,82.0,3,2,2,2021-06-05,495000.0,1,1,1,Lewisham,10095,6
13052,13052,Bromley,2021-06-05,jdm Estate Agents,0,"Fox Lane, Keston BR2",0,0,pre-owned,1100000.0,detached,0,Other,4 bed detached house for sale,51.361488,0.026682,183.0,4,2,2,2021-06-05,1100000.0,1,1,1,Lewisham,9520,2
13053,13053,Bromley,2021-06-04,Bromley Property Company,1,"Dainton Close, Bromley BR1",0,0,pre-owned,395000.0,flat,0,share_of_freehold,3 bed flat for sale,51.409852,0.025501,77.0,3,1,1,2021-06-04,395000.0,0,1,1,Lewisham,5745,8
13054,13054,Bromley,2021-06-04,Allsop LLP,0,"Flat 2, Laurel Bank House, 15-17 Bromley Common, Bromley, Kent BR2",0,0,pre-owned,350000.0,flat,0,leasehold,4 bed flat for sale,51.394716,0.02765,127.0,4,1,1,2021-06-04,360000.0,0,0,0,Lewisham,6870,10
13055,13055,Bromley,2021-06-04,Black & Blanc,1,"Manor Road, West Wickham BR4",0,0,pre-owned,750000.0,semi_detached,0,freehold,5 bed semi-detached house for sale,51.37608,-0.023322,52.0,5,2,2,2021-06-04,750000.0,0,0,1,Lewisham,8084,1
13056,13056,Bromley,2021-06-04,jdm Estate Agents,0,"Edward Road, Bromley BR1",0,0,pre-owned,2000000.0,detached,0,Other,7 bed detached house for sale,51.415,0.026283,399.0,7,5,3,2021-06-04,2000000.0,0,1,1,Lewisham,5437,3
13057,13057,Bromley,2021-06-03,Andrew Kingsley,1,"Mays Hill Road, Bromley BR2",0,0,pre-owned,349995.0,flat,0,share_of_freehold,2 bed flat for sale,51.403317,0.001287,71.0,2,1,1,2021-06-03,349995.0,0,0,1,Lewisham,5962,2
13058,13058,Bromley,2021-06-03,Alan De Maid - Locksbottom,0,"Hazel Grove, Farnborough Park BR6",0,0,pre-owned,3150000.0,detached,0,freehold,5 bed detached house for sale,51.37278,0.06155,650.0,5,4,5,2021-06-03,3150000.0,0,0,1,Lewisham,9756,0
13059,13059,Bromley,2021-05-29,Robinson Davies Properties,1,"Anerley Road, London SE20",0,0,pre-owned,395000.0,flat,0,leasehold,2 bed flat for sale,51.414894,-0.071364,42.0,2,1,1,2021-05-29,395000.0,0,1,0,Brixton,4721,4
13060,13060,Bromley,2021-05-28,Alan De Maid - West Wickham,1,"Albertine Grove, West Wickham, 9Fa BR4",0,0,new,790000.0,semi_detached,0,freehold,4 bed semi-detached house for sale,51.36606,-0.00397,149.0,4,3,2,2021-05-28,790000.0,0,1,1,Lewisham,9083,6
13061,13061,Bromley,2021-05-28,Nested Ltd,0,"Anerley Road, Crystal Palace, London SE19",0,0,pre-owned,275000.0,flat,0,leasehold,1 bed flat for sale,51.416397,-0.072495,47.0,1,1,1,2021-05-28,275000.0,0,0,0,Brixton,4601,9
13062,13062,Bromley,2021-05-28,Pedder - Crystal Palace,1,"Bourdon Road, Anerley, London SE20",0,0,pre-owned,400000.0,flat,0,leasehold,2 bed flat for sale,51.40577,-0.059555,70.0,2,1,1,2021-05-28,400000.0,0,0,0,Chesham,5883,3
13063,13063,Bromley,2021-05-28,Langford Russell - Bromley,0,"Winchester Road, Bromley BR2",0,0,pre-owned,565000.0,flat,0,leasehold,4 bed flat for sale,51.398756,0.007155,121.0,4,2,1,2021-05-28,565000.0,0,0,1,Lewisham,6563,0
13064,13064,Bromley,2021-05-27,jdm Estate Agents,0,"Carlyle Avenue, Bromley BR1",0,0,pre-owned,407000.0,terraced,0,Other,2 bed terraced house for sale,51.3978,0.034147,76.0,2,1,0,2021-05-27,407000.0,1,1,1,Lewisham,6994,9
13065,13065,Bromley,2021-05-26,Sinclair Hammelton - Bromley Sales,0,"Scotts Road, Bromley, Kent BR1",0,0,pre-owned,365000.0,flat,0,leasehold,2 bed flat for sale,51.411938,0.013542,66.0,2,1,1,2021-05-26,365000.0,0,1,0,Lewisham,5288,8
13066,13066,Bromley,2021-05-25,"Purplebricks, Head Office",0,"Anerley Road, Anerley SE20",0,0,pre-owned,325000.0,flat,0,leasehold,2 bed flat for sale,51.413908,-0.070428,76.0,2,1,1,2021-05-25,350000.0,1,1,1,Brixton,4838,4
13067,13067,Bromley,2021-05-25,Capital Bromley,1,"Beckenham Lane, Bromley BR2",0,0,pre-owned,300000.0,flat,0,leasehold,2 bed flat for sale,51.406299,0.007207,65.0,2,1,1,2021-05-25,300000.0,0,1,1,Lewisham,5613,19
13068,13068,Bromley,2021-05-25,Acorn - Crystal Palace,1,"Versailles Road, London SE20",0,0,pre-owned,385000.0,maisonette,0,share_of_freehold,1 bed maisonette for sale,51.413814,-0.071827,63.0,1,1,1,2021-05-25,385000.0,0,0,1,Brixton,4846,4
13069,13069,Bromley,2021-05-24,Robinson Jackson - Catford,1,"Baring Road, Grove Park, London SE12",0,0,pre-owned,290000.0,flat,0,leasehold,2 bed flat for sale,51.428426,0.021673,6.0,2,1,1,2021-05-24,290000.0,1,0,1,Lewisham,4117,0
13070,13070,Bromley,2021-05-24,jdm Estate Agents,1,"Adcock Walk, Farnborough, Orpington BR6",0,0,pre-owned,700000.0,detached,0,Other,4 bed detached house for sale,51.362792,0.090149,164.0,4,2,4,2021-05-24,700000.0,0,1,1,Lewisham,11362,4
13071,13071,Bromley,2021-05-24,Langford Russell - Bromley,1,"Bourne Road, Bromley BR2",0,0,pre-owned,700000.0,detached,0,freehold,3 bed detached house for sale,51.396514,0.033882,488.0,3,1,2,2021-05-24,700000.0,0,0,1,Lewisham,7281,9
13072,13072,Bromley,2021-05-22,Charles Eden,0,"Rectory Gardens, Rectory Road, Beckenham BR3",0,0,pre-owned,425000.0,flat,0,leasehold,3 bed flat for sale,51.410964,-0.030115,81.0,3,1,1,2021-05-22,425000.0,0,1,1,Lewisham,5354,21
13073,13073,Bromley,2021-05-21,Town & City Homes,0,"Forest Ridge, Keston BR2",0,0,pre-owned,9000000.0,detached,0,leasehold,7 bed detached house for sale,51.363628,0.045774,516.0,7,7,6,2021-05-21,9000000.0,1,1,1,Lewisham,9670,0
13074,13074,Bromley,2021-05-20,Charles Eden,0,"Anderson House, St. Martins Lane, Beckenham BR3",0,0,pre-owned,675000.0,flat,0,leasehold,2 bed flat for sale,51.393516,-0.018418,118.0,2,2,1,2021-05-20,675000.0,1,1,1,Lewisham,6689,0
13075,13075,Bromley,2021-05-20,Black & Blanc,1,"West Common Road, Bromley BR2",0,0,pre-owned,700000.0,flat,0,leasehold,2 bed flat for sale,51.370083,0.017222,118.0,2,3,1,2021-05-20,700000.0,0,1,0,Lewisham,8751,0
13076,13076,Bromley,2021-05-20,jdm Estate Agents,0,"Sheridan Place, Bromley BR1",0,0,pre-owned,595000.0,end_terrace,0,Other,5 bed end terrace house for sale,51.404136,0.033616,110.0,5,2,2,2021-05-20,595000.0,1,1,1,Lewisham,6408,7
13077,13077,Bromley,2021-05-19,The Modern House,0,"Hayfield Road, Orpington BR5",0,0,pre-owned,750000.0,detached,0,freehold,3 bed detached house for sale,51.39016,0.10523,123.0,3,3,0,2021-05-19,750000.0,0,0,1,Gallions Reach,11236,4
13078,13078,Bromley,2021-05-19,Pedder - Crystal Palace,1,"Thicket Road, London SE20",0,0,pre-owned,450000.0,flat,0,leasehold,2 bed flat for sale,51.415564,-0.069452,82.0,2,1,1,2021-05-19,450000.0,0,0,1,Brixton,4935,4
13079,13079,Bromley,2021-05-19,Langford Russell - Locksbottom,1,"Ash Tree Close, Orpington BR6",0,0,pre-owned,450000.0,flat,0,leasehold,2 bed flat for sale,51.364032,0.06521,71.0,2,2,1,2021-05-19,465000.0,1,0,0,Lewisham,10341,1
13080,13080,Bromley,2021-05-18,"Purplebricks, Head Office",1,"Waldegrave Road, Crystal Palace SE19",0,0,pre-owned,650000.0,maisonette,0,freehold,3 bed maisonette for sale,51.415874,-0.074084,125.0,3,1,2,2021-05-18,650000.0,1,0,1,Brixton,4736,15
13081,13081,Bromley,2021-05-17,Strike,1,"Howard Road, Bromley BR1",0,0,new,475000.0,flat,0,share_of_freehold,2 bed flat for sale,51.412043,0.01259,105.0,2,1,1,2021-05-17,475000.0,1,1,0,Lewisham,5332,5
13082,13082,Bromley,2021-05-17,Savills - National Auctions,0,"Elmers End Road, Beckenham BR3",0,0,pre-owned,130000.0,retail,1,leasehold,Property for sale,51.404991,-0.055951,5.0,0,0,0,2021-05-17,130000.0,1,0,0,Chesham,5881,2
13083,13083,Bromley,2021-05-15,Proctors - Petts Wood,1,"Berger Close, Petts Wood, Orpington BR5",0,0,pre-owned,875000.0,link_detached,0,freehold,4 bed link-detached house for sale,51.385428,0.082414,153.0,4,2,3,2021-05-15,875000.0,0,0,1,Chesham,11085,0
13084,13084,Bromley,2021-05-15,Anthony Martin Locksbottom Limited - Crofton Road,0,"Green Gardens, Farnborough, Orpington BR6",0,0,pre-owned,325000.0,maisonette,0,Other,2 bed maisonette for sale,51.360088,0.069721,65.0,2,1,1,2021-05-15,350000.0,0,0,1,Lewisham,10550,3
13085,13085,Bromley,2021-05-15,jdm Estate Agents,0,"Starts Hill Road, Farnborough, Orpington BR6",0,0,pre-owned,265000.0,flat,0,Other,1 bed flat for sale,51.360973,0.06477,46.0,1,1,1,2021-05-15,265000.0,0,1,1,Lewisham,10249,2
13086,13086,Bromley,2021-05-15,Langford Russell - Locksbottom,0,"Leaves Green Road, Keston BR2",0,0,pre-owned,1450000.0,detached,0,freehold,5 bed detached house for sale,51.342037,0.030177,249.0,5,3,4,2021-05-15,1450000.0,0,1,1,Lewisham,11247,1
13087,13087,Bromley,2021-05-14,Charles Eden,0,"Seychelle Ct, 24 Foxgrove Road, Beckenham BR3",0,0,pre-owned,425000.0,flat,0,leasehold,2 bed flat for sale,51.412456,-0.019642,54.0,2,1,1,2021-05-14,425000.0,1,1,1,Lewisham,5082,9
13088,13088,Bromley,2021-05-14,Urban Moves,0,"Lambourne House, Apple Yard, London SE20",0,1,pre-owned,127500.0,flat,0,Other,2 bed flat for sale,51.4127054588235,-0.0633439803921569,66.0,2,0,0,2021-05-14,127500.0,1,1,1,New Cross Gate,5878,4
13089,13089,Bromley,2021-05-14,jdm Estate Agents,0,"Montbelle Road, New Eltham SE9",0,0,pre-owned,900000.0,semi_detached,0,leasehold,6 bed semi-detached house for sale,51.429752,0.065321,175.0,6,2,1,2021-05-14,900000.0,0,1,1,Cyprus,7453,2
13090,13090,Bromley,2021-05-14,jdm Estate Agents,0,"Oakdene Avenue, Chislehurst, Kent BR7",0,0,pre-owned,600000.0,semi_detached,0,Other,3 bed semi-detached house for sale,51.421699,0.055346,83.0,3,1,2,2021-05-14,600000.0,0,1,1,Lewisham,5876,1
13091,13091,Bromley,2021-05-14,jdm Estate Agents,1,"Hill Brow, Bickley, Kent BR1",0,0,pre-owned,1500000.0,semi_detached,0,Other,6 bed semi-detached house for sale,51.405208,0.040564,365.0,6,4,2,2021-05-14,1500000.0,0,1,1,Lewisham,6441,3
13092,13092,Bromley,2021-05-14,Andrew Kingsley,0,"Single Street, Berry's Green TN16",0,0,pre-owned,825000.0,detached,0,freehold,3 bed detached house for sale,51.317949,0.059265,129.0,3,1,3,2021-05-14,825000.0,0,1,1,Lewisham,13681,1
13093,13093,Bromley,2021-05-13,Sinclair Hammelton - Bromley Sales,0,"Barbican Court, 37 Renwick Drive, Bromley, Kent BR2",0,0,pre-owned,325000.0,flat,0,leasehold,2 bed flat for sale,51.387536,0.039172,65.0,2,2,1,2021-05-13,325000.0,1,0,0,Lewisham,7757,1
13094,13094,Bromley,2021-05-13,jdm Estate Agents,0,"Tubbenden Lane, Farnborough, Orpington BR6",0,0,pre-owned,600000.0,semi_detached,0,Other,3 bed semi-detached house for sale,51.367198,0.083077,107.0,3,1,3,2021-05-13,600000.0,0,1,1,Lewisham,10814,0
13095,13095,Bromley,2021-05-12,jdm Estate Agents,1,"Scadbury Park, Chislehurst, Kent BR7",0,0,pre-owned,895000.0,detached,0,Other,3 bed detached house for sale,51.415248,0.093096,118.0,3,1,2,2021-05-12,925000.0,0,1,0,Gallions Reach,9150,1
13096,13096,Bromley,2021-05-12,Capital Bromley,0,"To Station Approach, Chislehurst, Kent BR1",0,0,pre-owned,385000.0,land,0,leasehold,Land for sale,51.403701,0.05454,186.0,0,0,0,2021-05-12,385000.0,0,0,0,Lewisham,7233,2
13097,13097,Bromley,2021-05-12,Edmund,0,"Chislehurst Road, Petts Wood, Orpington BR5",0,0,pre-owned,1400000.0,detached,0,Other,5 bed detached house for sale,51.388698,0.088366,259.0,5,3,2,2021-05-12,1400000.0,0,1,1,Gallions Reach,10818,0
13098,13098,Bromley,2021-05-12,jdm Estate Agents,1,"Summerlands Loge, Farnborough Common, Farnborough BR6",1,0,pre-owned,200000.0,Other,0,leasehold,1 bed property for sale,51.363822,0.05677,50.0,1,1,1,2021-05-12,200000.0,0,0,1,Lewisham,9751,8
13099,13099,Bromley,2021-05-11,Bromley Property Company,1,"Rushmore Hill, Orpington BR6",0,0,pre-owned,285000.0,maisonette,0,leasehold,2 bed maisonette for sale,51.344162,0.111889,53.0,2,1,1,2021-05-11,299999.0,0,0,0,Gallions Reach,15129,1
13100,13100,Bromley,2021-05-11,Bairstow Eves - Shirley,1,"Wickham Grange, 8 Albertine Grove, West Wickham, Kent BR4",0,0,new,790000.0,semi_detached,0,freehold,4 bed semi-detached house for sale,51.3703087671958,-0.0062724338624338,149.0,4,3,2,2021-05-11,790000.0,0,1,1,Lewisham,8752,1
13101,13101,Bromley,2021-05-11,Red Loft - The Wollaston Collection,1,"Tweedy Road, Bromley BR1",0,1,new,467500.0,flat,0,leasehold,2 bed flat for sale,51.4096691423077,0.0192504346153846,73.0,2,1,1,2021-05-11,467500.0,0,1,0,Lewisham,5503,34
13102,13102,Bromley,2021-05-11,Red Loft - The Wollaston Collection,1,"Tweedy Road, Bromley BR1",0,1,new,465000.0,flat,0,leasehold,2 bed flat for sale,51.4096691423077,0.0192504346153846,73.0,2,1,1,2021-05-11,465000.0,0,1,0,Lewisham,5503,34
13103,13103,Bromley,2021-05-11,Red Loft - The Wollaston Collection,1,"Tweedy Road, Bromley BR1",0,1,new,462500.0,flat,0,leasehold,2 bed flat for sale,51.4096691423077,0.0192504346153846,73.0,2,1,1,2021-05-11,462500.0,0,1,0,Lewisham,5503,34
13104,13104,Bromley,2021-05-11,Red Loft - The Wollaston Collection,1,"Tweedy Road, Bromley BR1",0,1,new,110625.0,flat,0,leasehold,2 bed flat for sale,51.4096691423077,0.0192504346153846,73.0,2,1,1,2021-05-11,110625.0,0,1,0,Lewisham,5503,34
13105,13105,Bromley,2021-05-11,Red Loft - The Wollaston Collection,1,"Tweedy Road, Bromley BR1",0,1,new,110000.0,flat,0,leasehold,2 bed flat for sale,51.4096691423077,0.0192504346153846,73.0,2,1,1,2021-05-11,110000.0,0,1,0,Lewisham,5503,34
13106,13106,Bromley,2021-05-11,Red Loft - The Wollaston Collection,1,"Tweedy Road, Bromley BR1",0,1,new,109375.0,flat,0,leasehold,2 bed flat for sale,51.4096691423077,0.0192504346153846,73.0,2,1,1,2021-05-11,109375.0,0,1,0,Lewisham,5503,34
13107,13107,Bromley,2021-05-11,"Purplebricks, Head Office",1,"Rafford Way, Bromley BR1",0,0,pre-owned,775000.0,semi_detached,0,freehold,3 bed semi-detached house for sale,51.402546,0.019456,145.0,3,1,3,2021-05-11,775000.0,0,1,1,Lewisham,6116,27
13108,13108,Bromley,2021-05-10,Bromley Property Company,1,"Glebe Way, West Wickham BR4",0,0,pre-owned,550000.0,terraced,0,freehold,3 bed terraced house for sale,51.375091,-0.009959,98.0,3,1,2,2021-05-10,550000.0,1,0,1,Lewisham,8289,2
13109,13109,Bromley,2021-05-10,jdm Estate Agents,0,"Manor Place, Chislehurst, Kent BR7",0,0,pre-owned,1100000.0,detached,0,Other,3 bed detached house for sale,51.405982,0.076408,127.0,3,1,0,2021-05-10,1100000.0,0,1,1,Chesham,9292,1
13110,13110,Bromley,2021-05-10,jdm Estate Agents,1,"Freelands Road, Bromley BR1",0,0,pre-owned,800000.0,terraced,0,Other,4 bed terraced house for sale,51.410865,0.024941,142.0,4,1,1,2021-05-10,840000.0,1,1,1,Lewisham,5546,9
13111,13111,Bromley,2021-05-10,Acorn - New Homes London,1,"Elmcroft Road, Orpington BR6",0,0,new,419995.0,flat,0,leasehold,2 bed flat for sale,51.381534,0.103564,78.0,2,2,1,2021-05-10,419995.0,0,1,0,Gallions Reach,11901,17
13112,13112,Bromley,2021-05-07,Alan De Maid - West Wickham,1,"Albertine Grove, West Wickham BR4",0,0,new,680000.0,semi_detached,0,freehold,4 bed semi-detached house for sale,51.3703087671958,-0.0062724338624338,134.0,4,3,2,2021-05-07,680000.0,0,1,1,Lewisham,8752,1
13113,13113,Bromley,2021-05-07,Home Estate Agents,1,"Howard Road, Penge SE20",0,0,pre-owned,375000.0,flat,0,leasehold,2 bed flat for sale,51.412281,-0.055785,53.0,2,1,1,2021-05-07,380000.0,1,1,0,Chesham,5386,12
13114,13114,Bromley,2021-05-06,Pedder - Crystal Palace,1,"Avenue Road, Beckenham, Kent BR3",0,0,pre-owned,435000.0,flat,0,Other,3 bed flat for sale,51.408967,-0.051195,101.0,3,2,1,2021-05-06,435000.0,0,1,0,Chesham,5517,4
13115,13115,Bromley,2021-05-06,Sinclair Hammelton - Bromley Sales,1,"Rodway Road, Bromley, Kent BR1",0,0,pre-owned,575000.0,maisonette,0,leasehold,3 bed maisonette for sale,51.41141,0.021156,130.0,3,1,1,2021-05-06,575000.0,0,1,1,Lewisham,5616,19
13116,13116,Bromley,2021-05-06,Capital Bromley,0,"Yester Road, Chislehurst BR7",0,0,pre-owned,600000.0,flat,0,leasehold,3 bed flat for sale,51.414398,0.056461,104.0,3,1,1,2021-05-06,600000.0,0,0,0,Lewisham,6710,0
13117,13117,Bromley,2021-05-05,Reeds Rains - Catford,0,"Orchid Court, 167 Downderry Road, Bromley BR1",0,0,pre-owned,299995.0,flat,0,leasehold,2 bed flat for sale,51.429974,-0.001827,62.0,2,1,1,2021-05-05,300000.0,0,1,1,Lewisham,3661,0
13118,13118,Bromley,2021-05-05,jdm Estate Agents,0,"Yester Road, Chislehurst, Kent BR7",0,0,pre-owned,1600000.0,detached,0,Other,5 bed detached house for sale,51.414646,0.056461,349.0,5,5,0,2021-05-05,1600000.0,0,1,1,Lewisham,6706,0
13119,13119,Bromley,2021-05-05,jdm Estate Agents,0,"Wilderness Road, Chislehurst, Kent BR7",0,0,pre-owned,2375000.0,detached,0,Other,4 bed detached house for sale,51.413875,0.067231,225.0,4,2,3,2021-05-05,2500000.0,0,1,1,Cyprus,8879,4
13120,13120,Bromley,2021-05-01,"Curran & Pinner, Bromley",1,"Southend Road, Beckenham BR3",0,0,pre-owned,350000.0,flat,0,share_of_freehold,2 bed flat for sale,51.415728,-0.024244,6.0,2,1,1,2021-05-01,350000.0,0,0,1,Lewisham,4647,0
13121,13121,Bromley,2021-04-30,Langford Russell - Bromley,1,"Bromley Common, Bromley BR2",0,0,new,549995.0,flat,0,leasehold,2 bed flat for sale,51.394716,0.02765,106.0,2,2,1,2021-04-30,549995.0,0,0,0,Lewisham,6870,10
13122,13122,Bromley,2021-04-30,Winkworth - Chislehurst,0,"Yester Road, Chislehurst, Kent BR7",0,0,pre-owned,1785000.0,detached,0,freehold,5 bed detached house for sale,51.415027,0.05675,330.0,5,3,2,2021-04-30,1850000.0,0,0,1,Lewisham,6667,0
13123,13123,Bromley,2021-04-30,jdm Estate Agents,0,"Willoughby Lane, Bromley BR1",0,0,pre-owned,425000.0,flat,0,Other,1 bed flat for sale,51.417256,0.037317,54.0,1,1,1,2021-04-30,440000.0,0,1,1,Lewisham,6068,0
13124,13124,Bromley,2021-04-29,jdm Estate Agents,1,"Brunswick Square, Homefield Rise, Orpington, Kent BR6",0,0,new,525000.0,flat,0,leasehold,2 bed flat for sale,51.3754,0.101049,81.0,2,2,1,2021-04-29,525000.0,1,1,1,Gallions Reach,12202,27
13125,13125,Bromley,2021-04-29,jdm Estate Agents,1,"Brunswick Square, Homefield Rise, Orpington, Kent BR6",0,0,new,475000.0,flat,0,Other,2 bed flat for sale,51.375499,0.101162,75.0,2,2,1,2021-04-29,475000.0,1,1,0,Gallions Reach,12211,27
13126,13126,Bromley,2021-04-29,"Purplebricks, Head Office",0,"Rectory Road, Beckenham BR3",0,0,pre-owned,1000000.0,detached,0,freehold,3 bed detached house for sale,51.410191,-0.029746,145.0,3,1,3,2021-04-29,1200000.0,0,0,1,Lewisham,5418,22
13127,13127,Bromley,2021-04-29,Alan De Maid - Locksbottom,0,"Royal Close, Orpington BR6",0,0,pre-owned,850000.0,detached,0,freehold,4 bed detached house for sale,51.36228,0.06192,139.0,4,2,2,2021-04-29,850000.0,0,1,1,Lewisham,10121,1
13128,13128,Bromley,2021-04-27,Yopa,1,"Croydon Road, London SE20",0,0,pre-owned,750000.0,semi_detached,1,leasehold,5 bed semi-detached house for sale,51.407612,-0.061131,203.0,5,2,3,2021-04-27,750000.0,0,0,1,Chesham,5755,4
13129,13129,Bromley,2021-04-27,Capital Bromley,0,"Grasmere Road, Bromley BR1",0,0,pre-owned,290000.0,flat,0,leasehold,2 bed flat for sale,51.4109,0.00453,60.0,2,1,0,2021-04-27,290000.0,0,1,0,Lewisham,5234,2
13130,13130,Bromley,2021-04-27,Jollye & Wood,1,"Old Hill, Orpington BR6",0,0,pre-owned,150000.0,semi_detached,0,freehold,Semi-detached house for sale,51.349707,0.087696,13.0,0,0,1,2021-04-27,150000.0,0,0,1,Lewisham,11821,3
13131,13131,Bromley,2021-04-27,"Curran & Pinner, Bromley",0,"Chelsfield Park, Orpington BR6",0,0,pre-owned,2600000.0,detached,0,freehold,6 bed detached house for sale,51.347275,0.112276,723.0,6,6,3,2021-04-27,2600000.0,1,0,1,Gallions Reach,14885,0
13132,13132,Bromley,2021-04-26,Elmore's Of London,0,"Copers Cope Road, Beckenham BR3",0,0,pre-owned,525000.0,flat,0,leasehold,2 bed flat for sale,51.420875,-0.029359,93.0,2,2,1,2021-04-26,525000.0,1,1,0,Lewisham,4337,0
13133,13133,Bromley,2021-04-25,jdm Estate Agents,0,"Holmbury Park, Bromley BR1",0,0,pre-owned,850000.0,detached,0,leasehold,4 bed detached house for sale,51.412899,0.043447,168.0,4,2,3,2021-04-25,900000.0,0,1,1,Lewisham,6393,0
13134,13134,Bromley,2021-04-23,jdm Estate Agents,1,"Shannon Way, Beckenham BR3",0,0,pre-owned,350000.0,flat,0,leasehold,1 bed flat for sale,51.416698,-0.023977,63.0,1,1,1,2021-04-23,375000.0,1,1,1,Lewisham,4618,0
13135,13135,Bromley,2021-04-22,Sinclair Hammelton - Bromley Sales,0,"Queens Road, Bromley, Kent BR1",0,0,pre-owned,850000.0,semi_detached,0,freehold,4 bed semi-detached house for sale,51.405496,0.017875,151.0,4,3,2,2021-04-22,800000.0,1,1,1,Lewisham,5860,38
13136,13136,Bromley,2021-04-22,"Purplebricks, Head Office",0,"Beechfield Road, Bromley BR1",0,0,pre-owned,660000.0,terraced,0,freehold,4 bed terraced house for sale,51.404771,0.032767,121.0,4,2,0,2021-04-22,675000.0,1,1,1,Lewisham,6243,5
13137,13137,Bromley,2021-04-22,Alan De Maid - Bromley,0,"Bay Tree Close, Bromley BR1",0,0,pre-owned,1225000.0,detached,0,Other,4 bed detached house for sale,51.40971,0.03338,224.0,4,2,2,2021-04-22,1225000.0,0,1,0,Lewisham,5911,2
13138,13138,Bromley,2021-04-22,Charles Eden,0,"Reginald Court, Albemarle Road, Beckenham BR3",0,0,pre-owned,275000.0,flat,0,leasehold,1 bed flat for sale,51.408687,-0.010102,45.0,1,1,1,2021-04-22,285000.0,0,1,1,Lewisham,5483,2
13139,13139,Bromley,2021-04-21,jdm Estate Agents,1,"Denbridge Road, Bickley, Kent BR1",0,0,pre-owned,450000.0,flat,0,Other,2 bed flat for sale,51.405887,0.05284,69.0,2,2,1,2021-04-21,475000.0,0,1,0,Lewisham,7252,2
13140,13140,Bromley,2021-04-21,Langford Russell - Chislehurst,1,"Edgeborough Way, Bromley BR1",0,0,pre-owned,530000.0,bungalow,0,freehold,3 bed bungalow for sale,51.411093,0.034816,93.0,3,1,1,2021-04-21,550000.0,0,1,1,Lewisham,6167,0
13141,13141,Bromley,2021-04-21,Alan De Maid - Locksbottom,0,"Wood Way, Farnborough Park, Kent BR6",0,0,pre-owned,2850000.0,detached,0,freehold,6 bed detached house for sale,51.37291,0.05858,465.0,6,0,0,2021-04-21,2950000.0,0,0,1,Lewisham,9652,0
13142,13142,Bromley,2021-04-20,Alan De Maid - Locksbottom,1,"Starts Hill Avenue, Farnborough, Orpington BR6",0,0,new,699000.0,detached,0,freehold,4 bed detached house for sale,51.36151,0.06612,102.0,4,3,2,2021-04-20,699000.0,0,1,1,Lewisham,10342,2
13143,13143,Bromley,2021-04-17,William Charles Ltd,0,"Chelsfield Lane, Orpington BR5",0,0,pre-owned,490000.0,semi_detached,0,freehold,4 bed semi-detached house for sale,51.381085,0.120472,91.0,4,1,1,2021-04-17,500000.0,0,0,1,Gallions Reach,12252,0
13144,13144,Bromley,2021-04-17,jdm Estate Agents,1,"Durham Road, Bromley BR2",0,0,pre-owned,280000.0,flat,0,Other,1 bed flat for sale,51.3973,0.011123,47.0,1,1,1,2021-04-17,270000.0,0,1,1,Lewisham,6660,5
13145,13145,Bromley,2021-04-17,99Home Ltd,1,"Newstead Avenue, Orpington, Kent BR6",0,0,new,710000.0,semi_detached,0,freehold,3 bed semi-detached house for sale,51.371321,0.084259,12.0,3,2,0,2021-04-17,750000.0,0,0,1,Lewisham,10561,1
13146,13146,Bromley,2021-04-16,jdm Estate Agents,0,"Jefferson Place, Bromley BR2",0,0,pre-owned,350000.0,flat,0,Other,2 bed flat for sale,51.388302,0.036971,72.0,2,2,1,2021-04-16,370000.0,1,1,0,Lewisham,7679,2
13147,13147,Bromley,2021-04-15,Anthony Martin Locksbottom Limited - Crofton Road,0,"Bassetts Way, Farnborough, Orpington BR6",0,0,pre-owned,550000.0,semi_detached,0,Other,3 bed semi-detached house for sale,51.36235,0.063705,106.0,3,1,2,2021-04-15,575000.0,0,1,1,Lewisham,10369,2
13148,13148,Bromley,2021-04-15,Cook Estates,1,"Bourdon Road, Anerley SE20",0,0,pre-owned,400000.0,flat,0,leasehold,2 bed flat for sale,51.40577,-0.059555,74.0,2,1,1,2021-04-15,400000.0,0,0,0,Chesham,5883,3
13149,13149,Bromley,2021-04-14,iMove Property,1,"Anerley Road, London SE20",0,0,pre-owned,275000.0,flat,0,share_of_freehold,1 bed flat for sale,51.414438,-0.06983,47.0,1,1,0,2021-04-14,300000.0,0,0,1,Brixton,4792,4
13150,13150,Bromley,2021-04-14,Sinclair Hammelton - Bromley Sales,0,"Hampton Grange, 14 Marian Gardens, Bromley, Kent BR1",0,0,pre-owned,600000.0,flat,0,leasehold,2 bed flat for sale,51.411259,0.02751,96.0,2,2,0,2021-04-14,600000.0,0,1,1,Lewisham,5582,7
13151,13151,Bromley,2021-04-14,jdm Estate Agents,0,"Grove Vale, Chislehurst, Kent BR7",0,0,pre-owned,950000.0,detached,0,Other,3 bed detached house for sale,51.418899,0.056663,103.0,3,1,2,2021-04-14,950000.0,1,1,1,Lewisham,6210,1
13152,13152,Bromley,2021-04-13,Thomas Brown Estates,1,"Penhale Close, Farnborough, Orpington BR6",0,0,pre-owned,875000.0,detached,0,Other,5 bed detached house for sale,51.362598,0.098182,198.0,5,4,2,2021-04-13,875000.0,0,1,1,Gallions Reach,13310,0
13153,13153,Bromley,2021-04-13,Vesta Property,0,"Oakland Roads, Bromley BR1",0,0,pre-owned,375000.0,flat,0,leasehold,2 bed flat for sale,51.415125,0.004895,87.0,2,1,1,2021-04-13,375000.0,0,0,1,Lewisham,4937,0
13154,13154,Bromley,2021-04-13,jdm Estate Agents,1,"Elmstead Lane, Chislehurst, Kent BR7",0,0,pre-owned,325000.0,flat,0,Other,1 bed flat for sale,51.414939,0.046102,51.0,1,1,1,2021-04-13,350000.0,0,1,0,Lewisham,6140,0
13155,13155,Bromley,2021-04-12,jdm Estate Agents,1,"Park Road, Beckenham BR3",0,0,pre-owned,450000.0,flat,0,Other,2 bed flat for sale,51.416,-0.035513,65.0,2,2,1,2021-04-12,450000.0,1,1,0,Lewisham,4868,0
13156,13156,Bromley,2021-04-12,Knight Frank - Dulwich Village Sales,0,"Beckenham Place Park, Beckenham BR3",0,0,pre-owned,4000000.0,detached,0,Other,9 bed detached house for sale,51.4155,-0.0202,720.0,9,6,5,2021-04-12,4000000.0,1,1,1,Lewisham,5105,0
13157,13157,Bromley,2021-04-12,Langford Russell - Chislehurst,1,"Manor Park Road, Chislehurst BR7",1,0,pre-owned,485000.0,flat,0,leasehold,1 bed flat for sale,51.409334,0.077662,53.0,1,1,1,2021-04-12,485000.0,0,1,1,Chesham,9017,3
13158,13158,Bromley,2021-04-10,Alan De Maid - Locksbottom,0,"Starts Hill Road, Farnborough, Orpington BR6",0,0,pre-owned,1350000.0,detached,0,Other,5 bed detached house for sale,51.36173,0.06478,279.0,5,3,3,2021-04-10,1350000.0,0,0,1,Lewisham,10306,2
13159,13159,Bromley,2021-04-09,jdm Estate Agents,0,"Bickley Road, Bickley, Kent BR1",0,0,pre-owned,900000.0,flat,0,Other,3 bed flat for sale,51.40277,0.040673,194.0,3,3,1,2021-04-09,900000.0,1,1,0,Lewisham,6576,6
13160,13160,Bromley,2021-04-09,Anthony Martin Locksbottom Limited - Crofton Road,1,"Acorn Way, Orpington BR6",0,0,pre-owned,325000.0,flat,0,Other,1 bed flat for sale,51.364074,0.063971,69.0,1,1,1,2021-04-09,350000.0,0,1,1,Lewisham,10341,1
13161,13161,Bromley,2021-04-08,Capital Bromley,1,"Palace Grove, Bromley BR1",0,0,pre-owned,269995.0,flat,0,freehold,1 bed flat for sale,51.407901,0.01878,42.0,1,1,1,2021-04-08,269995.0,0,1,1,Lewisham,5655,37
13162,13162,Bromley,2021-04-07,"Purplebricks, Head Office",0,"Langley Road, Beckenham BR3",0,0,pre-owned,350000.0,flat,0,leasehold,2 bed flat for sale,51.396988,-0.04627,68.0,2,1,1,2021-04-07,375000.0,0,0,1,Lewisham,6535,5
13163,13163,Bromley,2021-04-06,Capital Bromley,0,"Madeira Avenue, Bromley BR1",0,0,pre-owned,359995.0,flat,0,freehold,2 bed flat for sale,51.409999,0.00449,91.0,2,1,1,2021-04-06,369995.0,0,1,0,Lewisham,5304,3
13164,13164,Bromley,2021-04-06,"Doorsteps.co.uk, National",1,"White Horse Hill, Chislehurst BR7",0,0,pre-owned,425000.0,flat,0,Other,2 bed flat for sale,51.422516,0.060985,68.0,2,1,1,2021-04-06,400000.0,0,1,0,Cyprus,8059,2
13165,13165,Bromley,2021-04-06,jdm Estate Agents,1,"Florence Road, Bromley, Kent BR1",0,0,pre-owned,350000.0,flat,0,Other,2 bed flat for sale,51.408901,0.014509,85.0,2,1,1,2021-04-06,350000.0,0,0,1,Lewisham,5475,35
13166,13166,Bromley,2021-04-02,Mann - Sydenham Sales,0,"Kingswood Road, Penge, London, . SE20",0,0,pre-owned,315000.0,flat,0,freehold,1 bed flat for sale,51.418391,-0.057123,41.0,1,1,1,2021-04-02,325000.0,1,0,0,New Cross Gate,5322,8
13167,13167,Bromley,2021-03-30,Stone Real Estate,1,"St Mark’S Square, Bromley BR2",0,0,new,415000.0,flat,0,leasehold,1 bed flat for sale,51.41139,0.00988,50.0,1,1,0,2021-03-30,415000.0,1,0,0,Lewisham,5256,14
13168,13168,Bromley,2021-03-30,Stone Real Estate,1,"St Mark’S Square, Bromley BR2",0,0,new,600000.0,flat,0,leasehold,2 bed flat for sale,51.4116,0.00972,83.0,2,0,0,2021-03-30,600000.0,1,0,0,Lewisham,5238,7
13169,13169,Bromley,2021-03-30,Hunters - Forest Hill,1,"Hayes Lane, Hayes BR2",0,0,pre-owned,725000.0,semi_detached,0,freehold,3 bed semi-detached house for sale,51.381802,0.017206,139.0,3,0,0,2021-03-30,849995.0,0,1,1,Lewisham,7778,3
13170,13170,Bromley,2021-03-26,Acorn - Sydenham,1,"Maple Road, London SE20",0,0,pre-owned,375000.0,flat,0,leasehold,2 bed flat for sale,51.415412,-0.054286,60.0,2,1,1,2021-03-26,375000.0,0,0,0,Chesham,5097,14
13171,13171,Bromley,2021-03-26,Langford Russell - Bromley,0,"Bickley Park Road, Bickley, Bromley BR1",0,0,pre-owned,500000.0,flat,0,leasehold,2 bed flat for sale,51.402442,0.052879,79.0,2,1,1,2021-03-26,525000.0,0,1,1,Lewisham,7186,1
13172,13172,Bromley,2021-03-25,"Purplebricks, Head Office",1,"Constable Mews, Bromley BR1",0,0,pre-owned,315000.0,flat,0,leasehold,2 bed flat for sale,51.406251,0.019446,74.0,2,2,1,2021-03-25,325000.0,0,1,0,Lewisham,5791,33
13173,13173,Bromley,2021-03-25,jdm Estate Agents,0,"Wilderness Road, Chislehurst, Kent BR7",0,0,pre-owned,2500000.0,detached,0,Other,5 bed detached house for sale,51.414218,0.067263,481.0,5,4,4,2021-03-25,2600000.0,1,1,1,Cyprus,8917,5
13174,13174,Bromley,2021-03-25,Acorn - Crystal Palace,1,"Croydon Road, London SE20",0,0,pre-owned,249950.0,flat,0,leasehold,1 bed flat for sale,51.407612,-0.061131,42.0,1,1,1,2021-03-25,259950.0,0,0,1,Chesham,5755,4
13175,13175,Bromley,2021-03-24,jdm Estate Agents,0,"Mill Place, Chislehurst BR7",0,0,pre-owned,450000.0,end_terrace,0,leasehold,1 bed end terrace house for sale,51.408699,0.062173,58.0,1,1,2,2021-03-24,450000.0,0,0,0,Lewisham,7269,4
13176,13176,Bromley,2021-03-23,Jukes and Co,1,"Blenheim Road, London SE20",0,0,pre-owned,350000.0,flat,0,leasehold,2 bed flat for sale,51.415271,-0.054556,6.0,2,1,1,2021-03-23,375000.0,1,0,0,Chesham,5117,14
13177,13177,Bromley,2021-03-22,PK Sales & Lettings Ltd,0,"Kendale Road, Bromley BR1",0,0,pre-owned,295000.0,flat,0,leasehold,2 bed flat for sale,51.421856,-0.000103,69.0,2,2,1,2021-03-22,295000.0,0,1,1,Lewisham,4344,3
13178,13178,Bromley,2021-03-22,Sinclair Hammelton,0,"Lords Court, 16 Headingley Drive, Beckenham BR3",0,0,pre-owned,300000.0,flat,0,leasehold,1 bed flat for sale,51.418037,-0.025166,4.0,1,0,1,2021-03-22,300000.0,0,1,0,Lewisham,4589,0
13179,13179,Bromley,2021-03-22,Thomas Brown Estates,0,"Derry Downs, Orpington BR5",0,0,pre-owned,700000.0,detached,0,leasehold,5 bed detached house for sale,51.385169,0.116662,240.0,5,3,2,2021-03-22,700000.0,0,0,1,Gallions Reach,11917,2
13180,13180,Bromley,2021-03-22,jdm Estate Agents,1,"Homefield Rise, Orpington BR6",0,0,pre-owned,390000.0,flat,0,Other,2 bed flat for sale,51.375,0.099238,66.0,2,1,0,2021-03-22,400000.0,1,1,0,Gallions Reach,12120,27
13181,13181,Bromley,2021-03-22,Galloways,1,"Blenheim Road, Penge SE20",0,0,pre-owned,199950.0,studio,0,leasehold,Studio for sale,51.415191,-0.054159,42.0,0,1,1,2021-03-22,230000.0,1,0,0,Chesham,5136,14
13182,13182,Bromley,2021-03-19,Power Bespoke,0,"Ref: Sm - Croydon Road, West Wickham BR4",0,0,pre-owned,600000.0,link_detached,0,freehold,4 bed link-detached house for sale,51.37019,-0.00114,139.0,4,1,3,2021-03-19,700000.0,0,0,0,Lewisham,8959,7
13183,13183,Bromley,2021-03-19,Langford Russell - Orpington,1,"Skeet Hill Lane, Orpington BR6",0,0,pre-owned,1300000.0,detached,0,freehold,5 bed detached house for sale,51.364355,0.1507,279.0,5,1,3,2021-03-19,1300000.0,0,0,1,Gallions Reach,14387,0
13184,13184,Bromley,2021-03-18,jdm Estate Agents,0,"Liddon Road, Bromley BR1",0,0,pre-owned,450000.0,end_terrace,0,Other,2 bed end terrace house for sale,51.400501,0.03283,85.0,2,1,2,2021-03-18,450000.0,1,0,1,Lewisham,6756,10
13185,13185,Bromley,2021-03-15,Bairstow Eves - Shirley,1,"Wickham Grange, 2 Albertine Grove, West Wickham, Kent BR4",0,0,new,770000.0,semi_detached,0,freehold,4 bed semi-detached house for sale,51.3703087671958,-0.0062724338624338,149.0,4,3,2,2021-03-15,790000.0,0,1,1,Lewisham,8752,1
13186,13186,Bromley,2021-03-15,jdm Estate Agents,1,"Letchworth Close, Bromley BR2",0,0,pre-owned,775000.0,detached,0,Other,5 bed detached house for sale,51.390899,0.015156,190.0,5,2,3,2021-03-15,800000.0,0,1,1,Lewisham,7146,1
13187,13187,Bromley,2021-03-12,jdm Estate Agents,1,"Ashdown Close, Beckenham BR3",0,0,pre-owned,610000.0,link_detached,0,leasehold,3 bed link-detached house for sale,51.404098,-0.020209,109.0,3,1,1,2021-03-12,610000.0,0,0,1,Lewisham,5713,12
13188,13188,Bromley,2021-03-09,Winkworth - Chislehurst,0,"Grove Park Road, London SE9",0,0,pre-owned,299950.0,flat,0,share_of_freehold,1 bed flat for sale,51.432784,0.033795,65.0,1,1,1,2021-03-09,299950.0,0,1,1,Lewisham,4268,0
13189,13189,Bromley,2021-03-08,Robinson Jackson - Catford,0,"Oldstead Road, Bromley, Kent BR1",0,0,pre-owned,475000.0,terraced,0,freehold,3 bed terraced house for sale,51.427185,-0.004568,6.0,3,2,2,2021-03-08,500000.0,1,0,1,Lewisham,3917,2
13190,13190,Bromley,2021-03-05,Capital Bromley,0,"Minster Road, Bromley BR1",0,0,pre-owned,599995.0,semi_detached_bungalow,0,leasehold,2 bed semi-detached bungalow for sale,51.4151,0.020534,117.0,2,1,1,2021-03-05,599995.0,0,1,1,Lewisham,5095,5
13191,13191,Bromley,2021-03-04,Pedder - Crystal Palace,1,"Thicket Road, London SE20",0,0,pre-owned,465000.0,flat,0,leasehold,2 bed flat for sale,51.415564,-0.069452,90.0,2,1,1,2021-03-04,450000.0,0,0,1,Brixton,4935,4
13192,13192,Bromley,2021-03-04,jdm Estate Agents,0,"Yester Road, Chislehurst, Kent BR7",0,0,pre-owned,1050000.0,detached,0,Other,5 bed detached house for sale,51.413963,0.051678,161.0,5,1,0,2021-03-04,1100000.0,0,0,1,Lewisham,6481,0
13193,13193,Bromley,2021-03-03,Truepenny's Property Consultants,1,"Westmoreland Road, Bromley BR2",0,0,pre-owned,1150000.0,detached,0,freehold,5 bed detached house for sale,51.397581,0.013774,186.0,5,3,3,2021-03-03,1150000.0,0,1,1,Lewisham,6509,6
13194,13194,Bromley,2021-03-01,Sinclair Hammelton,0,"Kevington Drive, Chislehurst BR7",0,0,pre-owned,925000.0,detached,0,freehold,5 bed detached house for sale,51.395478,0.092732,195.0,5,3,2,2021-03-01,925000.0,0,0,1,Gallions Reach,10353,0
13195,13195,Bromley,2021-02-26,jdm Estate Agents,1,"Widmore Road, Bromley BR1",0,0,pre-owned,285000.0,flat,0,Other,1 bed flat for sale,51.406101,0.020138,62.0,1,1,1,2021-02-26,300000.0,0,0,1,Lewisham,5902,29
13196,13196,Bromley,2021-02-25,Charles Eden,0,"Belgravia Apartments, 1 Mackintosh Street, Bromley BR2",0,0,pre-owned,278000.0,flat,0,leasehold,1 bed flat for sale,51.388191,0.038477,49.0,1,1,1,2021-02-25,285000.0,1,1,0,Lewisham,7662,2
13197,13197,Bromley,2021-02-24,jdm Estate Agents,0,"Maxwell Gardens, Orpington BR6",0,0,pre-owned,525000.0,semi_detached,0,Other,4 bed semi-detached house for sale,51.3698,0.090378,102.0,4,2,2,2021-02-24,550000.0,0,1,1,Gallions Reach,12655,3
13198,13198,Bromley,2021-02-23,jdm Estate Agents,1,"Ashmore Lane, Keston BR2",0,0,pre-owned,675000.0,detached_bungalow,0,Other,3 bed detached bungalow for sale,51.336799,0.024267,116.0,3,2,2,2021-02-23,750000.0,0,1,1,Lewisham,11884,2
13199,13199,Bromley,2021-02-20,"Purplebricks, Head Office",0,"2c Southlands Road, Bromley BR2",0,0,pre-owned,275000.0,flat,0,leasehold,1 bed flat for sale,51.393194,0.031909,52.0,1,1,1,2021-02-20,275000.0,0,1,0,Lewisham,7150,9
13200,13200,Bromley,2021-02-16,Alan De Maid - Bromley,1,"Palace Grove, Bromley BR1",0,0,pre-owned,345500.0,flat,0,Other,1 bed flat for sale,51.40835,0.01956,59.0,1,1,1,2021-02-16,350000.0,0,1,1,Lewisham,5700,33
13201,13201,Bromley,2021-02-16,Alan De Maid - Bromley,1,"Palace Grove, Bromley BR1",0,0,pre-owned,550000.0,flat,0,Other,3 bed flat for sale,51.40835,0.01956,111.0,3,3,1,2021-02-16,550000.0,0,1,1,Lewisham,5700,33
13202,13202,Bromley,2021-02-10,Alan De Maid - West Wickham,0,"Albertine Grove, West Wickham BR4",0,0,pre-owned,680000.0,semi_detached,0,freehold,4 bed semi-detached house for sale,51.3703087671958,-0.0062724338624338,134.0,4,3,0,2021-02-10,680000.0,0,1,1,Lewisham,8752,1
13203,13203,Bromley,2021-02-09,Langford Russell - Locksbottom,0,"Longdon Wood, Keston BR2",0,0,pre-owned,2195000.0,detached,0,freehold,5 bed detached house for sale,51.364769,0.041152,391.0,5,4,4,2021-02-09,2195000.0,0,1,1,Lewisham,9583,0
13204,13204,Bromley,2021-02-09,jdm Estate Agents,1,"Brunswick Square, Homefield Rise, Orpington, Kent BR6",0,0,pre-owned,300000.0,flat,0,Other,1 bed flat for sale,51.375,0.099238,53.0,1,1,1,2021-02-09,325000.0,1,0,0,Gallions Reach,12120,27
13205,13205,Bromley,2021-02-08,jdm Estate Agents,0,"Aylesbury Road, Bromley BR2",0,0,pre-owned,400000.0,flat,0,Other,2 bed flat for sale,51.398101,0.012599,76.0,2,2,0,2021-02-08,400000.0,0,1,1,Lewisham,6563,5
13206,13206,Bromley,2021-02-04,jdm Estate Agents,0,"Garrard Close, Chislehurst, Kent BR7",0,0,pre-owned,345000.0,maisonette,0,Other,2 bed maisonette for sale,51.424198,0.066738,63.0,2,1,1,2021-02-04,345000.0,0,1,1,Cyprus,7880,2
13207,13207,Bromley,2021-02-04,George Ellis Property Services,0,"Beckenham Road, Beckenham BR3",0,0,pre-owned,225000.0,flat,0,leasehold,1 bed flat for sale,51.409893,-0.045763,3.0,1,1,0,2021-02-04,225000.0,0,0,0,Lewisham,5282,7
13208,13208,Bromley,2021-02-03,Aletta Shaw,1,"Whitehorse Hill, Chislehurst BR7",0,0,pre-owned,288000.0,flat,0,leasehold,1 bed flat for sale,51.422396,0.061137,46.0,1,1,1,2021-02-03,295000.0,0,1,0,Cyprus,8094,2
13209,13209,Bromley,2021-02-02,Alan De Maid - West Wickham,1,"Albertine Grove, West Wickham BR4",0,0,new,770000.0,semi_detached,0,freehold,4 bed semi-detached house for sale,51.3703087671958,-0.0062724338624338,149.0,4,3,0,2021-02-02,790000.0,0,1,1,Lewisham,8752,1
13210,13210,Bromley,2021-01-29,Andrew Kingsley,1,"Upper Park Road, Bromley BR1",0,0,pre-owned,295000.0,flat,0,leasehold,2 bed flat for sale,51.410698,0.025998,64.0,2,1,1,2021-01-29,305000.0,0,0,1,Lewisham,5840,9
13211,13211,Bromley,2021-01-26,Robinson Jackson - Orpington,1,"Chapmans Lane, Orpington BR5",0,0,pre-owned,995000.0,detached,0,freehold,4 bed detached house for sale,51.403327,0.133081,215.0,4,4,3,2021-01-26,995000.0,0,1,1,Gallions Reach,11167,0
13212,13212,Bromley,2021-01-18,jdm Estate Agents,0,"Beckenham Grove, Bromley BR2",0,0,pre-owned,350000.0,flat,0,leasehold,2 bed flat for sale,51.4038,-0.002968,65.0,2,1,1,2021-01-18,350000.0,0,0,1,Lewisham,5913,2
13213,13213,Bromley,2021-01-16,Edmund - Orpington,1,"Badgers Copse, Tower Road, Orpington BR6",0,0,pre-owned,245000.0,flat,0,Other,1 bed flat for sale,51.3707,0.090419,40.0,1,0,0,2021-01-16,250000.0,0,1,1,Gallions Reach,12520,3
13214,13214,Bromley,2021-01-14,Langford Russell - Chislehurst,1,"Ravens Dene, Chislehurst BR7",0,0,pre-owned,595000.0,end_terrace,0,freehold,4 bed end terrace house for sale,51.420416,0.054072,130.0,4,2,1,2021-01-14,595000.0,1,1,1,Lewisham,6056,0
13215,13215,Bromley,2021-01-13,"Purplebricks, Head Office",0,"69 Burnt Ash Lane, Bromley BR1",0,0,pre-owned,280000.0,maisonette,0,leasehold,2 bed maisonette for sale,51.418103,0.016862,68.0,2,1,1,2021-01-13,290000.0,0,1,1,Lewisham,4700,4
13216,13216,Bromley,2021-01-11,Sinclair Hammelton - Bromley Sales,0,"Scotts Road, Bromley, Kent BR1",0,0,pre-owned,350000.0,flat,0,leasehold,2 bed flat for sale,51.411938,0.013542,64.0,2,1,1,2021-01-11,375000.0,0,1,0,Lewisham,5288,8
13217,13217,Bromley,2021-01-11,Coady Phillips,1,"Widmore Road, Bromley BR1",0,0,pre-owned,1000000.0,detached,0,freehold,4 bed detached house for sale,51.405535,0.035404,204.0,4,2,2,2021-01-11,1000000.0,0,1,1,Lewisham,6166,3
13218,13218,Croydon,2021-07-05,Strike,1,"Priory Crescent, London SE19",0,0,pre-owned,280000.0,flat,0,leasehold,2 bed flat for sale,51.416113,-0.096528,60.0,2,1,1,2021-07-05,280000.0,0,1,1,Brixton,4108,1
13219,13219,Croydon,2021-07-05,Folklands,0,"Whitestone Way, Croydon CR0",0,0,pre-owned,260000.0,flat,0,leasehold,1 bed flat for sale,51.37366,-0.116153,54.0,1,1,1,2021-07-05,260000.0,1,0,0,Chesham,5257,1
13220,13220,Croydon,2021-07-05,Benson & Partners,0,"Albert Road, London SE25",0,0,pre-owned,175000.0,flat,0,leasehold,1 bed flat for sale,51.3987,-0.072199,4.0,1,1,1,2021-07-05,175000.0,0,0,1,Brixton,5992,5
13221,13221,Croydon,2021-07-05,Langford Russell - West Wickham,0,"Orchard Avenue, Croydon CR0",0,0,pre-owned,900000.0,detached,0,freehold,5 bed detached house for sale,51.382286,-0.043103,232.0,5,3,3,2021-07-05,900000.0,0,1,1,Lewisham,7815,1
13222,13222,Croydon,2021-07-05,London Property Zone,1,"Wellesley Road, Croydon CR0",0,0,new,295000.0,flat,0,leasehold,1 bed flat for sale,51.378825,-0.099479,41.0,1,1,0,2021-07-05,295000.0,1,0,0,Tooting Bec,6034,16
13223,13223,Croydon,2021-07-05,London Property Zone,1,"Wellesley Road, Croydon CR0",0,0,new,220000.0,studio,0,leasehold,Studio for sale,51.378825,-0.099479,31.0,0,1,0,2021-07-05,220000.0,1,0,0,Tooting Bec,6034,16
13224,13224,Croydon,2021-07-03,Martin & Co Croydon,1,"Turnpike Link, Croydon CR0",0,0,pre-owned,365000.0,maisonette,0,leasehold,2 bed maisonette for sale,51.372798,-0.086217,83.0,2,1,1,2021-07-03,365000.0,0,1,0,Chesham,7446,2
13225,13225,Croydon,2021-07-03,"Purplebricks, Head Office",0,"The Woodlands, Crystal Palace SE19",0,0,pre-owned,400000.0,flat,0,leasehold,2 bed flat for sale,51.41541,-0.098523,65.0,2,1,1,2021-07-03,400000.0,1,0,0,Brixton,4193,1
13226,13226,Croydon,2021-07-03,Galloways,0,"Albert Road SE25, South Norwood, London",0,0,pre-owned,290000.0,flat,0,freehold,1 bed flat for sale,51.398883,-0.068964,68.0,1,1,1,2021-07-03,290000.0,1,0,1,Brixton,6156,5
13227,13227,Croydon,2021-07-02,Barnard Marcus - Thornton Heath,1,"Beulah Hill, London SE19",0,0,new,555000.0,flat,0,leasehold,3 bed flat for sale,51.418249,-0.102792,104.0,3,2,1,2021-07-02,555000.0,1,0,0,Brixton,3745,2
13228,13228,Croydon,2021-07-02,Oaks Estate Agents,1,"Meadvale Road, Addiscombe, Croydon CR0",0,0,pre-owned,600000.0,semi_detached,0,Other,6 bed semi-detached house for sale,51.386398,-0.074733,173.0,6,2,2,2021-07-02,600000.0,0,0,1,Brixton,7135,2
13229,13229,Croydon,2021-07-01,London Property Zone,1,"Wellesley Road, Croydon CR0",0,0,new,290000.0,flat,0,leasehold,1 bed flat for sale,51.378825,-0.099479,41.0,1,1,0,2021-07-01,290000.0,1,0,0,Tooting Bec,6034,16
13230,13230,Croydon,2021-07-01,London Property Zone,1,"Wellesley Road, Croydon CR0",0,0,new,220000.0,studio,0,leasehold,Studio for sale,51.378825,-0.099479,31.0,0,1,0,2021-07-01,220000.0,1,0,0,Tooting Bec,6034,16
13231,13231,Croydon,2021-07-01,Move Revolution,1,"Welcomes Road, Kenley CR8",0,0,pre-owned,1750000.0,detached,0,Other,5 bed detached house for sale,51.321544,-0.101132,418.0,5,5,2,2021-07-01,1750000.0,1,1,1,Chesham,9055,3
13232,13232,Croydon,2021-07-01,Oaks Estate Agents,0,"Avondale Road, South Croydon CR2",0,0,pre-owned,325000.0,flat,0,freehold,2 bed flat for sale,51.355759,-0.100061,71.0,2,1,1,2021-07-01,325000.0,0,0,0,Chesham,7037,6
13233,13233,Croydon,2021-07-01,Streets Ahead - Purley,0,"Old Lodge Lane, Purley CR8",0,0,pre-owned,525000.0,flat,0,leasehold,2 bed flat for sale,51.326647,-0.121043,87.0,2,0,0,2021-07-01,525000.0,0,1,1,Morden,8257,0
13234,13234,Croydon,2021-07-01,Jukes and Co,1,"Ravensdale Gardens, London SE19",0,0,pre-owned,335000.0,maisonette,0,leasehold,2 bed maisonette for sale,51.414279,-0.090391,7.0,2,1,1,2021-07-01,335000.0,0,0,0,Brixton,4471,1
13235,13235,Croydon,2021-07-01,Oaks Estate Agents,0,"Kemerton Road, Addiscombe, Croydon CR0",0,0,pre-owned,450000.0,end_terrace,0,Other,3 bed end terrace house for sale,51.383717,-0.079071,105.0,3,2,2,2021-07-01,450000.0,1,1,1,Chesham,7283,4
13236,13236,Croydon,2021-07-01,Oaks Estate Agents,1,"Woodside Green, Woodside, Croydon SE25",0,0,new,375000.0,flat,0,Other,2 bed flat for sale,51.387165,-0.070547,64.0,2,1,1,2021-07-01,375000.0,1,0,0,Brixton,7032,2
13237,13237,Croydon,2021-06-30,Winkworth - Banstead,0,"Hillcrest Road, Purley CR8",0,0,pre-owned,1250000.0,detached,0,freehold,5 bed detached house for sale,51.345747,-0.122143,372.0,5,3,4,2021-06-30,1250000.0,1,1,1,Chesham,6765,0
13238,13238,Croydon,2021-06-30,"Purplebricks, Head Office",0,"24 Anerley Hill, Crystal Palace SE19",0,0,pre-owned,400000.0,flat,0,leasehold,2 bed flat for sale,51.418988,-0.075852,66.0,2,1,1,2021-06-30,400000.0,0,0,0,Brixton,4326,28
13239,13239,Croydon,2021-06-30,Folklands,1,"Canning Road, Addiscombe, Croydon CR0",0,0,pre-owned,280000.0,flat,0,leasehold,2 bed flat for sale,51.37881,-0.082053,84.0,2,1,1,2021-06-30,280000.0,0,1,0,Chesham,7073,9
13240,13240,Croydon,2021-06-30,Savills - Guildford RDS,0,"Smitham Yard, Leaden Hill, Coulsdon, Surrey CR5",0,0,pre-owned,375000.0,flat,0,leasehold,2 bed flat for sale,51.324129,-0.136245,63.0,2,2,1,2021-06-30,375000.0,1,1,0,Morden,7706,9
13241,13241,Croydon,2021-06-30,London Property Zone,1,"Wellesley Road, Croydon CR0",0,0,new,290000.0,flat,0,leasehold,1 bed flat for sale,51.378825,-0.099479,41.0,1,1,0,2021-06-30,290000.0,1,0,0,Tooting Bec,6034,16
13242,13242,Croydon,2021-06-30,"Thomas & May, Surrey",0,"Church Lane Avenue, Hooley CR5",0,0,pre-owned,775000.0,detached,0,freehold,5 bed detached house for sale,51.29117,-0.156125,177.0,5,0,0,2021-06-30,775000.0,0,1,1,Morden,10318,0
13243,13243,Croydon,2021-06-29,Bluestone Properties,0,"Chatsworth Road, Croydon CR0",0,0,pre-owned,230000.0,flat,0,leasehold,1 bed flat for sale,51.370201,-0.094944,36.0,1,1,1,2021-06-29,230000.0,0,0,1,Chesham,6525,47
13244,13244,Croydon,2021-06-29,Bairstow Eves - Sanderstead,1,"Coombes House, 122 Riddlesdown Road, Purley CR8",0,0,new,450000.0,flat,0,leasehold,2 bed flat for sale,51.335527,-0.105133,60.0,2,2,1,2021-06-29,450000.0,0,0,1,Colliers Wood,8620,0
13245,13245,Croydon,2021-06-29,Bairstow Eves - Sanderstead,1,"Coombes House, 122 Riddlesdown Road, Purley CR8",0,0,new,400000.0,flat,0,leasehold,2 bed flat for sale,51.335527,-0.105133,60.0,2,2,1,2021-06-29,400000.0,0,1,1,Colliers Wood,8620,0
13246,13246,Croydon,2021-06-29,Bairstow Eves - Sanderstead,1,"Coombes House, 122 Riddlesdown Road, Purley CR8",0,0,new,450000.0,flat,0,leasehold,3 bed flat for sale,51.335527,-0.105133,71.0,3,2,1,2021-06-29,450000.0,0,0,1,Colliers Wood,8620,0
13247,13247,Croydon,2021-06-29,Winkworth - Crystal Palace,0,"Maberley Road, London SE19",0,0,pre-owned,400000.0,flat,0,leasehold,2 bed flat for sale,51.412425,-0.073755,50.0,2,1,1,2021-06-29,400000.0,0,0,1,Brixton,4855,4
13248,13248,Croydon,2021-06-28,Frost,0,"Foxley Lane, Purley CR8",0,0,pre-owned,835000.0,semi_detached,0,freehold,6 bed semi-detached house for sale,51.342091,-0.126493,223.0,6,1,3,2021-06-28,835000.0,0,1,1,Morden,6862,0
13249,13249,Croydon,2021-06-28,McHugh & Co,0,"King Henrys Drive, New Addington, Croydon CR0",0,0,pre-owned,5000.0,land,1,freehold,Land for sale,51.34825,-0.017541,69.0,0,0,0,2021-06-28,5000.0,0,0,0,Lewisham,10743,0
13250,13250,Croydon,2021-06-28,Strike,0,"Oakmead Road, Croydon CR0",0,0,pre-owned,400000.0,terraced,0,freehold,3 bed terraced house for sale,51.389147,-0.139361,70.0,3,1,1,2021-06-28,400000.0,0,0,1,Chesham,3370,0
13251,13251,Croydon,2021-06-27,London Property Zone,1,"Wellesley Road, Croydon CR0",0,0,new,295000.0,flat,0,leasehold,1 bed flat for sale,51.378825,-0.099479,41.0,1,1,0,2021-06-27,295000.0,1,0,0,Tooting Bec,6034,16
13252,13252,Croydon,2021-06-27,"Purplebricks, Head Office",0,"Sylvan Road, Crystal Palace SE19",0,0,pre-owned,350000.0,flat,0,leasehold,2 bed flat for sale,51.410582,-0.078161,78.0,2,2,1,2021-06-27,350000.0,1,1,0,Brixton,4976,1
13253,13253,Croydon,2021-06-25,Oaks Estate Agents,0,"Leslie Grove, Croydon CR0",0,0,pre-owned,535000.0,terraced,0,Other,3 bed terraced house for sale,51.38005,-0.08924,111.0,3,2,1,2021-06-25,535000.0,0,0,1,Chesham,6813,10
13254,13254,Croydon,2021-06-25,Parkside Estate Agent,0,"Lavender Road, Croydon CR0",0,0,pre-owned,485000.0,terraced,0,freehold,4 bed terraced house for sale,51.389092,-0.124379,130.0,4,1,1,2021-06-25,485000.0,1,1,1,Tooting Broadway,4339,2
13255,13255,Croydon,2021-06-25,Acorn - Crystal Palace,0,"White Lodge, London SE19",0,0,pre-owned,575000.0,town_house,0,freehold,3 bed town house for sale,51.41734,-0.103865,119.0,3,1,1,2021-06-25,575000.0,0,1,1,Brixton,3866,1
13256,13256,Croydon,2021-06-24,Shinerocks,0,"Old Lodge Lane, Purley, Surrey CR8",0,0,pre-owned,700000.0,detached,0,freehold,5 bed detached house for sale,51.317127,-0.116476,134.0,5,2,2,2021-06-24,700000.0,1,1,1,Morden,9058,0
13257,13257,Croydon,2021-06-24,Move Revolution,1,"East Cliff House, Highland Road, Purley CR8",0,0,new,575000.0,flat,0,Other,3 bed flat for sale,51.324699,-0.116925,91.0,3,2,1,2021-06-24,575000.0,1,1,0,Morden,8594,0
13258,13258,Croydon,2021-06-24,Oaks Estate Agents,0,"Mount Pleasant View, Dalmally Road, Addiscombe CR0",0,0,pre-owned,525000.0,terraced,0,Other,3 bed terraced house for sale,51.383846,-0.073202,111.0,3,2,2,2021-06-24,525000.0,1,0,1,Brixton,7331,3
13259,13259,Croydon,2021-06-24,Winkworth - Crystal Palace,0,"Queen Mary Road, London SE19",0,0,pre-owned,385000.0,flat,0,share_of_freehold,2 bed flat for sale,51.420007,-0.103625,63.0,2,1,1,2021-06-24,385000.0,0,0,1,Brixton,3609,2
13260,13260,Croydon,2021-06-24,London Property Zone,1,"Wellesley Road, Croydon CR0",0,0,new,220000.0,studio,0,leasehold,Studio for sale,51.378825,-0.099479,31.0,0,1,0,2021-06-24,250000.0,1,0,0,Tooting Bec,6034,16
13261,13261,Croydon,2021-06-24,London Property Zone,1,"Wellesley Road, Croydon CR0",0,0,new,295000.0,flat,0,leasehold,1 bed flat for sale,51.378825,-0.099479,41.0,1,1,0,2021-06-24,295000.0,1,0,0,Tooting Bec,6034,16
13262,13262,Croydon,2021-06-24,Hiltons Estates,1,"St. Peters Street, South Croydon CR2",0,0,new,434950.0,semi_detached,0,Other,2 bed semi-detached house for sale,51.360401,-0.095354,156.0,2,2,1,2021-06-24,450000.0,0,0,0,Tooting Broadway,6984,9
13263,13263,Croydon,2021-06-24,Hiltons Estates,1,"St. Peters Street, South Croydon CR2",0,0,new,434950.0,semi_detached,0,Other,3 bed semi-detached house for sale,51.360401,-0.095354,156.0,3,2,1,2021-06-24,450000.0,0,0,0,Tooting Broadway,6984,9
13264,13264,Croydon,2021-06-24,Oaks Estate Agents,1,"Clifton Court, Selhurst Road, South Norwood SE25",0,0,pre-owned,235000.0,flat,0,Other,1 bed flat for sale,51.394123,-0.085793,52.0,1,1,1,2021-06-24,235000.0,0,0,0,Chesham,5919,1
13265,13265,Croydon,2021-06-23,Bromley Property Company,1,"Hartland Way, Shirley, Croydon CR0",0,0,pre-owned,795000.0,detached,0,freehold,3 bed detached house for sale,51.371783,-0.045318,167.0,3,1,1,2021-06-23,795000.0,0,0,1,Lewisham,8630,6
13266,13266,Croydon,2021-06-23,Savills - Clapham,0,"Minehead Road, London SW16",0,0,pre-owned,825000.0,terraced,0,freehold,3 bed terraced house for sale,51.423885,-0.121042,106.0,3,1,1,2021-06-23,825000.0,0,0,1,Balham,2746,2
13267,13267,Croydon,2021-06-23,Martin & Co Croydon,0,"Saffronsquare, East Croydon, Surrey CR0",0,0,pre-owned,340000.0,flat,0,Other,2 bed flat for sale,51.379185,-0.099493,65.0,2,1,1,2021-06-23,340000.0,0,0,1,Tooting Bec,6062,14
13268,13268,Croydon,2021-06-23,Clipper Residential,0,"Saffron Central Square, Croydon CR0",0,0,pre-owned,295000.0,flat,0,Other,1 bed flat for sale,51.378973,-0.099438,42.0,1,1,1,2021-06-23,300000.0,0,0,0,Tooting Bec,6045,15
13269,13269,Croydon,2021-06-23,Savills - National Auctions,0,"Woodside Green, Woodside, Croydon SE25",0,0,pre-owned,205000.0,flat,1,freehold,3 bed flat for sale,51.389549,-0.066753,105.0,3,0,0,2021-06-23,205000.0,0,1,1,Brixton,6836,1
13270,13270,Croydon,2021-06-23,Acorn - Crystal Palace,0,"Maberley Road, London SE19",0,0,pre-owned,350000.0,flat,0,share_of_freehold,1 bed flat for sale,51.412425,-0.073755,52.0,1,1,1,2021-06-23,365000.0,0,0,0,Brixton,4855,4
13271,13271,Croydon,2021-06-22,iMove Property,1,"Homelands Drive, London SE19",0,0,pre-owned,345000.0,flat,0,leasehold,2 bed flat for sale,51.41399,-0.085294,56.0,2,1,0,2021-06-22,345000.0,0,0,0,Brixton,4608,6
13272,13272,Croydon,2021-06-22,Andrews - Mitcham,1,"Brecon Close, Mitcham CR4",0,0,pre-owned,375000.0,terraced,0,Other,3 bed terraced house for sale,51.401125,-0.132098,110.0,3,0,0,2021-06-22,375000.0,1,0,1,Tooting Broadway,3389,0
13273,13273,Croydon,2021-06-22,Acorn - Crystal Palace,1,"Harold Road, London SE19",0,0,pre-owned,469999.0,flat,0,share_of_freehold,2 bed flat for sale,51.418009,-0.086924,60.0,2,1,1,2021-06-22,469999.0,0,0,1,Brixton,4084,22
13274,13274,Croydon,2021-06-22,Oaks Estate Agents,0,"Harrington Road, London SE25",0,0,pre-owned,425000.0,end_terrace,0,Other,3 bed end terrace house for sale,51.398827,-0.061804,69.0,3,1,2,2021-06-22,425000.0,1,0,1,Chesham,6663,1
13275,13275,Croydon,2021-06-22,Unique - West Wickham,0,"Springhurst Close, Croydon CR0",0,0,pre-owned,1850000.0,detached,0,freehold,5 bed detached house for sale,51.366749,-0.036797,399.0,5,4,4,2021-06-22,1850000.0,1,1,1,Lewisham,9195,2
13276,13276,Croydon,2021-06-21,Savills - National Auctions,0,"St. Lukes Close, Woodside, Croydon SE25",0,0,pre-owned,50000.0,land,1,leasehold,Land for sale,51.38907,-0.063884,106.0,0,0,0,2021-06-21,50000.0,1,0,0,Brixton,6965,1
13277,13277,Croydon,2021-06-21,Hamptons - Caterham Sales,0,"Woodcote Park Avenue, Woodcote Estate, Purley CR8",0,0,pre-owned,1750000.0,detached,0,freehold,6 bed detached house for sale,51.336791,-0.145443,371.0,6,1,2,2021-06-21,1750000.0,0,0,1,Morden,6425,0
13278,13278,Croydon,2021-06-21,Oaks Estate Agents,0,"Calender Court, Harry Close, Croydon CR0",0,0,pre-owned,260000.0,flat,0,leasehold,1 bed flat for sale,51.389965,-0.103862,48.0,1,1,1,2021-06-21,260000.0,0,0,0,Chesham,5250,5
13279,13279,Croydon,2021-06-21,Hyde and Rowe Limited,0,"Riddlesdown Road, Purley CR8",0,0,pre-owned,599950.0,flat,0,leasehold,3 bed flat for sale,51.339983,-0.105423,111.0,3,2,1,2021-06-21,599950.0,1,0,1,Colliers Wood,8290,0
13280,13280,Croydon,2021-06-21,Winkworth - Crystal Palace,0,"The Woodlands, London SE19",0,0,pre-owned,290000.0,flat,0,share_of_freehold,2 bed flat for sale,51.41541,-0.098523,65.0,2,1,1,2021-06-21,290000.0,0,0,0,Brixton,4193,1
13281,13281,Croydon,2021-06-20,London Property Zone,1,"Wellesley Road, Croydon CR0",0,0,new,295000.0,flat,0,leasehold,1 bed flat for sale,51.378825,-0.099479,41.0,1,1,0,2021-06-20,295000.0,1,0,0,Tooting Bec,6034,16
13282,13282,Croydon,2021-06-19,jdm Estate Agents,1,"Grange Road, London SE19",0,0,pre-owned,450000.0,terraced,0,Other,3 bed terraced house for sale,51.409698,-0.088989,85.0,3,1,0,2021-06-19,450000.0,0,0,1,Brixton,4850,1
13283,13283,Croydon,2021-06-18,Shinerocks,0,"Woodcote Valley Road, Purley, Surrey CR8",0,0,pre-owned,750000.0,semi_detached,0,freehold,4 bed semi-detached house for sale,51.333953,-0.131027,131.0,4,1,2,2021-06-18,775000.0,1,1,1,Morden,7350,0
13284,13284,Croydon,2021-06-18,Bairstow Eves - Selsdon,1,"Sanderson Lodge, 73 Addington Road, Selsdon CR2",1,0,new,511950.0,Other,0,leasehold,2 bed property for sale,51.340405,-0.069037,75.0,2,2,1,2021-06-18,511950.0,0,0,1,Chesham,9406,2
13285,13285,Croydon,2021-06-18,Bairstow Eves - Selsdon,1,"Sanderson Lodge, 73 Addington Road, Selsdon CR2",1,0,new,413500.0,Other,0,leasehold,1 bed property for sale,51.340405,-0.069037,53.0,1,1,1,2021-06-18,413500.0,0,0,1,Chesham,9406,2
13286,13286,Croydon,2021-06-18,Winkworth - Crystal Palace,1,"Grange Road, London SE19",0,0,pre-owned,275000.0,flat,0,share_of_freehold,2 bed flat for sale,51.410392,-0.089126,48.0,2,1,1,2021-06-18,275000.0,0,1,1,Brixton,4812,1
13287,13287,Croydon,2021-06-18,Move Revolution,1,"Leaden Hill, Coulsdon CR5",0,0,pre-owned,375000.0,flat,0,Other,2 bed flat for sale,51.321802,-0.134033,63.0,2,2,1,2021-06-18,375000.0,1,1,0,Morden,7952,12
13288,13288,Croydon,2021-06-18,Martin & Co Croydon,0,"Cherry Orchard Road, Croydon CR0",0,0,pre-owned,495000.0,flat,0,Other,3 bed flat for sale,51.377825,-0.091803,84.0,3,2,1,2021-06-18,475000.0,1,1,1,Chesham,6981,16
13289,13289,Croydon,2021-06-18,London Property Zone,1,"Wellesley Road, Croydon CR0",0,0,new,220000.0,studio,0,leasehold,Studio for sale,51.378825,-0.099479,31.0,0,1,0,2021-06-18,250000.0,1,0,0,Tooting Bec,6034,16
13290,13290,Croydon,2021-06-18,Acorn - Crystal Palace,1,"Biggin Hill, London SE19",0,0,pre-owned,425000.0,terraced,0,freehold,2 bed terraced house for sale,51.414095,-0.10446,68.0,2,1,1,2021-06-18,425000.0,1,0,1,Chesham,4020,0
13291,13291,Croydon,2021-06-17,Truuli,0,"Upton Road, Thornton Heath CR7",0,0,pre-owned,260000.0,flat,0,leasehold,1 bed flat for sale,51.408071,-0.095708,51.0,1,1,1,2021-06-17,260000.0,0,0,1,Brixton,4908,2
13292,13292,Croydon,2021-06-17,Countrywide Residential Development - Croydon,1,"Coombes House, 122 Riddlesdown Road, Purley CR8",0,0,new,400000.0,flat,0,leasehold,2 bed flat for sale,51.335527,-0.105133,60.0,2,2,1,2021-06-17,400000.0,1,1,1,Colliers Wood,8620,0
13293,13293,Croydon,2021-06-17,Fine & Country - Woldingham,0,"Skid Hill Lane, Chelsham, Warlingham, Surrey CR6",0,0,pre-owned,950000.0,semi_detached,0,freehold,5 bed semi-detached house for sale,51.329306,0.0025,149.0,5,2,3,2021-06-17,950000.0,1,0,1,Lewisham,12293,0
13294,13294,Croydon,2021-06-17,Barnard Marcus - South Croydon,0,"Moreton Road, South Croydon CR2",0,0,pre-owned,475000.0,maisonette,0,leasehold,3 bed maisonette for sale,51.361155,-0.092296,99.0,3,1,1,2021-06-17,495000.0,0,0,1,Tooting Broadway,7153,16
13295,13295,Croydon,2021-06-17,Oaks Estate Agents,0,"Stroud Road, Woodside, Croydon SE25",0,0,pre-owned,475000.0,semi_detached,0,leasehold,3 bed semi-detached house for sale,51.38657,-0.068847,100.0,3,2,2,2021-06-17,475000.0,0,1,1,Brixton,7054,3
13296,13296,Croydon,2021-06-16,Streets Ahead - Croydon,1,"Morland Road, Addiscombe, Croydon CR0",0,0,pre-owned,335000.0,flat,0,share_of_freehold,2 bed flat for sale,51.381971,-0.083354,86.0,2,0,0,2021-06-16,335000.0,0,1,1,Chesham,6996,8
13297,13297,Croydon,2021-06-16,Barnard Marcus - Thornton Heath,1,"Beulah Hill, London SE19",0,0,new,485000.0,flat,0,leasehold,2 bed flat for sale,51.418249,-0.102792,81.0,2,1,1,2021-06-16,485000.0,1,0,0,Brixton,3745,2
13298,13298,Croydon,2021-06-15,Seventeen29,1,"Melfort Road, London CR7",0,0,pre-owned,575000.0,semi_detached,0,freehold,4 bed semi-detached house for sale,51.399616,-0.102836,206.0,4,2,2,2021-06-15,575000.0,0,1,1,Chesham,4702,5
13299,13299,Croydon,2021-06-15,Jacksons Estate Agents - Streatham,1,"Hopton Road, London SW16",0,0,pre-owned,375000.0,flat,0,leasehold,2 bed flat for sale,51.425566,-0.130306,62.0,2,1,1,2021-06-15,395000.0,0,1,1,Chesham,1988,6
13300,13300,Croydon,2021-06-15,Hamptons - Caterham Sales,0,"Shaw Crescent, South Croydon CR2",0,0,pre-owned,1250000.0,detached,0,freehold,5 bed detached house for sale,51.334924,-0.083636,284.0,5,2,3,2021-06-15,1250000.0,0,1,1,Chesham,8910,0
13301,13301,Croydon,2021-06-15,Oaks Estate Agents,0,"Ashburton Gardens, Addiscombe, Croydon CR0",0,0,pre-owned,525000.0,semi_detached,0,Other,3 bed semi-detached house for sale,51.376812,-0.075437,90.0,3,1,2,2021-06-15,525000.0,0,0,1,Chesham,7580,2
13302,13302,Croydon,2021-06-14,Acorn - Crystal Palace,0,"Orchard Grove, London SE20",0,0,pre-owned,300000.0,flat,0,leasehold,1 bed flat for sale,51.417378,-0.071432,37.0,1,1,1,2021-06-14,300000.0,0,1,0,Brixton,4876,5
13303,13303,Croydon,2021-06-12,Streets Ahead - New Homes,1,"Beulah Road, Thornton Heath CR7",0,0,new,310000.0,flat,0,leasehold,1 bed flat for sale,51.401624,-0.101827,50.0,1,0,0,2021-06-12,310000.0,1,1,0,Chesham,4636,6
13304,13304,Croydon,2021-06-12,Streets Ahead - New Homes,0,"Beulah Road, Thornton Heath CR7",0,0,pre-owned,330000.0,flat,0,leasehold,2 bed flat for sale,51.401624,-0.101827,60.0,2,0,0,2021-06-12,330000.0,1,1,0,Chesham,4636,6
13305,13305,Croydon,2021-06-12,Streets Ahead - New Homes,1,"Beech Avenue, Sanderstead, South Croydon CR2",0,0,new,370000.0,flat,0,leasehold,2 bed flat for sale,51.343079,-0.095617,69.0,2,0,0,2021-06-12,370000.0,0,1,1,Chesham,8087,0
13306,13306,Croydon,2021-06-11,Acorn - Crystal Palace,0,"Rushden Close, London SE19",0,0,pre-owned,265000.0,flat,0,leasehold,1 bed flat for sale,51.414407,-0.089908,43.0,1,1,1,2021-06-11,265000.0,0,1,0,Brixton,4482,2
13307,13307,Croydon,2021-06-11,Paul OShea Homes,1,"Woodplace Lane, Coulsdon CR5",0,0,pre-owned,1700000.0,detached,0,freehold,4 bed detached house for sale,51.302261,-0.1432,214.0,4,2,2,2021-06-11,1700000.0,0,0,1,Morden,9452,0
13308,13308,Croydon,2021-06-11,Oaks Estate Agents,1,"Vincent Road, Addiscombe, Croydon CR0",0,0,new,275000.0,flat,0,freehold,1 bed flat for sale,51.383389,-0.085523,40.0,1,1,1,2021-06-11,275000.0,1,0,1,Chesham,7050,8
13309,13309,Croydon,2021-06-11,Oaks Estate Agents,1,"Outram Road, Addiscombe, Croydon CR0",0,0,new,395000.0,flat,0,Other,2 bed flat for sale,51.37627,-0.076149,72.0,2,2,1,2021-06-11,395000.0,0,1,1,Chesham,7505,2
13310,13310,Croydon,2021-06-11,Oaks Estate Agents,1,"Outram Road, Addiscombe, Croydon CR0",0,0,new,400000.0,flat,0,Other,2 bed flat for sale,51.37627,-0.076149,82.0,2,2,1,2021-06-11,400000.0,0,1,1,Chesham,7505,2
13311,13311,Croydon,2021-06-10,Bairstow Eves - Norbury Sales,1,"Beulah Hill, London SE19",0,0,new,700000.0,flat,0,leasehold,4 bed flat for sale,51.414087,-0.092898,117.0,4,1,1,2021-06-10,700000.0,1,1,0,Brixton,4370,1
13312,13312,Croydon,2021-06-10,Time 2 Move,0,"Livingstone Road, Thornton Heath CR7",0,0,pre-owned,575000.0,terraced,0,Other,4 bed terraced house for sale,51.4071,-0.091976,116.0,4,2,2,2021-06-10,525000.0,1,0,1,Brixton,5117,0
13313,13313,Croydon,2021-06-10,Pedder - New Homes,1,"Westbrook Road, Upper Norwood, London CR7",0,0,new,535000.0,detached,0,leasehold,2 bed detached house for sale,51.408867,-0.093776,94.0,2,3,1,2021-06-10,535000.0,0,1,1,Brixton,4896,2
13314,13314,Croydon,2021-06-10,Acorn - Crystal Palace,1,"Central Hill, London SE19",0,0,pre-owned,475000.0,flat,0,share_of_freehold,2 bed flat for sale,51.41958,-0.087865,58.0,2,1,1,2021-06-10,475000.0,0,0,0,Brixton,3920,21
13315,13315,Croydon,2021-06-10,Move Revolution,0,"Nihill Place, Croydon CR0",0,0,pre-owned,375000.0,flat,0,Other,2 bed flat for sale,51.380065,-0.080052,74.0,2,2,1,2021-06-10,375000.0,1,0,0,Chesham,7179,6
13316,13316,Croydon,2021-06-10,Mann - Sydenham Sales,1,"Beulah Hill, London SE19",0,0,new,725000.0,flat,0,leasehold,4 bed flat for sale,51.414087,-0.092898,118.0,4,1,1,2021-06-10,725000.0,1,1,0,Brixton,4370,1
13317,13317,Croydon,2021-06-09,Mann - Croydon Sales,1,"Shade Apartments, 29 Beech Avenue, Sanderstead CR2",0,0,new,370000.0,flat,0,leasehold,2 bed flat for sale,51.343079,-0.095617,68.0,2,2,1,2021-06-09,370000.0,0,1,0,Chesham,8087,0
13318,13318,Croydon,2021-06-09,Black & Blanc,1,"Caithness Walk, Croydon CR0",0,0,pre-owned,525000.0,flat,0,leasehold,2 bed flat for sale,51.376842,-0.093659,9.0,2,1,1,2021-06-09,525000.0,1,0,1,Chesham,6891,20
13319,13319,Croydon,2021-06-08,Oaks Estate Agents,0,"Barmouth Road, Croydon CR0",0,0,pre-owned,475000.0,terraced,0,Other,3 bed terraced house for sale,51.373184,-0.050229,101.0,3,1,2,2021-06-08,475000.0,1,0,1,Lewisham,8704,7
13320,13320,Croydon,2021-06-08,Strike,0,"Cabot Close, Croydon CR0",0,0,pre-owned,250000.0,flat,0,leasehold,1 bed flat for sale,51.373191,-0.115895,15.0,1,1,1,2021-06-08,250000.0,1,0,0,Chesham,5279,1
13321,13321,Croydon,2021-06-07,iMove Property,1,"St. Aubyns Road, Crystal Palace SE19",0,0,pre-owned,350000.0,flat,0,leasehold,2 bed flat for sale,51.419071,-0.08035,56.0,2,1,1,2021-06-07,375000.0,0,0,0,Brixton,4199,27
13322,13322,Croydon,2021-06-07,Jacksons Estate Agents - Streatham,1,"Ross Road, London SE25",0,0,pre-owned,2100000.0,detached,0,freehold,7 bed detached house for sale,51.403472,-0.086479,511.0,7,7,5,2021-06-07,2250000.0,1,0,1,Brixton,5414,0
13323,13323,Croydon,2021-06-07,Hamptons - Caterham Sales,0,"Welcomes Road, Kenley, Surrey CR8",0,0,pre-owned,1250000.0,detached,0,freehold,5 bed detached house for sale,51.319823,-0.102766,344.0,5,3,5,2021-06-07,1250000.0,0,1,1,Morden,9208,0
13324,13324,Croydon,2021-06-07,Pegasus Life - Carriages,1,"840 Brighton Road, Purley CR8",1,0,new,495000.0,flat,0,leasehold,2 bed flat for sale,51.34113,-0.112942,89.0,2,2,0,2021-06-07,495000.0,1,1,0,Chesham,7681,11
13325,13325,Croydon,2021-06-07,Pegasus Life - Carriages,1,"840 Brighton Road, Purley CR8",1,0,new,505500.0,flat,0,leasehold,2 bed flat for sale,51.34113,-0.112942,89.0,2,2,0,2021-06-07,505500.0,1,1,0,Chesham,7681,11
13326,13326,Croydon,2021-06-07,Pegasus Life - Carriages,1,"840 Brighton Road, Purley CR8",1,0,new,455000.0,flat,0,leasehold,2 bed flat for sale,51.34113,-0.112942,78.0,2,2,0,2021-06-07,455000.0,1,1,0,Chesham,7681,11
13327,13327,Croydon,2021-06-07,Acorn - Crystal Palace,1,"Moffat Road, Thornton Heath CR7",0,0,pre-owned,400000.0,terraced,0,freehold,3 bed terraced house for sale,51.406759,-0.094109,82.0,3,1,2,2021-06-07,400000.0,1,1,1,Brixton,5034,3
13328,13328,Croydon,2021-06-07,Pegasus Life - Carriages,1,"840 Brighton Road, Purley CR8",1,0,new,340000.0,flat,0,leasehold,1 bed flat for sale,51.34113,-0.112942,61.0,1,1,0,2021-06-07,340000.0,1,1,0,Chesham,7681,11
13329,13329,Croydon,2021-06-05,Stone Real Estate,1,"Coppice Yard, Croydon CR0",0,0,new,565000.0,flat,0,leasehold,3 bed flat for sale,51.39032,-0.09459,95.0,3,2,0,2021-06-05,565000.0,1,0,1,Chesham,5684,5
13330,13330,Croydon,2021-06-05,Stone Real Estate,1,"Coppice Yard, Croydon CR0",0,0,new,540000.0,flat,0,leasehold,3 bed flat for sale,51.39032,-0.09459,95.0,3,2,0,2021-06-05,540000.0,1,0,1,Chesham,5684,5
13331,13331,Croydon,2021-06-05,Stone Real Estate,1,"Coppice Yard, Croydon CR0",0,0,new,445000.0,flat,0,leasehold,2 bed flat for sale,51.39032,-0.09459,74.0,2,2,0,2021-06-05,445000.0,1,0,1,Chesham,5684,5
13332,13332,Croydon,2021-06-05,Stone Real Estate,1,"Coppice Yard, Croydon CR0",0,0,new,360000.0,flat,0,leasehold,1 bed flat for sale,51.39032,-0.09459,52.0,1,1,0,2021-06-05,360000.0,1,0,1,Chesham,5684,5
13333,13333,Croydon,2021-06-05,Stone Real Estate,1,"Coppice Yard, Croydon CR0",0,0,new,335000.0,flat,0,leasehold,1 bed flat for sale,51.39032,-0.09459,44.0,1,1,0,2021-06-05,335000.0,1,0,1,Chesham,5684,5
13334,13334,Croydon,2021-06-04,Oaks Estate Agents,1,"Enmore Road, London SE25",0,0,new,325000.0,flat,0,Other,1 bed flat for sale,51.392933,-0.06753,57.0,1,1,1,2021-06-04,325000.0,0,1,0,Brixton,6629,1
13335,13335,Croydon,2021-06-04,London Property Zone,1,"Wellesley Road, Croydon CR0",0,0,pre-owned,220000.0,studio,0,leasehold,Studio for sale,51.378825,-0.099479,31.0,0,1,0,2021-06-04,250000.0,1,0,0,Tooting Bec,6034,16
13336,13336,Croydon,2021-06-03,"Purplebricks, Head Office",0,"Hilldown Road, London SW16",0,0,pre-owned,500000.0,flat,0,leasehold,2 bed flat for sale,51.417449,-0.124614,80.0,2,1,0,2021-06-03,500000.0,0,0,1,Chesham,2713,7
13337,13337,Croydon,2021-06-03,Time 2 Move,0,"Bigginwood Road, London SW16",0,0,pre-owned,625000.0,semi_detached,0,freehold,3 bed semi-detached house for sale,51.4136,-0.10896,105.0,3,2,2,2021-06-03,625000.0,0,0,1,Chesham,3834,0
13338,13338,Croydon,2021-06-03,Barnard Marcus - South Croydon,1,"Addington Road, Selsdon, South Croydon CR2",0,0,new,450000.0,terraced,0,freehold,2 bed terraced house for sale,51.344059,-0.062149,88.0,2,1,1,2021-06-03,450000.0,1,0,0,Brixton,10954,3
13339,13339,Croydon,2021-06-03,Oaks Estate Agents,0,"Longheath Gardens, Croydon CR0",0,0,pre-owned,230000.0,maisonette,0,leasehold,2 bed maisonette for sale,51.393143,-0.054196,68.0,2,1,1,2021-06-03,230000.0,1,0,0,Lewisham,7183,0
13340,13340,Croydon,2021-06-03,"Doorsteps.co.uk, National",1,"Merebank Lane, Croydon CR0",0,0,pre-owned,285000.0,flat,0,leasehold,2 bed flat for sale,51.363781,-0.121305,6.0,2,2,1,2021-06-03,285000.0,0,1,0,Colliers Wood,6092,0
13341,13341,Croydon,2021-06-02,Oaks Estate Agents,0,"Sangley Road, London SE25",0,0,pre-owned,270000.0,flat,0,leasehold,1 bed flat for sale,51.39867,-0.083347,48.0,1,1,1,2021-06-02,270000.0,0,0,0,Brixton,5904,2
13342,13342,Croydon,2021-06-01,Oaks Estate Agents,0,"Addiscombe Court Road, Addiscombe, Croydon CR0",0,0,pre-owned,500000.0,end_terrace,0,Other,3 bed end terrace house for sale,51.376328,-0.084122,97.0,3,1,3,2021-06-01,500000.0,1,0,1,Chesham,7240,8
13343,13343,Croydon,2021-06-01,Streets Ahead - New Homes,1,"Radcliffe Road, The Whitgift Foundation, East Croydon CR0",0,0,new,824950.0,terraced,0,freehold,4 bed terraced house for sale,51.373591,-0.079049,73.0,4,0,0,2021-06-01,824950.0,0,0,1,Chesham,7590,1
13344,13344,Croydon,2021-06-01,Streets Ahead - New Homes,1,"Radcliffe Road, The Whitgift Foundation, East Croydon CR0",0,0,new,799950.0,end_terrace,0,freehold,4 bed end terrace house for sale,51.373591,-0.079049,73.0,4,0,0,2021-06-01,799950.0,0,0,1,Chesham,7590,1
13345,13345,Croydon,2021-06-01,Maxwell Properties,1,"Tennyson Apartments, Saffron Central Square, Croydon CR0",0,0,pre-owned,350000.0,flat,0,leasehold,2 bed flat for sale,51.379451,-0.099362,70.0,2,1,1,2021-06-01,350000.0,0,0,0,Tooting Bec,6087,15
13346,13346,Croydon,2021-06-01,Clipper Residential,0,"Waddon House, Stafford Road, Croydon CR0",0,0,pre-owned,230000.0,flat,0,Other,1 bed flat for sale,51.362008,-0.121655,43.0,1,1,1,2021-06-01,230000.0,0,0,0,Colliers Wood,6065,0
13347,13347,Croydon,2021-06-01,London Property Zone,1,"Wellesley Road, Croydon CR0",0,0,new,220000.0,studio,0,leasehold,Studio for sale,51.378825,-0.099479,31.0,0,1,0,2021-06-01,250000.0,1,0,0,Tooting Bec,6034,16
13348,13348,Croydon,2021-05-30,Frost,1,"Foxley Lane, Purley CR8",1,0,pre-owned,220000.0,Other,0,leasehold,1 bed property for sale,51.339764,-0.119875,54.0,1,1,1,2021-05-30,220000.0,0,0,1,Chesham,7202,11
13349,13349,Croydon,2021-05-29,London Property Zone,1,"Cherry Orchard Road, Croydon CR0",0,0,new,425000.0,flat,0,leasehold,2 bed flat for sale,51.377899,-0.09173,71.0,2,2,0,2021-05-29,425000.0,1,0,0,Chesham,6981,16
13350,13350,Croydon,2021-05-29,London Property Zone,1,"Saffron Central Square, Croydon CR0",0,0,new,300000.0,flat,0,leasehold,1 bed flat for sale,51.379185,-0.099493,44.0,1,1,0,2021-05-29,300000.0,1,0,0,Tooting Bec,6062,14
13351,13351,Croydon,2021-05-29,Oaks Estate Agents,0,"Baring Road, Addiscombe, Croydon CR0",0,0,pre-owned,500000.0,terraced,0,freehold,3 bed terraced house for sale,51.380508,-0.069936,100.0,3,1,2,2021-05-29,500000.0,0,1,1,Brixton,7621,4
13352,13352,Croydon,2021-05-28,Residenza Properties Tooting Ltd,1,"Trafford Road, Thornton Heath CR7",0,0,pre-owned,575000.0,terraced,0,freehold,4 bed terraced house for sale,51.394471,-0.11943,137.0,4,2,2,2021-05-28,575000.0,1,1,1,Chesham,4216,3
13353,13353,Croydon,2021-05-28,Oaks Estate Agents,0,"Davidson Road, Addiscombe, Croydon CR0",0,0,pre-owned,325000.0,flat,0,Other,2 bed flat for sale,51.384159,-0.086913,76.0,2,1,1,2021-05-28,325000.0,0,0,0,Chesham,6982,6
13354,13354,Croydon,2021-05-28,Nested Ltd,0,"Anerley Road, Crystal Palace, London SE19",0,0,pre-owned,275000.0,flat,0,leasehold,1 bed flat for sale,51.416397,-0.072495,47.0,1,1,1,2021-05-28,275000.0,0,0,0,Brixton,4601,9
13355,13355,Croydon,2021-05-27,Hamptons - Caterham Sales,0,"Park Road, Kenley CR8",0,0,pre-owned,1000000.0,semi_detached,0,freehold,4 bed semi-detached house for sale,51.322392,-0.105889,195.0,4,4,3,2021-05-27,1000000.0,1,1,1,Morden,8955,3
13356,13356,Croydon,2021-05-27,Oaks Estate Agents,0,"Holland Road, London SE25",0,0,pre-owned,375000.0,terraced,0,Other,2 bed terraced house for sale,51.394695,-0.068117,78.0,2,1,2,2021-05-27,375000.0,0,0,1,Brixton,6393,1
13357,13357,Croydon,2021-05-26,Neighbour Estate Agents,1,"Selhurst Road, Selhurst SE25",0,0,pre-owned,250000.0,flat,0,Other,1 bed flat for sale,51.389828,-0.088999,42.0,1,1,1,2021-05-26,250000.0,0,0,0,Chesham,5926,3
13358,13358,Croydon,2021-05-26,Oaks Estate Agents,0,"Albert Road, London SE25",0,0,pre-owned,335000.0,flat,0,freehold,2 bed flat for sale,51.398148,-0.067555,75.0,2,1,1,2021-05-26,335000.0,0,1,1,Brixton,6286,3
13359,13359,Croydon,2021-05-26,Oaks Estate Agents,1,"Russell Hill, Purley CR8",0,0,new,425000.0,flat,0,Other,2 bed flat for sale,51.339176,-0.114457,68.0,2,1,1,2021-05-26,425000.0,1,0,0,Chesham,7601,11
13360,13360,Croydon,2021-05-26,Barnard Marcus - Croydon,1,"Ashburton Avenue, Croydon CR0",0,0,pre-owned,550000.0,terraced,0,freehold,3 bed terraced house for sale,51.379517,-0.064805,167.0,3,1,2,2021-05-26,550000.0,1,0,0,Brixton,7779,3
13361,13361,Croydon,2021-05-25,Acorn - Crystal Palace,1,"Chevening Road, London SE19",0,0,pre-owned,349000.0,flat,0,leasehold,2 bed flat for sale,51.417502,-0.089477,56.0,2,1,1,2021-05-25,349000.0,0,1,0,Brixton,4185,11
13362,13362,Croydon,2021-05-24,Countrywide Residential Development - Croydon,1,"Shade Apartments, 29 Beech Avenue, Sanderstead CR2",0,0,new,370000.0,flat,0,leasehold,2 bed flat for sale,51.343079,-0.095617,68.0,2,2,1,2021-05-24,375000.0,0,1,0,Chesham,8087,0
13363,13363,Croydon,2021-05-24,Bairstow Eves - Purley Sales,1,"Athena House, 7A Edgehill Road, Purley, Surrey CR8",0,0,new,415000.0,flat,0,leasehold,2 bed flat for sale,51.346344,-0.110057,63.0,2,2,1,2021-05-24,415000.0,1,1,1,Colliers Wood,7538,0
13364,13364,Croydon,2021-05-24,Urban Moves,0,"Tennyson Apartments, 1 Saffron Central Square, Croydon CR0",0,1,pre-owned,67500.0,flat,0,Other,1 bed flat for sale,51.379185,-0.099493,47.0,1,0,0,2021-05-24,67500.0,1,1,0,Tooting Bec,6062,14
13365,13365,Croydon,2021-05-24,Oaks Estate Agents,0,"Green Acres, Croydon CR0",0,0,pre-owned,230000.0,flat,0,freehold,1 bed flat for sale,51.370197,-0.081734,43.0,1,1,1,2021-05-24,250000.0,0,1,0,Chesham,7752,0
13366,13366,Croydon,2021-05-24,Countrywide Residential Development - Croydon,1,"Athena House, 7A Edgehill Road, Purley, Surrey CR8",0,0,new,485000.0,flat,0,leasehold,2 bed flat for sale,51.346344,-0.110057,77.0,2,2,1,2021-05-24,485000.0,1,1,1,Colliers Wood,7538,0
13367,13367,Croydon,2021-05-23,London Property Zone,1,"Saffron Central Square, Croydon CR0",0,0,pre-owned,300000.0,flat,0,leasehold,1 bed flat for sale,51.379185,-0.099493,44.0,1,1,0,2021-05-23,300000.0,1,0,0,Tooting Bec,6062,14
13368,13368,Croydon,2021-05-21,Truuli,0,"Spa Hill, London SE19",0,0,pre-owned,550000.0,end_terrace,0,freehold,4 bed end terrace house for sale,51.410231,-0.094698,93.0,4,2,1,2021-05-21,550000.0,1,1,1,Brixton,4714,2
13369,13369,Croydon,2021-05-21,Paul OShea Homes,1,"Maraschino, Cherry Orchard Road CR0",0,0,pre-owned,320000.0,flat,0,leasehold,1 bed flat for sale,51.378277,-0.091042,54.0,1,1,1,2021-05-21,320000.0,1,0,0,Chesham,6891,15
13370,13370,Croydon,2021-05-21,Oaks Estate Agents,1,"Belgrave Road, London SE25",0,0,pre-owned,200000.0,flat,0,leasehold,1 bed flat for sale,51.398453,-0.075089,44.0,1,1,1,2021-05-21,200000.0,0,1,0,Brixton,5964,4
13371,13371,Croydon,2021-05-20,Winkworth - Crystal Palace,0,"Priory Crescent, Crystal Palace, London SE19",0,0,pre-owned,365000.0,flat,0,leasehold,3 bed flat for sale,51.415716,-0.096325,74.0,3,1,1,2021-05-20,365000.0,0,1,0,Brixton,4160,1
13372,13372,Croydon,2021-05-20,Martin & Co Croydon,0,"Whitestone Way, Croydon CR0",0,0,pre-owned,290000.0,flat,0,Other,2 bed flat for sale,51.373678,-0.11562,60.0,2,2,1,2021-05-20,290000.0,1,0,1,Chesham,5196,1
13373,13373,Croydon,2021-05-20,Shinerocks,0,"Chertsey Close, Kenley, Surrey CR8",0,0,pre-owned,650000.0,semi_detached_bungalow,0,freehold,4 bed semi-detached bungalow for sale,51.320179,-0.108873,107.0,4,2,2,2021-05-20,650000.0,0,1,1,Morden,9268,0
13374,13374,Croydon,2021-05-20,Countrywide Residential Development - Croydon,1,"Beaufort Court, 31 Russell Hill, Purley, Surrey CR8",0,0,new,425000.0,flat,0,leasehold,2 bed flat for sale,51.34124,-0.121509,71.0,2,1,1,2021-05-20,425000.0,1,0,1,Chesham,7068,11
13375,13375,Croydon,2021-05-20,Acorn - Crystal Palace,0,"Stroud Road, Woodside, Croydon SE25",0,0,pre-owned,475000.0,semi_detached,0,freehold,3 bed semi-detached house for sale,51.38647,-0.068751,104.0,3,1,1,2021-05-20,480000.0,0,1,1,Brixton,7064,3
13376,13376,Croydon,2021-05-20,Shinerocks,0,"Onslow Gardens, South Croydon, Surrey CR2",0,0,pre-owned,750000.0,detached,0,freehold,3 bed detached house for sale,51.33313,-0.071867,175.0,3,1,3,2021-05-20,750000.0,0,0,1,Tooting Broadway,9598,0
13377,13377,Croydon,2021-05-19,The Agents Network,1,"Mayfield Road, Sanderstead, South Croydon CR2",0,0,pre-owned,300000.0,flat,0,leasehold,2 bed flat for sale,51.348232,-0.092302,67.0,2,1,1,2021-05-19,325000.0,0,0,0,Chesham,7666,5
13378,13378,Croydon,2021-05-18,Jacksons Estate Agents - Streatham,0,"Fontaine Road, London SW16",0,0,pre-owned,800000.0,Other,0,Other,4 bed property for sale,51.417146,-0.122377,139.0,4,0,0,2021-05-18,800000.0,0,0,1,Chesham,2880,6
13379,13379,Croydon,2021-05-18,Jacksons Estate Agents - Streatham,0,"Fontaine Road, London SW16",0,0,pre-owned,1200000.0,semi_detached,0,freehold,4 bed semi-detached house for sale,51.418038,-0.123292,232.0,4,1,3,2021-05-18,1200000.0,0,0,1,Chesham,2792,7
13380,13380,Croydon,2021-05-18,UK Property Sellers,1,"St James Court, St James's Road, Croydon CR0",0,0,pre-owned,250000.0,flat,0,leasehold,2 bed flat for sale,51.384057,-0.106003,67.0,2,1,1,2021-05-18,250000.0,0,1,0,Tooting Bec,5482,13
13381,13381,Croydon,2021-05-18,"Purplebricks, Head Office",1,"Waldegrave Road, Crystal Palace SE19",0,0,pre-owned,650000.0,maisonette,0,freehold,3 bed maisonette for sale,51.415874,-0.074084,125.0,3,1,2,2021-05-18,650000.0,1,0,1,Brixton,4736,15
13382,13382,Croydon,2021-05-18,Chase Evans Greenwich,0,"Waterhouse Apartments, Saffron Square, Croydon CR0",0,0,pre-owned,290000.0,flat,0,leasehold,1 bed flat for sale,51.379682,-0.099099,43.0,1,1,1,2021-05-18,310000.0,1,0,0,Tooting Bec,6058,14
13383,13383,Croydon,2021-05-17,Move Revolution,1,"Leaden Hill, Coulsdon CR5",0,0,pre-owned,425000.0,flat,0,Other,2 bed flat for sale,51.321838,-0.134097,77.0,2,2,1,2021-05-17,425000.0,1,1,0,Morden,7950,12
13384,13384,Croydon,2021-05-17,Townends - Croydon,1,"St. James's Road, Croydon CR0",0,0,pre-owned,200000.0,flat,0,share_of_freehold,1 bed flat for sale,51.383397,-0.101677,46.0,1,1,1,2021-05-17,220000.0,0,0,1,Chesham,5639,11
13385,13385,Croydon,2021-05-14,Winkworth - Crystal Palace,1,"Church Road, Crystal Palace, London SE19",0,0,pre-owned,400000.0,flat,0,share_of_freehold,2 bed flat for sale,51.413308,-0.08482,62.0,2,1,1,2021-05-14,415000.0,0,1,1,Brixton,4580,4
13386,13386,Croydon,2021-05-14,Streets Ahead - Crystal Palace,0,"St Valery, 54, Beulah Hill, Upper Norwood SE19",0,0,pre-owned,475000.0,flat,0,share_of_freehold,2 bed flat for sale,51.415321,-0.093062,93.0,2,0,0,2021-05-14,500000.0,0,1,1,Brixton,4542,1
13387,13387,Croydon,2021-05-14,iMove Property,0,"Beaumont Road, London SE19",0,0,pre-owned,900000.0,semi_detached,0,freehold,5 bed semi-detached house for sale,51.419293,-0.101713,187.0,5,2,0,2021-05-14,900000.0,0,1,1,Brixton,3718,2
13388,13388,Croydon,2021-05-13,Streets Ahead - Purley,1,"Russell Hill, Purley CR8",0,0,new,425000.0,flat,0,leasehold,2 bed flat for sale,51.34124,-0.121509,71.0,2,0,0,2021-05-13,450000.0,1,0,1,Chesham,7068,11
13389,13389,Croydon,2021-05-13,Hyde and Rowe Limited,1,"Flat 3, Birdhurst Rise, Surrey CR2",0,0,pre-owned,375000.0,flat,0,leasehold,2 bed flat for sale,51.361954,-0.089491,102.0,2,1,1,2021-05-13,375000.0,0,0,0,Chesham,7181,4
13390,13390,Croydon,2021-05-13,Winkworth - Crystal Palace,0,"Mcrae House, 234 South Norwood Hill, London SE25",0,0,pre-owned,320000.0,flat,0,share_of_freehold,2 bed flat for sale,51.406338,-0.083702,62.0,2,1,1,2021-05-13,335000.0,1,1,1,Brixton,5183,0
13391,13391,Croydon,2021-05-13,Oaks Estate Agents,0,"Moreton Road, South Croydon CR2",0,0,pre-owned,300000.0,flat,0,Other,2 bed flat for sale,51.361198,-0.092237,54.0,2,1,1,2021-05-13,315000.0,1,1,0,Tooting Broadway,7149,16
13392,13392,Croydon,2021-05-13,"Purplebricks, Head Office",0,"Dickenswood Close, London SE19",0,0,pre-owned,1250000.0,detached,0,freehold,5 bed detached house for sale,51.417826,-0.103342,279.0,5,2,3,2021-05-13,1250000.0,0,0,1,Brixton,3844,1
13393,13393,Croydon,2021-05-12,Oaks Estate Agents,0,"Dartnell Road, Addiscombe, Croydon CR0",0,0,pre-owned,475000.0,end_terrace,0,Other,3 bed end terrace house for sale,51.384296,-0.080426,130.0,3,1,2,2021-05-12,475000.0,1,0,1,Chesham,7283,4
13394,13394,Croydon,2021-05-12,Legal & General Affordable Homes - Leon House,1,"High Street, Croydon CR0",0,1,new,309375.0,flat,0,leasehold,2 bed flat for sale,51.369024,-0.099063,71.0,2,2,0,2021-05-12,309375.0,0,0,1,Tooting Broadway,6340,45
13395,13395,Croydon,2021-05-12,Legal & General Affordable Homes - Leon House,1,"High Street, Croydon CR0",0,1,new,309375.0,flat,0,leasehold,2 bed flat for sale,51.369024,-0.099063,71.0,2,2,0,2021-05-12,309375.0,0,0,1,Tooting Broadway,6340,45
13396,13396,Croydon,2021-05-12,Legal & General Affordable Homes - Leon House,1,"High Street, Croydon CR0",0,1,new,311250.0,flat,0,leasehold,2 bed flat for sale,51.369024,-0.099063,72.0,2,2,0,2021-05-12,311250.0,0,0,1,Tooting Broadway,6340,45
13397,13397,Croydon,2021-05-11,Appleton Estates,0,"Warham Road, South Croydon CR2",0,0,pre-owned,290000.0,flat,0,leasehold,1 bed flat for sale,51.362195,-0.10488,62.0,1,1,1,2021-05-11,300000.0,0,1,0,Chesham,6413,18
13398,13398,Croydon,2021-05-11,Oaks Estate Agents,0,"Queenswood Avenue, Thornton Heath CR7",0,0,pre-owned,475000.0,terraced,0,Other,4 bed terraced house for sale,51.392776,-0.111364,111.0,4,2,2,2021-05-11,475000.0,0,0,1,Tooting Bec,4654,3
13399,13399,Croydon,2021-05-11,Townends - Croydon,0,"Rectory Grove, Croydon CR0",0,0,pre-owned,675000.0,detached,0,freehold,6 bed detached house for sale,51.373412,-0.107825,177.0,6,2,3,2021-05-11,700000.0,0,1,1,Tooting Broadway,5807,13
13400,13400,Croydon,2021-05-11,Dockley's,1,"The Harris, Croydon CR0",0,0,new,515000.0,flat,0,Other,2 bed flat for sale,51.367684,-0.105662,81.0,2,1,1,2021-05-11,515000.0,1,1,0,Tooting Broadway,6259,39
13401,13401,Croydon,2021-05-11,"Purplebricks, Head Office",1,"698 London Road, Croydon CR0",0,0,new,400000.0,flat,0,leasehold,2 bed flat for sale,51.390222,-0.13208,83.0,2,3,1,2021-05-11,400000.0,1,1,0,Chesham,3520,0
13402,13402,Croydon,2021-05-11,"Purplebricks, Head Office",1,"698 London Road, Croydon CR0",0,0,new,375000.0,flat,0,leasehold,2 bed flat for sale,51.390222,-0.13208,83.0,2,2,1,2021-05-11,375000.0,1,1,1,Chesham,3520,0
13403,13403,Croydon,2021-05-10,Trevlyn Properties Ltd,1,"Green Lane, Purley CR8",0,0,new,465000.0,flat,0,leasehold,2 bed flat for sale,51.343275,-0.13913,71.0,2,2,1,2021-05-10,465000.0,0,1,1,Morden,6336,0
13404,13404,Croydon,2021-05-07,Streets Ahead - Croydon,0,"Whitehorse Road, Croydon CR0",0,0,pre-owned,290000.0,flat,0,leasehold,2 bed flat for sale,51.38351,-0.097805,93.0,2,0,0,2021-05-07,290000.0,0,1,0,Balham,6251,7
13405,13405,Croydon,2021-05-07,Brick By Brick - Oxford Road,1,"Oxford Rd, London SE19",0,0,new,447000.0,flat,0,leasehold,2 bed flat for sale,51.420917,-0.091549,70.0,2,1,0,2021-05-07,447000.0,0,0,0,Brixton,3792,1
13406,13406,Croydon,2021-05-07,Brick By Brick - Oxford Road,1,"Oxford Rd, London SE19",0,0,new,426500.0,flat,0,leasehold,2 bed flat for sale,51.420917,-0.091549,63.0,2,1,0,2021-05-07,426500.0,0,0,1,Brixton,3792,1
13407,13407,Croydon,2021-05-07,Drummonds Property,0,"High Street, Thornton Heath CR7",0,0,pre-owned,195000.0,flat,0,Other,1 bed flat for sale,51.398635,-0.095496,50.0,1,1,1,2021-05-07,195000.0,0,0,0,Chesham,5117,4
13408,13408,Croydon,2021-05-07,Oaks Estate Agents,1,"Trafford Road, Thornton Heath CR7",0,0,pre-owned,325000.0,flat,0,leasehold,2 bed flat for sale,51.39447,-0.11943,52.0,2,1,1,2021-05-07,325000.0,0,0,1,Chesham,4216,3
13409,13409,Croydon,2021-05-07,Oaks Estate Agents,1,"The Waldrons, Croydon CR0",0,0,new,430000.0,flat,0,leasehold,2 bed flat for sale,51.3689611472392,-0.119140337423313,67.0,2,1,1,2021-05-07,430000.0,1,1,0,Chesham,5552,1
13410,13410,Croydon,2021-05-07,Folklands,1,"Coombe Road, Croydon CR0",0,0,pre-owned,1000000.0,detached,0,freehold,6 bed detached house for sale,51.36442,-0.083391,242.0,6,1,3,2021-05-07,1100000.0,0,1,1,Chesham,7846,0
13411,13411,Croydon,2021-05-06,Martin & Co Croydon,1,"Edridge Road, Croydon CR0",0,0,pre-owned,490000.0,terraced,0,Other,3 bed terraced house for sale,51.367599,-0.097927,76.0,3,1,2,2021-05-06,500000.0,0,1,1,Tooting Broadway,6494,40
13412,13412,Croydon,2021-05-06,Truuli,1,"Owen Close, Croydon CR0",0,0,pre-owned,500000.0,semi_detached,0,freehold,4 bed semi-detached house for sale,51.387924,-0.090493,121.0,4,2,1,2021-05-06,550000.0,0,0,1,Chesham,6018,2
13413,13413,Croydon,2021-05-06,Strike,0,"Park Lane, Croydon CR0",0,0,pre-owned,250000.0,flat,0,leasehold,1 bed flat for sale,51.373957,-0.096908,42.0,1,1,1,2021-05-06,260000.0,0,0,0,Tooting Bec,6354,31
13414,13414,Croydon,2021-05-06,iMove Property,1,"Westow Street, London SE19",0,0,pre-owned,275000.0,flat,0,leasehold,1 bed flat for sale,51.417883,-0.081953,54.0,1,1,0,2021-05-06,285000.0,0,0,0,Brixton,4171,26
13415,13415,Croydon,2021-05-06,Oaks Estate Agents,1,"The Waldrons, Croydon CR0",0,0,new,427500.0,flat,0,leasehold,2 bed flat for sale,51.3689611472392,-0.119140337423313,73.0,2,2,1,2021-05-06,427500.0,1,1,0,Chesham,5552,1
13416,13416,Croydon,2021-05-05,Strike,1,"Crown Hill, Church Street, Croydon CR0",0,0,pre-owned,204000.0,flat,0,leasehold,1 bed flat for sale,51.372989,-0.106294,59.0,1,1,1,2021-05-05,220000.0,0,0,0,Tooting Broadway,5828,23
13417,13417,Croydon,2021-05-05,Winkworth - Crystal Palace,1,"Maberley Road, Crystal Palace, London SE19",0,0,pre-owned,280000.0,flat,0,leasehold,1 bed flat for sale,51.411044,-0.074575,46.0,1,1,1,2021-05-05,315000.0,0,0,1,Brixton,4975,1
13418,13418,Croydon,2021-05-05,Winkworth - Crystal Palace,1,"Waddington Way, Crystal Palace, London SE19",0,0,pre-owned,550000.0,semi_detached,0,freehold,3 bed semi-detached house for sale,51.413947,-0.098153,105.0,3,1,2,2021-05-05,550000.0,1,1,1,Brixton,4367,1
13419,13419,Croydon,2021-05-05,Shinerocks,0,"Avondale Road, South Croydon, Surrey CR2",0,0,pre-owned,700000.0,town_house,0,freehold,4 bed town house for sale,51.357194,-0.100067,224.0,4,3,3,2021-05-05,700000.0,1,1,1,Chesham,6925,3
13420,13420,Croydon,2021-05-04,Fine & Country - Woldingham,0,"How Lane, Chipstead, Coulsdon, Surrey CR5",0,0,pre-owned,2400000.0,detached,0,freehold,7 bed detached house for sale,51.310301,-0.161045,465.0,7,4,5,2021-05-04,2400000.0,1,0,1,Morden,8529,0
13421,13421,Croydon,2021-04-30,Streets Ahead - Purley,0,"Manor Wood Road, Purley CR8",0,0,pre-owned,950000.0,detached,0,freehold,5 bed detached house for sale,51.333445,-0.129465,186.0,5,0,0,2021-04-30,1050000.0,0,1,1,Morden,7443,2
13422,13422,Croydon,2021-04-30,Oaks Estate Agents,1,"London Road, Thornton Heath CR7",0,0,pre-owned,210000.0,flat,0,leasehold,1 bed flat for sale,51.395096,-0.115293,48.0,1,1,1,2021-04-30,210000.0,1,0,0,Tooting Bec,4316,3
13423,13423,Croydon,2021-04-29,Strike,0,"Addiscombe Road, Croydon CR0",0,0,pre-owned,190000.0,studio,0,leasehold,Studio for sale,51.374886,-0.084007,36.0,1,1,1,2021-04-29,200000.0,0,1,1,Chesham,7393,4
13424,13424,Croydon,2021-04-29,Pedder - Crystal Palace,1,"Tudor Road, London SE19",0,0,pre-owned,500000.0,flat,0,freehold,3 bed flat for sale,51.41623,-0.080383,96.0,3,1,1,2021-04-29,500000.0,0,0,1,Brixton,4418,27
13425,13425,Croydon,2021-04-29,"Purplebricks, Head Office",1,"698 London Road, Croydon CR0",0,0,new,400000.0,flat,0,leasehold,2 bed flat for sale,51.390222,-0.13208,83.0,2,3,1,2021-04-29,400000.0,1,1,0,Chesham,3520,0
13426,13426,Croydon,2021-04-29,London Property Zone,1,"Cherry Orchard Road, Croydon CR0",0,0,new,424950.0,flat,0,leasehold,2 bed flat for sale,51.377899,-0.09173,71.0,2,2,0,2021-04-29,425000.0,1,0,0,Chesham,6981,16
13427,13427,Croydon,2021-04-28,Keller Williams London Bridge,0,"Solent Court, London Road SW16",0,0,pre-owned,350000.0,flat,0,leasehold,2 bed flat for sale,51.405489,-0.119556,105.0,2,2,1,2021-04-28,350000.0,0,1,1,Chesham,3510,3
13428,13428,Croydon,2021-04-27,Oaks Estate Agents,0,"Dagnall Park, London SE25",0,0,pre-owned,395000.0,flat,0,Other,2 bed flat for sale,51.390293,-0.089619,66.0,2,2,1,2021-04-27,395000.0,1,0,0,Chesham,5874,4
13429,13429,Croydon,2021-04-26,Fine & Country - Woldingham,0,"Welcomes Road, Kenley, Surrey CR8",0,0,pre-owned,1995000.0,detached,0,Other,5 bed detached house for sale,51.309914,-0.099218,451.0,5,5,5,2021-04-26,1995000.0,1,1,1,Morden,10023,1
13430,13430,Croydon,2021-04-26,Peabody,0,"Lennard Road, Croydon CR0",0,1,pre-owned,94500.0,maisonette,0,leasehold,1 bed maisonette for sale,51.380896,-0.102438,5.0,1,1,0,2021-04-26,94500.0,1,0,1,Tooting Bec,5798,17
13431,13431,Croydon,2021-04-26,London Property Zone,1,"Cherry Orchard Road, Croydon CR0",0,0,pre-owned,425000.0,flat,0,leasehold,2 bed flat for sale,51.377899,-0.09173,71.0,2,2,0,2021-04-26,425000.0,1,0,0,Chesham,6981,16
13432,13432,Croydon,2021-04-26,London Property Zone,1,"Saffron Central Square, Croydon CR0",0,0,new,300000.0,flat,0,leasehold,1 bed flat for sale,51.379185,-0.099493,44.0,1,1,0,2021-04-26,300000.0,1,0,0,Tooting Bec,6062,14
13433,13433,Croydon,2021-04-23,Streets Ahead - Coulsdon,0,"Chipstead Valley Road, Coulsdon CR5",0,0,pre-owned,375000.0,flat,0,leasehold,2 bed flat for sale,51.318851,-0.149346,10.0,2,0,0,2021-04-23,375000.0,1,1,0,Morden,8280,1
13434,13434,Croydon,2021-04-22,Martin & Co Croydon,0,"Selsdon Road, South Croydon, Surrey CR2",0,0,pre-owned,220000.0,flat,0,Other,1 bed flat for sale,51.3577,-0.095466,41.0,1,1,1,2021-04-22,230000.0,0,0,1,Tooting Broadway,7219,3
13435,13435,Croydon,2021-04-22,London Property Zone,1,"Cherry Orchard Road, Croydon CR0",0,0,new,425000.0,flat,0,leasehold,2 bed flat for sale,51.377899,-0.09173,71.0,2,2,0,2021-04-22,425000.0,1,0,0,Chesham,6981,16
