,index,Borough,date_listed,agency_name,chain_free,address,isRetirementHome,isSharedOwnership,listingCondition,price,propertyType,isAuction,tenure,title,latitude,longitude,floor_area_msq,numBedrooms,numBathrooms,numLivingRooms,firstPublishedDate,firstPublishedPrice,balcony_terrace,parking,garden,closest_station_name,closest_station_distance_sec,pub_restaurant
18000,18000,Richmond upon Thames,2021-04-06,James Anderson Estate Agents,1,"Colston Road, East Sheen SW14",0,0,pre-owned,550000.0,flat,0,Other,3 bed flat for sale,51.463871,-0.269504,93.0,3,1,1,2021-04-06,550000.0,1,0,0,Kew Gardens,1615,17
18001,18001,Richmond upon Thames,2021-04-06,Chase Buchanan incorporating Milestone,0,"Station Road, Hampton Wick, Kingston Upon Thames KT1",0,0,pre-owned,1230000.0,semi_detached,0,Other,4 bed semi-detached house for sale,51.414653,-0.311538,177.0,4,2,2,2021-04-06,1275000.0,1,0,1,Richmond,5044,17
18002,18002,Richmond upon Thames,2021-04-04,Mervyn Smith Estate Agents,1,"Ashburnham Road, Ham, Richmond TW10",0,0,pre-owned,349950.0,maisonette,0,leasehold,2 bed maisonette for sale,51.436191,-0.320444,73.0,2,1,1,2021-04-04,385000.0,1,0,1,Richmond,3143,0
18003,18003,Richmond upon Thames,2021-04-02,Chancellors - Sunbury-on-Thames,0,"Whitton, Middlesex TW4",0,0,pre-owned,240000.0,flat,0,leasehold,2 bed flat for sale,51.451,-0.376,71.0,2,1,1,2021-04-02,260000.0,0,1,0,Hounslow Central,2032,1
18004,18004,Richmond upon Thames,2021-04-02,Knight Frank - Richmond Sales,0,"Kew Green, Richmond TW9",0,0,pre-owned,1240000.0,terraced,0,Other,4 bed terraced house for sale,51.483075,-0.287247,131.0,4,2,3,2021-04-02,1295000.0,0,0,1,Kew Gardens,654,11
18005,18005,Richmond upon Thames,2021-04-02,Knight Frank - Richmond Sales,0,"Gould Road, Twickenham TW2",0,0,pre-owned,875000.0,Other,0,Other,2 bed property for sale,51.446909,-0.343881,165.0,2,2,1,2021-04-02,875000.0,1,1,1,Upminster,2907,6
18006,18006,Richmond upon Thames,2021-04-01,Snellers - Hampton,0,"Station Road, Hampton TW12",0,0,pre-owned,399950.0,flat,0,leasehold,1 bed flat for sale,51.414978,-0.366202,93.0,1,1,1,2021-04-01,399950.0,0,0,0,Hounslow Central,5365,9
18007,18007,Richmond upon Thames,2021-04-01,Snellers - Teddington,0,"Queens Road, Teddington TW11",0,0,pre-owned,549950.0,flat,0,share_of_freehold,2 bed flat for sale,51.425564,-0.340096,84.0,2,1,1,2021-04-01,599950.0,0,1,0,Upminster,4423,12
18008,18008,Richmond upon Thames,2021-04-01,Dexters - St Margarets,0,"Cole Park Road, Twickenham TW1",0,0,pre-owned,1995000.0,detached,0,freehold,5 bed detached house for sale,51.457427,-0.329509,279.0,5,3,2,2021-04-01,1995000.0,0,1,1,Richmond,1909,3
18009,18009,Richmond upon Thames,2021-04-01,Savills - Richmond,0,"Richmond Hill, Richmond, Surrey TW10",0,0,pre-owned,2325000.0,maisonette,0,leasehold,3 bed maisonette for sale,51.452203,-0.298291,201.0,3,3,3,2021-04-01,2495000.0,0,0,1,Richmond,1167,8
18010,18010,Richmond upon Thames,2021-04-01,Snellers - Teddington,0,"Broom Park, Teddington TW11",0,0,pre-owned,849950.0,terraced,0,freehold,4 bed terraced house for sale,51.419541,-0.309039,139.0,4,2,1,2021-04-01,929950.0,0,0,1,Richmond,4855,1
18011,18011,Richmond upon Thames,2021-03-31,Savills - Richmond,0,"Lower Teddington Road, Hampton Wick, Surrey KT1",0,0,pre-owned,8750000.0,detached,0,freehold,6 bed detached house for sale,51.415796,-0.30971,9290.0,6,6,4,2021-03-31,8750000.0,0,1,1,Richmond,5048,9
18012,18012,Richmond upon Thames,2021-03-31,Savills - Putney,0,"Lime Court, 2 Gipsy Lane, Putney, London SW15",0,0,pre-owned,700000.0,flat,0,leasehold,2 bed flat for sale,51.465617,-0.237254,93.0,2,2,1,2021-03-31,700000.0,1,1,1,East Putney,1499,3
18013,18013,Richmond upon Thames,2021-03-31,Ross Hand Estate Agents,0,"Lower Teddington Road, Hampton Wick, Kingston Upon Thames KT1",0,0,pre-owned,8750000.0,detached,0,freehold,7 bed detached house for sale,51.417609,-0.308614,821.0,7,7,0,2021-03-31,8750000.0,1,0,0,Richmond,4955,2
18014,18014,Richmond upon Thames,2021-03-31,Ross Hand Estate Agents,0,"Lower Teddington Road, Hampton Wick, Kingston Upon Thames KT1",0,0,pre-owned,4500000.0,detached,0,freehold,5 bed detached house for sale,51.417222,-0.308985,130.0,5,4,4,2021-03-31,4500000.0,0,0,1,Richmond,5008,5
18015,18015,Richmond upon Thames,2021-03-31,Quilliam,0,"West Hall Road, Kew, Richmond TW9",0,0,pre-owned,3400000.0,Other,0,Other,6 bed property for sale,51.475357,-0.278759,322.0,6,2,3,2021-03-31,3400000.0,0,1,1,Kew Gardens,392,6
18016,18016,Richmond upon Thames,2021-03-30,Savills - Barnes,1,"The Coterie Apartments, 16 Willow Avenue, Barnes, London SW13",0,0,new,1400000.0,flat,0,leasehold,2 bed flat for sale,51.470671,-0.245669,129.0,2,2,1,2021-03-30,1400000.0,1,1,0,Stamford Brook,2685,12
18017,18017,Richmond upon Thames,2021-03-30,Snellers - Teddington,0,"Fulwell Road, Teddington TW11",0,0,pre-owned,875000.0,terraced,0,freehold,3 bed terraced house for sale,51.432353,-0.347307,130.0,3,2,1,2021-03-30,875000.0,0,0,0,Upminster,3853,7
18018,18018,Richmond upon Thames,2021-03-30,Dexters - Richmond,1,"Lambert Avenue, Richmond TW9",0,0,pre-owned,375000.0,flat,0,leasehold,2 bed flat for sale,51.466913,-0.278492,73.0,2,1,1,2021-03-30,399950.0,0,0,0,Kew Gardens,1082,6
18019,18019,Richmond upon Thames,2021-03-29,Savills - Richmond,0,"Hillbrow, Richmond Hill TW10",0,0,pre-owned,900000.0,flat,0,share_of_freehold,3 bed flat for sale,51.454512,-0.2994,115.0,3,1,1,2021-03-29,950000.0,0,1,1,Richmond,962,24
18020,18020,Richmond upon Thames,2021-03-29,Websters Estate Agents,0,"Constance Road, Whitton, Twickenham TW2",0,0,pre-owned,750000.0,semi_detached,0,Other,3 bed semi-detached house for sale,51.450743,-0.362462,120.0,3,1,1,2021-03-29,750000.0,0,1,1,Hounslow Central,2023,7
18021,18021,Richmond upon Thames,2021-03-27,Estate and Agent,1,"Broom Park, Broom Road TW11",0,0,pre-owned,499950.0,flat,0,leasehold,2 bed flat for sale,51.418479,-0.310025,89.0,2,2,1,2021-03-27,539950.0,0,1,1,Richmond,4836,1
18022,18022,Richmond upon Thames,2021-03-26,Savills - Richmond,0,"The Vineyard, Richmond, Surrey TW10",0,0,pre-owned,3950000.0,semi_detached,0,freehold,5 bed semi-detached house for sale,51.458322,-0.300453,355.0,5,3,4,2021-03-26,4250000.0,0,1,1,Richmond,677,55
18023,18023,Richmond upon Thames,2021-03-26,Dexters - Twickenham,0,"Clarendon Crescent, Twickenham TW2",0,0,pre-owned,319950.0,flat,0,leasehold,2 bed flat for sale,51.437772,-0.351996,53.0,2,1,1,2021-03-26,349950.0,0,0,1,Upminster,3450,7
18024,18024,Richmond upon Thames,2021-03-26,"Chase Buchanan, Twickenham Sales and Lettings",1,"Saville Road, Twickenham TW1",0,0,pre-owned,1175000.0,detached,0,leasehold,4 bed detached house for sale,51.444992,-0.336734,130.0,4,2,2,2021-03-26,1275000.0,0,0,1,Hounslow East,3264,20
18025,18025,Richmond upon Thames,2021-03-25,Inigo,0,"The Vineyard, London TW10",0,0,pre-owned,3950000.0,semi_detached,0,freehold,4 bed semi-detached house for sale,51.45835,-0.30072,346.0,4,3,0,2021-03-25,4250000.0,0,1,1,Richmond,687,57
18026,18026,Richmond upon Thames,2021-03-25,Snellers - Teddington,0,"Broom Road, Teddington TW11",0,0,pre-owned,1750000.0,semi_detached,0,freehold,5 bed semi-detached house for sale,51.425334,-0.316221,232.0,5,3,2,2021-03-25,1850000.0,0,0,1,Richmond,4200,2
18027,18027,Richmond upon Thames,2021-03-24,Miles & Bird,1,"Mallard Place, Strawberry Hill, Twickenham TW1",0,0,pre-owned,850000.0,terraced,0,freehold,3 bed terraced house for sale,51.43615,-0.330585,154.0,3,2,2,2021-03-24,875000.0,0,1,1,Richmond,3186,0
18028,18028,Richmond upon Thames,2021-03-23,Dexters - Richmond,0,"Sheen Road, Richmond TW9",0,0,pre-owned,399950.0,flat,0,share_of_freehold,1 bed flat for sale,51.461263,-0.300629,43.0,1,1,1,2021-03-23,399950.0,0,0,0,Richmond,477,68
18029,18029,Richmond upon Thames,2021-03-23,Dexters - Twickenham,1,"Queens Road, Twickenham TW1",0,0,pre-owned,350000.0,flat,0,share_of_freehold,1 bed flat for sale,51.448746,-0.332455,56.0,1,1,1,2021-03-23,399950.0,0,0,0,Upminster,2422,46
18030,18030,Richmond upon Thames,2021-03-23,Featherstone Leigh - Richmond Sales,0,"St Georges Road, Twickenham, Surrey, UK TW9",0,0,pre-owned,6500000.0,detached,0,freehold,5 bed detached house for sale,51.461962,-0.304018,607.0,5,3,3,2021-03-23,6500000.0,0,1,1,Richmond,460,68
18031,18031,Richmond upon Thames,2021-03-23,Dexters - Richmond,0,"Friars Stile Road, Richmond TW10",0,0,pre-owned,1999950.0,terraced,0,freehold,4 bed terraced house for sale,51.454185,-0.299346,327.0,4,3,1,2021-03-23,1999950.0,1,0,0,Richmond,968,20
18032,18032,Richmond upon Thames,2021-03-23,Dexters - Richmond,0,"Garden Road, Richmond TW9",0,0,pre-owned,450000.0,flat,0,leasehold,2 bed flat for sale,51.467173,-0.28529,62.0,2,1,1,2021-03-23,450000.0,0,0,0,Kew Gardens,918,1
18033,18033,Richmond upon Thames,2021-03-22,Dexters - Twickenham,0,"London Road, Twickenham TW1",0,0,pre-owned,435000.0,flat,0,leasehold,2 bed flat for sale,51.451272,-0.331505,65.0,2,2,1,2021-03-22,449999.0,0,0,1,Richmond,2337,29
18034,18034,Richmond upon Thames,2021-03-22,Dexters - Teddington,0,"The Causeway, Teddington TW11",0,0,pre-owned,625000.0,flat,0,leasehold,2 bed flat for sale,51.425821,-0.335761,8.0,2,1,1,2021-03-22,625000.0,0,0,0,Richmond,4206,22
18035,18035,Richmond upon Thames,2021-03-22,"Chase Buchanan, St Margarets",0,"Richmond Road, Twickenham TW1",0,0,pre-owned,425000.0,flat,0,leasehold,2 bed flat for sale,51.455554,-0.310302,74.0,2,1,1,2021-03-22,450000.0,0,0,0,Richmond,1087,42
18036,18036,Richmond upon Thames,2021-03-21,Savills - Putney,0,"Upper Richmond Road, Putney, London SW15",0,0,pre-owned,725000.0,maisonette,0,share_of_freehold,2 bed maisonette for sale,51.464094,-0.235225,98.0,2,1,1,2021-03-21,725000.0,0,1,1,East Putney,1350,4
18037,18037,Richmond upon Thames,2021-03-19,Curchods - Teddington,1,"Broad Street, Teddington TW11",0,0,pre-owned,400000.0,flat,0,leasehold,2 bed flat for sale,51.426195,-0.335146,82.0,2,1,1,2021-03-19,395000.0,0,0,0,Richmond,4135,22
18038,18038,Richmond upon Thames,2021-03-19,Knight Frank - Richmond Sales,1,"Elm Road, East Sheen SW14",0,0,pre-owned,600000.0,flat,0,freehold,2 bed flat for sale,51.464854,-0.269978,64.0,2,1,1,2021-03-19,600000.0,1,0,0,Kew Gardens,1584,18
18039,18039,Richmond upon Thames,2021-03-18,Antony Roberts- Richmond Sales & Lettings,0,"Beaumont Avenue, Richmond TW9",0,0,pre-owned,899950.0,flat,0,leasehold,4 bed flat for sale,51.466506,-0.294333,111.0,4,2,1,2021-03-18,925000.0,0,0,0,Richmond,628,15
18040,18040,Richmond upon Thames,2021-03-18,Dexters - Richmond,0,"Bishops Close, Ham, Richmond TW10",0,0,pre-owned,650000.0,flat,0,leasehold,2 bed flat for sale,51.437484,-0.30623,111.0,2,1,1,2021-03-18,650000.0,0,0,0,Richmond,2707,2
18041,18041,Richmond upon Thames,2021-03-18,Jackson-Stops - Teddington,0,"St. James's Avenue, Hampton Hill, Hampton TW12",0,0,pre-owned,1125000.0,semi_detached,0,Other,5 bed semi-detached house for sale,51.428868,-0.359518,196.0,5,2,3,2021-03-18,1195000.0,0,1,1,Hounslow Central,4198,13
18042,18042,Richmond upon Thames,2021-03-18,Dexters - Richmond,0,"Colston Road, London SW14",0,0,pre-owned,1095000.0,terraced,0,freehold,4 bed terraced house for sale,51.463801,-0.269646,189.0,4,2,2,2021-03-18,1150000.0,1,0,0,Kew Gardens,1607,17
18043,18043,Richmond upon Thames,2021-03-17,"Chase Buchanan, St Margarets",0,"Heathcote Road, Twickenham TW1",0,0,pre-owned,1475000.0,semi_detached,0,Other,4 bed semi-detached house for sale,51.458232,-0.316989,163.0,4,3,3,2021-03-17,1475000.0,0,1,1,Richmond,1211,10
18044,18044,Richmond upon Thames,2021-03-17,Knight Frank - Richmond Sales,0,"Paradise Road, Richmond TW9",0,0,pre-owned,3000000.0,terraced,0,Other,4 bed terraced house for sale,51.460341,-0.301657,335.0,4,4,3,2021-03-17,3300000.0,0,1,1,Richmond,495,66
18045,18045,Richmond upon Thames,2021-03-17,Snellers - St Margarets,1,"St. Margarets Road, St Margarets, Twickenham TW1",0,0,pre-owned,595000.0,flat,0,share_of_freehold,2 bed flat for sale,51.457904,-0.322634,93.0,2,1,1,2021-03-17,625000.0,0,0,0,Richmond,1528,10
18046,18046,Richmond upon Thames,2021-03-15,Dexters - Richmond,0,"Larkfield Road, Richmond TW9",0,0,pre-owned,549950.0,flat,0,share_of_freehold,2 bed flat for sale,51.463951,-0.29888,51.0,2,1,1,2021-03-15,549950.0,0,0,0,Richmond,179,47
18047,18047,Richmond upon Thames,2021-03-15,Dover House Lettings,0,"Upper Richmond Road, London SW14",0,0,pre-owned,479950.0,flat,0,leasehold,2 bed flat for sale,51.4644,-0.273395,64.0,2,1,1,2021-03-15,479950.0,0,0,0,Kew Gardens,1419,12
18048,18048,Richmond upon Thames,2021-03-14,Savills - Richmond,0,"Kreisel Walk, Richmond, Surrey TW9",0,0,pre-owned,1795000.0,terraced,0,freehold,5 bed terraced house for sale,51.486116,-0.288603,215.0,5,3,2,2021-03-14,1900000.0,0,1,1,Kew Gardens,953,13
18049,18049,Richmond upon Thames,2021-03-12,Chestertons - Barnes Village,0,"Lillian Road, London SW13",0,0,pre-owned,1350000.0,terraced,0,freehold,4 bed terraced house for sale,51.487205,-0.23645,140.0,4,2,2,2021-03-12,1350000.0,0,0,1,Upminster,3864,9
18050,18050,Richmond upon Thames,2021-03-12,Barnard Marcus - East Sheen,0,"Denton Road, Twickenham TW1",0,0,pre-owned,1250000.0,flat,0,leasehold,4 bed flat for sale,51.453669,-0.304555,111.0,4,2,2,2021-03-12,1375000.0,0,0,1,Richmond,1330,21
18051,18051,Richmond upon Thames,2021-03-11,Allan Fuller,1,"Warwick Drive, London SW15",0,0,pre-owned,400000.0,flat,0,Other,1 bed flat for sale,51.464561,-0.23542,50.0,1,1,1,2021-03-11,425000.0,1,1,1,East Putney,1357,3
18052,18052,Richmond upon Thames,2021-03-11,Snellers - Teddington,0,"Peveril Drive, Teddington TW11",0,0,pre-owned,449950.0,flat,0,leasehold,2 bed flat for sale,51.428413,-0.347705,65.0,2,1,1,2021-03-11,499950.0,0,0,1,Upminster,4157,5
18053,18053,Richmond upon Thames,2021-03-11,Ross Hand Estate Agents,1,"Ingram House, Hampton Wick, Kingston Upon Thames KT1",0,0,pre-owned,499950.0,flat,0,share_of_freehold,2 bed flat for sale,51.414479,-0.31707,73.0,2,1,2,2021-03-11,525000.0,1,0,1,Richmond,5250,9
18054,18054,Richmond upon Thames,2021-03-10,Knight Frank - Richmond Sales,0,"Beechrow, Ham Common, Richmond TW10",0,0,pre-owned,1250000.0,semi_detached,0,Other,4 bed semi-detached house for sale,51.430927,-0.301022,173.0,4,2,3,2021-03-10,1250000.0,0,1,1,Richmond,3381,3
18055,18055,Richmond upon Thames,2021-03-10,Snellers - Teddington,0,"Halifax Close, Teddington TW11",0,0,pre-owned,310000.0,flat,0,leasehold,1 bed flat for sale,51.425697,-0.346384,46.0,1,1,1,2021-03-10,349950.0,0,1,0,Upminster,4351,3
18056,18056,Richmond upon Thames,2021-03-09,Chase Buchanan incorporating Milestone,0,"Broom Road, Teddington TW11",0,0,pre-owned,1895000.0,terraced,0,Other,5 bed terraced house for sale,51.424308,-0.31353,262.0,5,5,3,2021-03-09,2000000.0,0,1,1,Richmond,4351,0
18057,18057,Richmond upon Thames,2021-03-08,Featherstone Leigh - Twickenham,0,"Waldegrave Road, Twickenham, UK TW1",0,0,pre-owned,2500000.0,detached,0,freehold,5 bed detached house for sale,51.435496,-0.336977,279.0,5,0,2,2021-03-08,2600000.0,1,1,1,Upminster,3297,4
18058,18058,Richmond upon Thames,2021-03-08,Snellers - Teddington,0,"High Street, Teddington TW11",0,0,pre-owned,305000.0,flat,0,leasehold,1 bed flat for sale,51.427182,-0.328926,37.0,1,1,1,2021-03-08,325000.0,0,0,0,Richmond,4038,21
18059,18059,Richmond upon Thames,2021-03-08,Apparent Properties Ltd,0,"Cleveland Gardens, Barnes SW13",0,0,pre-owned,1950000.0,terraced,0,freehold,5 bed terraced house for sale,51.471139,-0.25031,223.0,5,3,2,2021-03-08,1995000.0,0,0,1,Stamford Brook,2358,13
18060,18060,Richmond upon Thames,2021-03-05,Chestertons - Kew,1,"Melvin Court, High Park Avenue, Richmond, Surrey TW9",0,0,pre-owned,550000.0,maisonette,0,share_of_freehold,2 bed maisonette for sale,51.475565,-0.284088,73.0,2,1,1,2021-03-05,550000.0,0,0,1,Kew Gardens,168,13
18061,18061,Richmond upon Thames,2021-03-05,Chancellors - Richmond,0,"Richmond, Hampton TW12",0,0,pre-owned,332500.0,flat,0,leasehold,1 bed flat for sale,51.431,-0.351,46.0,1,1,1,2021-03-05,400000.0,0,1,1,Upminster,3900,9
18062,18062,Richmond upon Thames,2021-03-05,Chestertons - Barnes Village,0,"White Hart Lane, London SW13",0,0,pre-owned,1500000.0,terraced,0,freehold,4 bed terraced house for sale,51.469704,-0.254979,174.0,4,3,3,2021-03-05,1595000.0,0,0,1,Upminster,2424,14
18063,18063,Richmond upon Thames,2021-03-05,Barnard Marcus - East Sheen,1,"Manor Grove, Richmond TW9",0,0,pre-owned,475000.0,flat,0,leasehold,3 bed flat for sale,51.467056,-0.282708,73.0,3,2,1,2021-03-05,500000.0,0,0,0,Kew Gardens,966,0
18064,18064,Richmond upon Thames,2021-03-05,Barnard Marcus - East Sheen,0,"Vicarage Road, London SW14",0,0,pre-owned,895000.0,flat,0,leasehold,3 bed flat for sale,51.460326,-0.264765,139.0,3,2,1,2021-03-05,950000.0,0,0,0,Kew Gardens,2067,6
18065,18065,Richmond upon Thames,2021-03-04,Waterview - Thames Ditton,1,"Hill Rise, Richmond TW10",0,0,pre-owned,725000.0,flat,0,leasehold,3 bed flat for sale,51.457875,-0.305273,101.0,3,1,1,2021-03-04,725000.0,0,0,0,Richmond,803,54
18066,18066,Richmond upon Thames,2021-03-04,Dexters - Richmond,1,"Hill Rise, Richmond TW10",0,0,pre-owned,725000.0,flat,0,leasehold,3 bed flat for sale,51.457875,-0.305273,101.0,3,1,1,2021-03-04,725000.0,0,0,0,Richmond,803,54
18067,18067,Richmond upon Thames,2021-03-04,Ross Hand Estate Agents,0,"High Street, Hampton Wick, Kingston Upon Thames KT1",0,0,pre-owned,550000.0,flat,0,leasehold,2 bed flat for sale,51.41222,-0.310575,131.0,2,2,0,2021-03-04,530000.0,1,0,0,Richmond,4837,26
18068,18068,Richmond upon Thames,2021-03-04,The Home Selling Company,0,"Leicester Court, East Twickenham TW1",0,0,pre-owned,1125000.0,flat,0,share_of_freehold,2 bed flat for sale,51.455085,-0.306719,102.0,2,2,1,2021-03-04,1125000.0,0,1,1,Richmond,1175,37
18069,18069,Richmond upon Thames,2021-03-03,Chestertons - Kew,1,"Maze Road, Richmond, Surrey TW9",0,0,pre-owned,1900000.0,semi_detached,0,freehold,4 bed semi-detached house for sale,51.482499,-0.282963,213.0,4,2,2,2021-03-03,1975000.0,0,0,1,Kew Gardens,579,12
18070,18070,Richmond upon Thames,2021-03-03,Websters Estate Agents,0,"Radnor Road, Twickenham TW1",0,0,pre-owned,1825000.0,semi_detached,0,Other,5 bed semi-detached house for sale,51.441078,-0.335814,268.0,5,3,2,2021-03-03,1825000.0,1,1,1,Upminster,2934,15
18071,18071,Richmond upon Thames,2021-03-02,The Home Selling Company,0,"Church Road, Richmond TW10",0,0,pre-owned,2850000.0,semi_detached,0,freehold,5 bed semi-detached house for sale,51.460214,-0.296957,218.0,5,2,1,2021-03-02,2850000.0,1,1,1,Richmond,411,32
18072,18072,Richmond upon Thames,2021-03-01,Savills - Barnes,0,"Gerard Road, Barnes, London SW13",0,0,pre-owned,3000000.0,semi_detached,0,freehold,5 bed semi-detached house for sale,51.475916,-0.245252,288.0,5,2,3,2021-03-01,3000000.0,1,0,1,Stamford Brook,2746,13
18073,18073,Richmond upon Thames,2021-03-01,Dexters - St Margarets,1,"Cambridge Park, Twickenham TW1",0,0,pre-owned,800000.0,flat,0,share_of_freehold,2 bed flat for sale,51.453884,-0.311949,84.0,2,1,1,2021-03-01,850000.0,0,0,1,Richmond,1263,19
18074,18074,Richmond upon Thames,2021-03-01,Dexters - Richmond,0,"Dancer Road, Kew, Richmond TW9",0,0,pre-owned,450000.0,flat,0,share_of_freehold,1 bed flat for sale,51.468107,-0.286099,48.0,1,1,1,2021-03-01,450000.0,0,0,1,Kew Gardens,754,2
18075,18075,Richmond upon Thames,2021-03-01,Featherstone Leigh - Richmond Sales,0,"Bainbridge Close, Ham, Richmond, UK TW10",0,0,pre-owned,1800000.0,detached,0,freehold,5 bed detached house for sale,51.428047,-0.296751,232.0,5,3,3,2021-03-01,1800000.0,0,1,0,Richmond,3371,1
18076,18076,Richmond upon Thames,2021-02-26,Chancellors - Richmond,1,"Richmond, London SW14",0,0,pre-owned,425000.0,flat,0,leasehold,1 bed flat for sale,51.461,-0.274,50.0,1,1,1,2021-02-26,550000.0,0,0,1,Kew Gardens,1656,10
18077,18077,Richmond upon Thames,2021-02-25,Dexters - Richmond,0,"Mortlake High Street, London SW14",0,0,pre-owned,375000.0,flat,0,leasehold,2 bed flat for sale,51.469539,-0.263322,63.0,2,1,1,2021-02-25,425000.0,0,0,0,Kew Gardens,1437,14
18078,18078,Richmond upon Thames,2021-02-24,Barnard Marcus - East Sheen,0,"Wadham Mews, London SW14",0,0,pre-owned,530000.0,flat,0,leasehold,2 bed flat for sale,51.470983,-0.27156,74.0,2,1,1,2021-02-24,530000.0,1,1,1,Kew Gardens,1147,4
18079,18079,Richmond upon Thames,2021-02-23,Savills - East Sheen,1,"Clare Lawn Avenue, London SW14",0,0,pre-owned,2495000.0,semi_detached,0,freehold,5 bed semi-detached house for sale,51.458196,-0.266674,303.0,5,3,3,2021-02-23,2595000.0,0,1,1,Kew Gardens,2113,1
18080,18080,Richmond upon Thames,2021-02-22,The Home Selling Company,0,"Alton Road, Richmond TW9",0,0,pre-owned,775000.0,cottage,0,freehold,2 bed cottage for sale,51.46282,-0.296889,71.0,2,1,1,2021-02-22,890000.0,0,0,1,Richmond,484,41
18081,18081,Richmond upon Thames,2021-02-22,Jackson-Stops - Teddington,0,"Fairfax Road, Teddington TW11",0,0,pre-owned,2350000.0,detached,0,Other,5 bed detached house for sale,51.421206,-0.325778,348.0,5,4,4,2021-02-22,2600000.0,0,1,1,Richmond,4589,2
18082,18082,Richmond upon Thames,2021-02-17,Dexters - Richmond,0,"The Quadrant, Richmond TW9",0,0,pre-owned,487500.0,flat,0,leasehold,1 bed flat for sale,51.462325,-0.302523,49.0,1,1,1,2021-02-17,499950.0,0,0,0,Richmond,369,66
18083,18083,Richmond upon Thames,2021-02-16,Chestertons - Barnes Village,0,"Heidegger Crescent, Barnes, London SW13",0,0,pre-owned,1950000.0,terraced,0,freehold,5 bed terraced house for sale,51.482286,-0.229914,216.0,5,3,2,2021-02-16,1950000.0,0,1,1,Hammersmith,4188,7
18084,18084,Richmond upon Thames,2021-02-15,Chancellors - Richmond,1,"Richmond, London TW10",0,0,new,500000.0,flat,0,leasehold,2 bed flat for sale,51.459,-0.296,46.0,2,1,1,2021-02-15,575000.0,0,0,0,Richmond,514,18
18085,18085,Richmond upon Thames,2021-02-12,Cantell & Co,1,"Holmesdale Road, Kew, Richmond TW9",0,0,pre-owned,500000.0,maisonette,0,leasehold,2 bed maisonette for sale,51.47705,-0.290368,74.0,2,1,1,2021-02-12,500000.0,0,0,1,Kew Gardens,350,14
18086,18086,Richmond upon Thames,2021-02-12,Anderson Knight,1,"Strand Drive, Kew, Richmond TW9",0,0,pre-owned,799950.0,flat,0,leasehold,3 bed flat for sale,51.479463,-0.279147,106.0,3,2,1,2021-02-12,799950.0,0,1,1,Kew Gardens,515,8
18087,18087,Richmond upon Thames,2021-02-09,Savills - Barnes,0,"Arundel Court, Arundel Terrace, Barnes, London SW13",0,0,pre-owned,550000.0,flat,0,share_of_freehold,2 bed flat for sale,51.485585,-0.231616,57.0,2,1,1,2021-02-09,550000.0,0,1,0,Ravenscourt Park,4152,10
18088,18088,Richmond upon Thames,2021-02-08,Antony Roberts- Kew Sales,0,"Marksbury Avenue, Kew, Surrey TW9",0,0,pre-owned,3200000.0,detached,0,freehold,6 bed detached house for sale,51.470582,-0.283411,372.0,6,3,4,2021-02-08,3200000.0,0,1,1,Kew Gardens,660,5
18089,18089,Richmond upon Thames,2021-02-07,Savills - Richmond,0,"Ham Common, Richmond, Surrey TW10",0,0,pre-owned,7750000.0,detached,0,freehold,8 bed detached house for sale,51.436118,-0.309018,750.0,8,5,4,2021-02-07,8500000.0,0,0,1,Richmond,2759,3
18090,18090,Richmond upon Thames,2021-02-05,Featherstone Leigh - Richmond Sales,0,"Christchurch, 122B Kew Road, Richmond TW9",0,0,pre-owned,1000000.0,flat,0,share_of_freehold,2 bed flat for sale,51.467178,-0.293926,121.0,2,2,1,2021-02-05,1150000.0,0,1,0,Richmond,669,11
18091,18091,Richmond upon Thames,2021-02-05,Chancellors - Richmond,0,"The Quadrant, Richmond TW9",0,0,pre-owned,800000.0,flat,0,leasehold,2 bed flat for sale,51.461,-0.301,50.0,2,2,1,2021-02-05,875000.0,0,0,0,Richmond,446,67
18092,18092,Richmond upon Thames,2021-02-03,Coopers of London,1,"Petersham Road, London TW10",0,0,pre-owned,1500000.0,flat,0,Other,3 bed flat for sale,51.454151,-0.302939,113.0,3,3,1,2021-02-03,1500000.0,1,1,0,Richmond,1087,23
18093,18093,Richmond upon Thames,2021-02-03,Scott Symonds,1,"Nursery Gardens, Hampton TW12",0,0,pre-owned,474000.0,semi_detached,0,Other,2 bed semi-detached house for sale,51.432098,-0.381543,77.0,2,2,2,2021-02-03,499000.0,0,1,1,Upminster,3906,0
18094,18094,Richmond upon Thames,2021-02-02,Websters Estate Agents,0,"Lion Avenue, Twickenham TW1",0,0,pre-owned,899950.0,terraced,0,Other,4 bed terraced house for sale,51.445984,-0.337434,110.0,4,2,1,2021-02-02,899950.0,0,0,1,Hounslow East,3164,21
18095,18095,Richmond upon Thames,2021-01-29,Chestertons - Richmond,0,"Manor Road, Richmond, Surrey TW9",0,0,pre-owned,1150000.0,terraced,0,freehold,4 bed terraced house for sale,51.463437,-0.288602,137.0,4,2,2,2021-01-29,1200000.0,0,0,1,Richmond,925,4
18096,18096,Richmond upon Thames,2021-01-29,Jackson-Stops - Richmond,1,"Lichfield Court, Sheen Road, Richmond TW9",0,0,pre-owned,289950.0,studio,0,Other,Studio for sale,51.461807,-0.300799,27.0,0,0,0,2021-01-29,320000.0,1,0,0,Richmond,518,71
18097,18097,Richmond upon Thames,2021-01-29,Knight Frank - Richmond Sales,0,"First Avenue, London SW14",0,0,pre-owned,1400000.0,terraced,0,Other,4 bed terraced house for sale,51.469,-0.255495,136.0,4,2,1,2021-01-29,1475000.0,0,0,1,Upminster,2487,13
18098,18098,Richmond upon Thames,2021-01-26,Jackson-Stops - Teddington,1,"High Street, Teddington TW11",0,0,pre-owned,399950.0,flat,0,leasehold,2 bed flat for sale,51.427329,-0.332631,60.0,2,1,1,2021-01-26,425000.0,0,0,1,Richmond,4204,26
18099,18099,Richmond upon Thames,2021-01-25,Savills - Richmond,1,"Cole Park Road, Twickenham TW1",0,0,pre-owned,2195000.0,detached,0,freehold,6 bed detached house for sale,51.454766,-0.328954,355.0,6,3,3,2021-01-25,2195000.0,0,1,1,Richmond,1960,3
18100,18100,Richmond upon Thames,2021-01-25,Featherstone Leigh - Richmond Sales,1,"Corsellis Square, Twickenham TW1",0,0,pre-owned,2100000.0,detached,0,freehold,5 bed detached house for sale,51.463658,-0.321341,279.0,5,4,2,2021-01-25,2250000.0,1,1,1,Richmond,1578,2
18101,18101,Richmond upon Thames,2021-01-23,Savills - East Sheen,0,"Temple Sheen Road, East Sheen, London SW14",0,0,pre-owned,2750000.0,detached,0,freehold,5 bed detached house for sale,51.461636,-0.274936,279.0,5,3,3,2021-01-23,2990000.0,0,1,1,Kew Gardens,1528,9
18102,18102,Richmond upon Thames,2021-01-22,Dexters - Richmond,0,"Lambert Avenue, Richmond TW9",0,0,pre-owned,799950.0,semi_detached,0,freehold,3 bed semi-detached house for sale,51.466355,-0.282082,112.0,3,2,1,2021-01-22,899950.0,0,0,1,Kew Gardens,1046,0
18103,18103,Richmond upon Thames,2021-01-20,Savills - Barnes,0,"Riverview Gardens, Barnes, London SW13",0,0,pre-owned,1500000.0,flat,0,share_of_freehold,2 bed flat for sale,51.486782,-0.230475,133.0,2,2,1,2021-01-20,1500000.0,1,0,1,Upminster,4243,17
18104,18104,Richmond upon Thames,2021-01-20,Websters Estate Agents,0,"Field Lane, Teddington TW11",0,0,pre-owned,735000.0,terraced,0,Other,2 bed terraced house for sale,51.425553,-0.330423,72.0,2,1,1,2021-01-20,735000.0,0,0,1,Richmond,4244,23
18105,18105,Richmond upon Thames,2021-01-19,Websters Estate Agents,0,"Broad Street, Teddington TW11",0,0,pre-owned,350000.0,flat,0,Other,1 bed flat for sale,51.426195,-0.335146,69.0,1,1,1,2021-01-19,350000.0,0,1,0,Richmond,4135,22
18106,18106,Richmond upon Thames,2021-01-14,Dexters - Richmond,1,"Sheen Road, Richmond TW9",0,0,pre-owned,450000.0,flat,0,leasehold,2 bed flat for sale,51.460839,-0.291309,65.0,2,1,1,2021-01-14,485000.0,0,0,0,Richmond,738,5
18107,18107,Richmond upon Thames,2021-01-13,Snellers - St Margarets,1,"Heathcote Road, Twickenham TW1",0,0,pre-owned,2750000.0,semi_detached,0,freehold,6 bed semi-detached house for sale,51.457542,-0.317919,381.0,6,4,4,2021-01-13,2750000.0,0,0,0,Richmond,1283,12
18108,18108,Richmond upon Thames,2021-01-11,Dexters - Hampton,0,"Kings Paddock, Park Close, Hampton TW12",0,0,pre-owned,415000.0,flat,0,share_of_freehold,2 bed flat for sale,51.414337,-0.35896,72.0,2,1,1,2021-01-11,429950.0,0,0,1,Hounslow Central,5288,3
18109,18109,Sutton,2021-07-09,Fine & Country - Cheam,1,"Golf Side, Cheam, Sutton SM2",0,0,pre-owned,3250000.0,detached,0,leasehold,5 bed detached house for sale,51.3417,-0.21592,611.0,5,3,4,2021-07-09,3250000.0,0,0,1,Morden,5580,0
18110,18110,Sutton,2021-07-09,The Local Agent Ltd,0,"Park Hill, Carshalton SM5",0,0,pre-owned,600000.0,town_house,0,Other,4 bed town house for sale,51.360008,-0.169438,118.0,4,2,1,2021-07-09,600000.0,0,1,1,Morden,4041,7
18111,18111,Sutton,2021-07-09,Red Loft - Dillon Court,1,"Dillon Court Retirement Apartments, Brighton Road, Sutton SM2",1,1,new,247500.0,flat,0,leasehold,2 bed flat for sale,51.3532875681818,-0.188153727272727,67.0,2,1,1,2021-07-09,247500.0,1,0,1,Morden,4441,0
18112,18112,Sutton,2021-07-08,Ann Charles Estate Agents,1,"Queens Road, Belmont, Sutton, Surrey SM2",1,0,pre-owned,260000.0,flat,0,leasehold,2 bed flat for sale,51.34144,-0.20199,74.0,2,1,1,2021-07-08,260000.0,1,1,1,Morden,5401,3
18113,18113,Sutton,2021-07-07,Belvoir - Sutton,0,"Sunnymede Avenue, Carshalton SM5",0,0,pre-owned,875000.0,semi_detached,0,Other,5 bed semi-detached house for sale,51.339866,-0.185199,189.0,5,3,2,2021-07-07,875000.0,0,0,1,Morden,5586,0
18114,18114,Sutton,2021-07-07,Christies,0,"Stanley Road, Sutton SM2",0,0,pre-owned,1000000.0,semi_detached,0,Other,5 bed semi-detached house for sale,51.353794,-0.196318,279.0,5,2,3,2021-07-07,1000000.0,0,1,1,Morden,4345,1
18115,18115,Sutton,2021-07-07,Silverman Black Group,1,"West Street Lane, Carshalton SM5",0,0,pre-owned,335000.0,flat,0,Other,2 bed flat for sale,51.366828,-0.165039,93.0,2,2,1,2021-07-07,335000.0,0,1,1,Morden,3524,12
18116,18116,Sutton,2021-07-05,James Bailey Sales & Lettings,1,"The Crescent, Belmont, Sutton SM2",0,0,pre-owned,300000.0,flat,0,leasehold,2 bed flat for sale,51.341186,-0.201755,52.0,2,1,1,2021-07-05,300000.0,0,1,0,Morden,5362,3
18117,18117,Sutton,2021-07-03,Christies,0,"Champneys Close, Cheam, Sutton SM2",0,0,pre-owned,1500000.0,detached,0,Other,6 bed detached house for sale,51.35419,-0.212579,279.0,6,6,2,2021-07-03,1500000.0,0,1,1,Morden,4596,12
18118,18118,Sutton,2021-07-01,Rice and Roman,1,"Elles House, Wallington SM6",1,0,pre-owned,400000.0,flat,0,leasehold,2 bed flat for sale,51.357884,-0.15191,88.0,2,1,1,2021-07-01,400000.0,0,1,1,Morden,4761,11
18119,18119,Sutton,2021-06-30,Christies,0,"Cornwall Road, Sutton SM2",0,0,pre-owned,1250000.0,detached,0,Other,4 bed detached house for sale,51.34994,-0.205797,232.0,4,2,2,2021-06-30,1250000.0,0,1,1,Morden,4870,0
18120,18120,Sutton,2021-06-29,Barnard Marcus - Sutton,0,"Langley Park Road, Sutton SM2",0,0,pre-owned,850000.0,Other,0,freehold,4 bed property for sale,51.352353,-0.183513,9.0,4,1,1,2021-06-29,850000.0,0,0,1,Morden,4514,0
18121,18121,Sutton,2021-06-29,Kenyons,1,"Timberslip Drive, Wallington SM6",0,0,new,800000.0,detached,0,freehold,4 bed detached house for sale,51.348508,-0.136159,124.0,4,2,2,2021-06-29,800000.0,0,1,1,Morden,6053,0
18122,18122,Sutton,2021-06-26,Burn & Warne,1,"Albion Road, Sutton SM2",0,0,pre-owned,1050000.0,semi_detached,0,freehold,6 bed semi-detached house for sale,51.356784,-0.183265,255.0,6,3,3,2021-06-26,1050000.0,0,1,1,Morden,4269,0
18123,18123,Sutton,2021-06-25,Barratt London - New Mill Quarter,1,"""Voile Court"" at Angora Close, Wallington SM6",0,0,new,339995.0,flat,0,leasehold,1 bed flat for sale,51.377457,-0.158494,50.0,1,1,1,2021-06-25,339995.0,1,1,0,Morden,3294,2
18124,18124,Sutton,2021-06-25,Barratt London - New Mill Quarter,1,"""Voile Court"" at Angora Close, Wallington SM6",0,0,new,334995.0,flat,0,leasehold,1 bed flat for sale,51.377457,-0.158494,51.0,1,1,1,2021-06-25,334995.0,1,1,0,Morden,3294,2
18125,18125,Sutton,2021-06-25,Barratt London - New Mill Quarter,1,"""Voile Court"" at Angora Close, Wallington SM6",0,0,new,344995.0,flat,0,leasehold,1 bed flat for sale,51.377457,-0.158494,55.0,1,1,1,2021-06-25,344995.0,1,1,0,Morden,3294,2
18126,18126,Sutton,2021-06-21,Cowles Estate Agent,0,"1 Birdhurst Court, Woodcote Road, Wallington SM6",0,0,pre-owned,279950.0,flat,0,leasehold,2 bed flat for sale,51.351847,-0.148333,66.0,2,1,0,2021-06-21,279950.0,1,1,1,Morden,5186,0
18127,18127,Sutton,2021-06-18,Belvoir - Sutton,1,"Foxglove Way, Wallington SM6",0,0,pre-owned,260000.0,flat,0,Other,2 bed flat for sale,51.382537,-0.155018,44.0,2,1,1,2021-06-18,260000.0,0,1,1,Chesham,3103,2
18128,18128,Sutton,2021-06-15,Christies,0,"Burdon Lane, Cheam, Sutton SM2",0,0,pre-owned,3000000.0,detached,0,Other,6 bed detached house for sale,51.342098,-0.204763,697.0,6,8,5,2021-06-15,3000000.0,1,1,1,Morden,5507,2
18129,18129,Sutton,2021-06-12,Ann Charles Estate Agents,0,"Station Road, Belmont, Sutton, Surrey SM2",1,0,pre-owned,145000.0,flat,0,leasehold,1 bed flat for sale,51.34389,-0.20023,40.0,1,1,1,2021-06-12,145000.0,1,1,1,Morden,5140,3
18130,18130,Sutton,2021-06-10,Hector Godwin Homes,0,"The Green, Hackbridge, Wallington SM6",0,0,pre-owned,300000.0,flat,0,leasehold,1 bed flat for sale,51.378378,-0.158744,51.0,1,1,1,2021-06-10,300000.0,0,0,0,Morden,3274,2
18131,18131,Sutton,2021-06-07,Cubix Estate Agents,0,"Melbourne Road, London SM6",0,0,pre-owned,300000.0,flat,0,leasehold,2 bed flat for sale,51.360555,-0.149145,72.0,2,2,1,2021-06-07,300000.0,0,1,0,Morden,4543,14
18132,18132,Sutton,2021-06-02,Strike,1,"Cedar Road, Sutton SM2",0,0,pre-owned,250000.0,flat,0,share_of_freehold,1 bed flat for sale,51.358934,-0.185147,49.0,1,1,1,2021-06-02,250000.0,0,1,0,Morden,4033,17
18133,18133,Sutton,2021-05-30,Barratt London - New Mill Quarter,1,"""Voile Court"" at Angora Close, Wallington SM6",0,0,new,336995.0,flat,0,leasehold,1 bed flat for sale,51.377457,-0.158494,50.0,1,1,1,2021-05-30,336995.0,1,1,0,Morden,3294,2
18134,18134,Sutton,2021-05-30,Barratt London - New Mill Quarter,1,"""Voile Court"" at Angora Close, Wallington SM6",0,0,new,442995.0,flat,0,leasehold,2 bed flat for sale,51.377457,-0.158494,82.0,2,2,1,2021-05-30,442995.0,1,1,0,Morden,3294,2
18135,18135,Sutton,2021-05-28,Red Loft - Dillon Court,1,"Dillon Court Retirement Apartments, Brighton Road, Sutton SM2",1,1,new,247500.0,flat,0,leasehold,2 bed flat for sale,51.3532875681818,-0.188153727272727,67.0,2,1,1,2021-05-28,255000.0,1,0,1,Morden,4441,0
18136,18136,Sutton,2021-05-13,Cromwells Estate Agents Ltd,0,"Barclay Court, Sandy Lane North, Wallington SM6",0,0,pre-owned,270000.0,flat,0,Other,2 bed flat for sale,51.361003,-0.136626,5.0,2,1,1,2021-05-13,280000.0,0,1,1,Chesham,5243,2
18137,18137,Sutton,2021-05-11,Fabrica by A2 Dominion (South East) - Grangecote Place,1,"Ross Road, Wallington SM6",0,1,new,110000.0,flat,0,leasehold,1 bed flat for sale,51.361573,-0.142353,52.0,1,1,0,2021-05-11,110000.0,0,1,1,Morden,4932,10
18138,18138,Sutton,2021-05-10,Choices - Sutton,1,"Gander Green Lane, Cheam, Sutton, Surrey SM3",0,0,pre-owned,775000.0,semi_detached,0,freehold,6 bed semi-detached house for sale,51.37282,-0.209448,207.0,6,3,2,2021-05-10,800000.0,0,1,1,Morden,2904,3
18139,18139,Sutton,2021-05-07,Strike,0,"Turner Mews, Sutton SM2",0,0,pre-owned,670000.0,town_house,0,freehold,4 bed town house for sale,51.353635,-0.198412,142.0,4,3,1,2021-05-07,690000.0,0,0,1,Morden,4530,0
18140,18140,Sutton,2021-05-05,Belvoir - Sutton,0,"Overton Road, Sutton SM2",0,0,pre-owned,355000.0,flat,0,Other,2 bed flat for sale,51.35654,-0.200942,81.0,2,1,1,2021-05-05,355000.0,1,0,1,Morden,4345,0
18141,18141,Sutton,2021-04-28,Hunters - Surrey Quays,1,"Gordon Road, Carshalton SM5",0,0,pre-owned,155000.0,Other,0,leasehold,1 bed property for sale,51.357514,-0.167265,30.0,1,0,0,2021-04-28,155000.0,0,0,0,Morden,4395,6
18142,18142,Sutton,2021-04-19,Fabrica by A2 Dominion (South East) - Grangecote Place,1,"Ross Road, Wallington SM6",0,0,new,110000.0,flat,0,share_of_freehold,1 bed flat for sale,51.361573,-0.142353,51.0,1,1,0,2021-04-19,110000.0,0,1,1,Morden,4932,10
18143,18143,Sutton,2021-04-09,Strike,0,"Ambleside Gardens, Sutton SM2",0,0,pre-owned,290000.0,flat,0,leasehold,2 bed flat for sale,51.357373,-0.186855,6.0,2,1,1,2021-04-09,300000.0,0,1,1,Morden,4122,20
18144,18144,Sutton,2021-03-31,Barratt London - New Mill Quarter,1,"""Batik Court"" at Angora Close, Wallington SM6",0,0,new,319995.0,flat,0,leasehold,1 bed flat for sale,51.377457,-0.158494,57.0,1,1,1,2021-03-31,319995.0,1,1,0,Morden,3294,2
18145,18145,Sutton,2021-03-26,Hamptons - Epsom Sales,0,"The Crescent, Cheam, Sutton SM2",0,0,pre-owned,2250000.0,detached,0,freehold,6 bed detached house for sale,51.340821,-0.203077,465.0,6,6,4,2021-03-26,2250000.0,0,0,1,Morden,5436,3
18146,18146,Sutton,2021-03-16,Barnard Marcus - Sutton,0,"Manor Park Road, Sutton SM1",0,0,pre-owned,270000.0,flat,0,leasehold,1 bed flat for sale,51.363704,-0.18947,70.0,1,1,1,2021-03-16,280000.0,1,0,0,Morden,3516,26
18147,18147,Sutton,2021-03-09,Laurels,0,"Lincoln Road, Worcester Park KT4",0,0,pre-owned,175000.0,land,0,Other,Land for sale,51.383663,-0.239988,345.0,0,0,0,2021-03-09,175000.0,0,0,0,Morden,3315,1
18148,18148,Sutton,2021-03-09,Turners (Morden),0,"Benhill Road, Sutton SM1",0,0,pre-owned,475000.0,semi_detached,0,freehold,3 bed semi-detached house for sale,51.371072,-0.183478,107.0,3,0,2,2021-03-09,525000.0,0,1,1,Morden,2918,2
18149,18149,Sutton,2021-03-01,SeOUL Residential,0,"Brighton Road, Sutton SM2",0,0,pre-owned,170000.0,studio,0,leasehold,Studio for sale,51.351719,-0.19191,25.0,0,1,1,2021-03-01,170000.0,0,1,0,Morden,4325,0
18150,18150,Sutton,2021-02-17,Winkworth - Cheam,1,"Horizon Court, 3 Upper Mulgrave Road, Cheam, Sutton SM2",0,0,pre-owned,525000.0,flat,0,leasehold,2 bed flat for sale,51.3548,-0.215156,93.0,2,2,1,2021-02-17,549950.0,1,1,1,Morden,4570,14
18151,18151,Sutton,2021-02-10,Peach Properties,0,"Brighton Road, Sutton SM2",1,1,pre-owned,258750.0,flat,0,Other,2 bed flat for sale,51.3493,-0.194902,66.0,2,1,1,2021-02-10,258750.0,1,0,0,Morden,4583,0
18152,18152,Sutton,2021-01-29,"Purplebricks, Head Office",1,"Burnell Road, Sutton SM1",0,0,pre-owned,375000.0,flat,0,leasehold,3 bed flat for sale,51.369377,-0.192867,84.0,3,1,1,2021-01-29,400000.0,1,1,1,Morden,2969,7
18153,18153,Sutton,2021-01-29,The Local Agent Ltd,0,"Courtney Crescent, Carshalton SM5",0,0,pre-owned,335000.0,flat,0,Other,2 bed flat for sale,51.350978,-0.16726,59.0,2,1,1,2021-01-29,350000.0,0,0,1,Morden,4840,0
18154,18154,Sutton,2021-01-27,Henley Homes,0,"Golf Side, Sutton SM2",0,0,pre-owned,4250000.0,detached,0,Other,7 bed detached house for sale,51.339703,-0.214709,650.0,7,5,6,2021-01-27,4250000.0,0,0,1,Morden,5746,0
18155,18155,Sutton,2021-01-15,Christies,0,"Golf Side, Sutton SM2",0,0,pre-owned,4250000.0,detached,0,Other,7 bed detached house for sale,51.339702,-0.214708,715.0,7,5,5,2021-01-15,4000000.0,0,0,0,Morden,5746,0
18156,18156,Waltham Forest,2021-07-09,The Stow Brothers - E17,0,"Leucha Road, London E17",0,0,pre-owned,415000.0,flat,0,Other,2 bed flat for sale,51.580638,-0.036067,12.0,2,1,1,2021-07-09,415000.0,1,0,1,Blackhorse Road,850,14
18157,18157,Waltham Forest,2021-07-09,Petty Son & Prestwich,0,"Makepeace Road, London E11",0,0,pre-owned,420000.0,flat,0,Other,2 bed flat for sale,51.583198,0.025097,72.0,2,2,1,2021-07-09,420000.0,0,1,0,Snaresbrook,389,6
18158,18158,Waltham Forest,2021-07-09,The Stow Brothers E4,0,"Parade Gardens, London E4",0,0,pre-owned,350000.0,flat,0,leasehold,2 bed flat for sale,51.603633,-0.014855,65.0,2,1,1,2021-07-09,350000.0,1,0,1,Walthamstow Central,1924,2
18159,18159,Waltham Forest,2021-07-09,Central Estate Agents,0,"Coppermill Lane, Walthamstow, London E17",0,0,pre-owned,390000.0,flat,0,leasehold,2 bed flat for sale,51.580198,-0.041095,57.0,2,1,1,2021-07-09,390000.0,0,1,1,Blackhorse Road,827,2
18160,18160,Waltham Forest,2021-07-09,Central Estate Agents,1,"Ching Way, Chingford, London E4",0,0,pre-owned,400000.0,terraced,0,freehold,4 bed terraced house for sale,51.607304,-0.027738,105.0,4,1,1,2021-07-09,400000.0,1,0,1,Chesham,2417,2
18161,18161,Waltham Forest,2021-07-09,Central Estate Agents,1,"Exmouth Road, Walthamstow, London E17",0,0,pre-owned,275000.0,flat,0,share_of_freehold,1 bed flat for sale,51.580311,-0.026806,35.0,1,1,1,2021-07-09,275000.0,0,0,0,Walthamstow Central,593,21
18162,18162,Waltham Forest,2021-07-09,The Stow Brothers E4,0,"Parade Gardens, London E4",0,0,pre-owned,410000.0,Other,0,leasehold,1 bed property for sale,51.604145,-0.01285,83.0,1,1,1,2021-07-09,410000.0,1,1,1,Walthamstow Central,1999,3
18163,18163,Waltham Forest,2021-07-08,Churchill Estates - Walthamstow,1,"Livingstone Road, Walthamstow, London E17",0,0,new,750000.0,end_terrace,0,freehold,3 bed end terrace house for sale,51.576394,-0.014547,11.0,3,0,1,2021-07-08,750000.0,1,0,1,Walthamstow Central,693,17
18164,18164,Waltham Forest,2021-07-08,The Stow Brothers E4,0,"Salisbury Road, London E4",0,0,pre-owned,475000.0,terraced,0,Other,2 bed terraced house for sale,51.619991,-0.016031,74.0,2,1,1,2021-07-08,475000.0,1,0,1,Walthamstow Central,3194,16
18165,18165,Waltham Forest,2021-07-08,PER Westray,1,"Sylvan Road, Wanstead, London E11",0,0,pre-owned,1175000.0,terraced,0,freehold,6 bed terraced house for sale,51.583175,0.023586,181.0,6,3,2,2021-07-08,1175000.0,0,1,1,Snaresbrook,396,6
18166,18166,Waltham Forest,2021-07-08,The Stow Brothers E4,0,"Crofton Grove, London E4",0,0,pre-owned,1100000.0,detached,0,Other,5 bed detached house for sale,51.615627,0.003513,186.0,5,4,2,2021-07-08,1100000.0,0,1,1,Woodford,2288,0
18167,18167,Waltham Forest,2021-07-08,Central Estate Agents,0,"Lansdowne Road, Walthamstow, London E17",0,0,pre-owned,850000.0,terraced,0,freehold,4 bed terraced house for sale,51.577847,-0.022013,133.0,4,3,1,2021-07-08,850000.0,0,0,1,Walthamstow Central,628,3
18168,18168,Waltham Forest,2021-07-08,Central Estate Agents,0,"Grosvenor Park Road, Walthamstow, London E17",0,0,pre-owned,1250000.0,semi_detached,0,freehold,3 bed semi-detached house for sale,51.579623,-0.016055,136.0,3,2,2,2021-07-08,1250000.0,0,1,1,Walthamstow Central,464,22
18169,18169,Waltham Forest,2021-07-08,Linus Jackson Property Agent,0,"Lea Bridge Road, London E10",0,0,pre-owned,400000.0,flat,0,Other,2 bed flat for sale,51.567577,-0.032295,61.0,2,1,1,2021-07-08,400000.0,0,0,1,Walthamstow Central,1867,6
18170,18170,Waltham Forest,2021-07-08,The Stow Brothers - E17,0,"Bickley Road, London E10",0,0,pre-owned,370000.0,flat,0,Other,2 bed flat for sale,51.573104,-0.014999,13.0,2,1,1,2021-07-08,370000.0,1,0,1,Walthamstow Central,964,16
18171,18171,Waltham Forest,2021-07-07,The Stow Brothers - E17,1,"Lloyd Road, London E17",0,0,pre-owned,695000.0,terraced,0,leasehold,3 bed terraced house for sale,51.584991,-0.040186,93.0,3,2,1,2021-07-07,695000.0,1,0,1,Blackhorse Road,355,8
18172,18172,Waltham Forest,2021-07-07,The Stow Brothers - E17,0,"Hatherley Road, London E17",0,0,pre-owned,365000.0,flat,0,leasehold,1 bed flat for sale,51.586654,-0.021498,13.0,1,1,1,2021-07-07,365000.0,1,1,1,Walthamstow Central,379,28
18173,18173,Waltham Forest,2021-07-07,The Stow Brothers - E17,0,"Shernhall Street, London E17",0,0,pre-owned,450000.0,flat,0,leasehold,2 bed flat for sale,51.582626,-0.004199,70.0,2,2,1,2021-07-07,450000.0,0,1,1,Walthamstow Central,931,10
18174,18174,Waltham Forest,2021-07-07,Linus Jackson Property Agent,0,"Brewster Road, London E10",0,0,pre-owned,775000.0,detached,0,Other,3 bed detached house for sale,51.567867,-0.012246,127.0,3,2,1,2021-07-07,775000.0,0,0,1,Leyton,1044,1
18175,18175,Waltham Forest,2021-07-06,Keatons - Wanstead,1,"Hermitage Court, Woodford Road, London E18",0,0,pre-owned,410000.0,flat,0,leasehold,2 bed flat for sale,51.585068,0.02227,62.0,2,1,1,2021-07-06,410000.0,1,1,1,Snaresbrook,710,5
18176,18176,Waltham Forest,2021-07-06,Central Estate Agents,0,"Erskine Road, Walthamstow, London E17",0,0,pre-owned,900000.0,terraced,0,freehold,5 bed terraced house for sale,51.587061,-0.026651,169.0,5,2,1,2021-07-06,900000.0,0,0,1,Walthamstow Central,627,26
18177,18177,Waltham Forest,2021-07-06,Central Estate Agents,0,"Elmsdale Road, Walthamstow, London E17",0,0,pre-owned,275000.0,flat,0,leasehold,2 bed flat for sale,51.586212,-0.027467,50.0,2,1,1,2021-07-06,275000.0,0,0,0,Walthamstow Central,637,25
18178,18178,Waltham Forest,2021-07-05,Estates 17 Ltd,1,"Cassiobury Road, Walthamstow, London E17",0,0,pre-owned,575000.0,terraced,0,leasehold,2 bed terraced house for sale,51.579933,-0.038469,88.0,2,1,2,2021-07-05,575000.0,1,0,1,Blackhorse Road,811,10
18179,18179,Waltham Forest,2021-07-05,Alexander Knight Property,0,"Goldsmith Road, London E10",0,0,pre-owned,625000.0,terraced,0,leasehold,3 bed terraced house for sale,51.565898,-0.018957,121.0,3,2,1,2021-07-05,625000.0,0,0,1,Leyton,1179,3
18180,18180,Waltham Forest,2021-07-05,Central Estate Agents,0,"Butterfields, London E17",0,0,pre-owned,350000.0,flat,0,leasehold,2 bed flat for sale,51.580079,-0.006198,47.0,2,1,1,2021-07-05,350000.0,0,0,1,Walthamstow Central,1039,21
18181,18181,Waltham Forest,2021-07-05,Keller Williams,0,"Roberts Road, Walthamstow E17",0,0,pre-owned,500000.0,terraced,0,Other,5 bed terraced house for sale,51.599091,-0.01479,149.0,5,3,3,2021-07-05,500000.0,0,0,1,Walthamstow Central,1525,2
18182,18182,Waltham Forest,2021-07-05,The Stow Brothers,1,"Colworth Road, London E11",0,0,pre-owned,220000.0,flat,0,Other,1 bed flat for sale,51.571918,0.010526,11.0,1,1,1,2021-07-05,220000.0,0,0,0,Leytonstone,438,14
18183,18183,Waltham Forest,2021-07-03,Abode,1,"St. Ronans Crescent, Woodford Green IG8",0,0,pre-owned,875000.0,semi_detached,0,Other,4 bed semi-detached house for sale,51.6021,0.02305,163.0,4,2,3,2021-07-03,875000.0,0,1,1,Chesham,1021,2
18184,18184,Waltham Forest,2021-07-03,Strike,1,"Ruckholt Road, London E10",0,0,pre-owned,350000.0,flat,0,leasehold,2 bed flat for sale,51.557393,-0.009041,50.0,2,1,1,2021-07-03,350000.0,0,1,1,Leyton,313,8
18185,18185,Waltham Forest,2021-07-03,"Purplebricks, Head Office",1,"Higham Hill Road, London E17",0,0,pre-owned,325000.0,flat,0,leasehold,1 bed flat for sale,51.594829,-0.034616,57.0,1,1,1,2021-07-03,325000.0,0,0,1,Blackhorse Road,930,6
18186,18186,Waltham Forest,2021-07-02,The Stow Brothers - E17,0,"West Avenue, London E17",0,0,pre-owned,325000.0,flat,0,Other,1 bed flat for sale,51.582431,-0.015481,14.0,1,1,1,2021-07-02,325000.0,0,1,1,Walthamstow Central,314,28
18187,18187,Waltham Forest,2021-07-02,Estates 17 Ltd,1,"Belgrave Road, Walthamstow, London E17",0,0,pre-owned,450000.0,flat,0,leasehold,2 bed flat for sale,51.575901,-0.017756,66.0,2,2,1,2021-07-02,450000.0,1,0,0,Walthamstow Central,755,12
18188,18188,Waltham Forest,2021-07-02,The Stow Brothers - E17,0,"Eden Road, London E17",0,0,pre-owned,350000.0,flat,0,leasehold,1 bed flat for sale,51.581741,-0.012138,19.0,1,1,1,2021-07-02,350000.0,0,1,0,Walthamstow Central,535,15
18189,18189,Waltham Forest,2021-07-02,Outlook Property - Walthamstow,1,"Livingstone Road, Walthamstow, London E17",0,0,pre-owned,750000.0,detached,0,freehold,3 bed detached house for sale,51.576878,-0.013136,114.0,3,2,1,2021-07-02,750000.0,1,0,1,Walthamstow Central,769,18
18190,18190,Waltham Forest,2021-07-01,Central Estate Agents,0,"Gosport Road, Walthamstow, London E17",0,0,pre-owned,800000.0,terraced,0,freehold,3 bed terraced house for sale,51.579071,-0.026828,117.0,3,2,1,2021-07-01,800000.0,0,0,1,Walthamstow Central,664,17
18191,18191,Waltham Forest,2021-07-01,Petty Son & Prestwich,0,"Hermon Hill, London E11",0,0,pre-owned,500000.0,flat,0,Other,2 bed flat for sale,51.581401,0.023574,61.0,2,2,1,2021-07-01,500000.0,1,1,1,Snaresbrook,214,8
18192,18192,Waltham Forest,2021-07-01,Keatons - Wanstead,1,"James Lane, London E11",0,0,pre-owned,780000.0,end_terrace,0,Other,3 bed end terrace house for sale,51.575349,0.004318,105.0,3,1,1,2021-07-01,780000.0,0,0,1,Leytonstone,986,1
18193,18193,Waltham Forest,2021-07-01,Central Estate Agents,0,"Brettenham Road, Walthamstow, London E17",0,0,pre-owned,475000.0,maisonette,0,leasehold,2 bed maisonette for sale,51.597387,-0.019246,67.0,2,1,1,2021-07-01,475000.0,0,0,1,Walthamstow Central,1362,1
18194,18194,Waltham Forest,2021-07-01,Churchill Estates - Wanstead,0,"Richmond Road, Leytonstone, London E11",0,0,pre-owned,799995.0,terraced,0,freehold,3 bed terraced house for sale,51.564412,-0.000318,112.0,3,1,1,2021-07-01,799995.0,1,0,1,Chesham,569,4
18195,18195,Waltham Forest,2021-07-01,Central Estate Agents,0,"Exeter Road, Walthamstow, London E17",0,0,pre-owned,425000.0,flat,0,leasehold,2 bed flat for sale,51.581883,-0.023562,68.0,2,1,1,2021-07-01,425000.0,1,1,1,Walthamstow Central,447,22
18196,18196,Waltham Forest,2021-07-01,Allen Davies,1,"Salcombe Road, Walthamstow E17",0,0,pre-owned,350000.0,flat,0,share_of_freehold,2 bed flat for sale,51.571409,-0.025308,61.0,2,1,1,2021-07-01,350000.0,0,0,0,Walthamstow Central,1337,5
18197,18197,Waltham Forest,2021-07-01,The Stow Brothers E4,0,"Jacks Farm Way, London E4",0,0,pre-owned,400000.0,flat,0,Other,2 bed flat for sale,51.607315,-0.004011,26.0,2,1,1,2021-07-01,400000.0,1,1,1,Chesham,2535,16
18198,18198,Waltham Forest,2021-07-01,The Stow Brothers - E17,0,"Douglas Avenue, London E17",0,0,pre-owned,625000.0,terraced,0,Other,4 bed terraced house for sale,51.598464,-0.023554,111.0,4,2,2,2021-07-01,625000.0,0,0,1,Walthamstow Central,1357,1
18199,18199,Waltham Forest,2021-06-30,Pioneer Property Group,1,"Walthamstow, London E17",0,0,new,570000.0,flat,0,leasehold,3 bed flat for sale,51.5887362009346,-0.0335723691588785,90.0,3,2,1,2021-06-30,570000.0,1,0,1,Blackhorse Road,517,9
18200,18200,Waltham Forest,2021-06-30,Pioneer Property Group,1,"Walthamstow, London E17",0,0,new,483000.0,flat,0,leasehold,2 bed flat for sale,51.5887362009346,-0.0335723691588785,66.0,2,2,1,2021-06-30,483000.0,1,0,1,Blackhorse Road,517,9
18201,18201,Waltham Forest,2021-06-30,Pioneer Property Group,1,"Walthamstow, London E17",0,0,new,401000.0,flat,0,leasehold,1 bed flat for sale,51.5887362009346,-0.0335723691588785,52.0,1,1,1,2021-06-30,401000.0,1,0,1,Blackhorse Road,517,9
18202,18202,Waltham Forest,2021-06-30,The Stow Brothers - E17,0,"Maynard Road, London E17",0,0,pre-owned,675000.0,terraced,0,leasehold,2 bed terraced house for sale,51.581657,-0.005258,21.0,2,1,1,2021-06-30,675000.0,1,0,1,Walthamstow Central,934,14
18203,18203,Waltham Forest,2021-06-30,The Stow Brothers E4,0,"Lyndhurst Road, London E4",0,0,pre-owned,499995.0,Other,0,leasehold,3 bed property for sale,51.603389,-0.003688,93.0,3,1,2,2021-06-30,499995.0,1,0,1,Chesham,2216,16
18204,18204,Waltham Forest,2021-06-30,The Stow Brothers E4,0,"Whitehall Gardens, London E4",0,0,pre-owned,600000.0,terraced,0,Other,4 bed terraced house for sale,51.627456,0.007242,125.0,4,2,2,2021-06-30,600000.0,1,0,1,Chesham,2337,6
18205,18205,Waltham Forest,2021-06-30,Allen Davies,0,"St Helens Place, London, Leyton E10",0,0,pre-owned,350000.0,flat,0,leasehold,2 bed flat for sale,51.570542,-0.032447,71.0,2,1,1,2021-06-30,350000.0,0,1,1,Walthamstow Central,2002,5
18206,18206,Waltham Forest,2021-06-30,Peabody,1,"Lea Bridge Road, London E10",0,1,new,130000.0,flat,0,leasehold,3 bed flat for sale,51.566766,-0.03435,99.0,3,2,0,2021-06-30,130000.0,1,0,1,Chesham,1989,2
18207,18207,Waltham Forest,2021-06-29,The Stow Brothers - E17,0,"Byron Road, London E17",0,0,pre-owned,550000.0,end_terrace,0,Other,2 bed end terrace house for sale,51.588096,-0.017495,16.0,2,1,2,2021-06-29,550000.0,1,0,1,Walthamstow Central,589,25
18208,18208,Waltham Forest,2021-06-29,The Stow Brothers E4,0,"Heathcote Grove, London E4",0,0,pre-owned,315000.0,flat,0,leasehold,2 bed flat for sale,51.624599,-0.005611,57.0,2,1,1,2021-06-29,315000.0,0,1,1,Woodford,2766,0
18209,18209,Waltham Forest,2021-06-29,The Stow Brothers - E17,0,"Warwick Terrace, Lea Bridge Road, London E17",0,0,pre-owned,275000.0,flat,0,leasehold,1 bed flat for sale,51.580577,-0.002319,13.0,1,1,1,2021-06-29,275000.0,1,0,0,Chesham,1228,10
18210,18210,Waltham Forest,2021-06-29,The Stow Brothers - E17,0,"Cleveland Park Avenue, London E17",0,0,pre-owned,525000.0,flat,0,Other,3 bed flat for sale,51.585769,-0.021101,84.0,3,2,1,2021-06-29,525000.0,1,0,0,Walthamstow Central,307,25
18211,18211,Waltham Forest,2021-06-29,The Stow Brothers - E17,1,"Hazelwood Road, London E17",0,0,pre-owned,375000.0,flat,0,leasehold,1 bed flat for sale,51.581645,-0.036209,14.0,1,1,1,2021-06-29,375000.0,1,0,0,Blackhorse Road,706,12
18212,18212,Waltham Forest,2021-06-28,Strike,0,"Gainsford Road, London E17",0,0,pre-owned,320000.0,flat,0,leasehold,1 bed flat for sale,51.587197,-0.027496,39.0,1,1,1,2021-06-28,320000.0,1,0,1,Walthamstow Central,692,18
18213,18213,Waltham Forest,2021-06-28,Wonderlease Ltd,0,"Stocksfield Road, Walthamstow E17",0,0,pre-owned,325000.0,flat,0,leasehold,2 bed flat for sale,51.588114,-0.002828,77.0,2,1,1,2021-06-28,325000.0,0,0,0,Walthamstow Central,1076,10
18214,18214,Waltham Forest,2021-06-28,Linus Jackson Property Agent,1,"Whitney Road, London E10",0,0,pre-owned,700000.0,Other,0,Other,3 bed property for sale,51.572074,-0.017271,119.0,3,1,2,2021-06-28,700000.0,0,0,1,Walthamstow Central,1109,9
18215,18215,Waltham Forest,2021-06-28,L&Q,0,"Capworth Street, London E10",0,1,pre-owned,106750.0,flat,0,leasehold,1 bed flat for sale,51.573521,-0.01018,47.0,1,1,0,2021-06-28,106750.0,1,0,0,Walthamstow Central,1003,16
18216,18216,Waltham Forest,2021-06-28,Red Loft - Pixel at Feature 17,1,"Troubridge Square, Walthamstow E17",0,1,new,116750.0,flat,0,leasehold,2 bed flat for sale,51.587937,-0.005074,7.0,2,2,1,2021-06-28,116750.0,0,0,0,Walthamstow Central,957,11
18217,18217,Waltham Forest,2021-06-28,Red Loft - Pixel at Feature 17,1,"Troubridge Square, Walthamstow E17",0,1,new,115000.0,flat,0,leasehold,2 bed flat for sale,51.587937,-0.005074,7.0,2,2,1,2021-06-28,115000.0,0,0,0,Walthamstow Central,957,11
18218,18218,Waltham Forest,2021-06-28,Red Loft - Pixel at Feature 17,1,"Troubridge Square, Walthamstow E17",0,1,new,113125.0,flat,0,leasehold,2 bed flat for sale,51.587937,-0.005074,7.0,2,2,1,2021-06-28,113125.0,0,0,0,Walthamstow Central,957,11
18219,18219,Waltham Forest,2021-06-27,Duncan Phillips Management Limited,0,"Butlers Drive, London E4",0,0,pre-owned,450000.0,semi_detached,0,Other,3 bed semi-detached house for sale,51.665634,-0.000773,96.0,3,2,2,2021-06-27,450000.0,0,0,1,Loughton,3875,2
18220,18220,Waltham Forest,2021-06-25,Countryside - Feature17,1,"Wood Street, Walthamstow E17",0,0,new,515000.0,flat,0,leasehold,2 bed flat for sale,51.5873,-0.00277,73.0,2,2,0,2021-06-25,515000.0,1,0,0,Walthamstow Central,992,10
18221,18221,Waltham Forest,2021-06-25,Countryside - Feature17,1,"Wood Street, Walthamstow E17",0,0,new,590000.0,flat,0,leasehold,3 bed flat for sale,51.5873,-0.00277,102.0,3,2,0,2021-06-25,590000.0,1,1,0,Walthamstow Central,992,10
18222,18222,Waltham Forest,2021-06-25,Strike,1,"Cann Hall Road, London E11",0,0,pre-owned,375000.0,flat,0,share_of_freehold,2 bed flat for sale,51.553248,0.007053,64.0,2,1,1,2021-06-25,375000.0,0,1,0,Leyton,895,12
18223,18223,Waltham Forest,2021-06-25,The Stow Brothers - E17,0,"Church Road, London E10",0,0,pre-owned,360000.0,flat,0,leasehold,2 bed flat for sale,51.568443,-0.022748,65.0,2,2,1,2021-06-25,360000.0,1,1,0,Chesham,1498,7
18224,18224,Waltham Forest,2021-06-25,Strettons Auctions,0,"200 High Road Leytonstone, Leytonstone E11",0,0,pre-owned,430000.0,block_of_flats,1,freehold,1 bed block of flats for sale,51.553532,0.005312,27.0,1,0,0,2021-06-25,430000.0,0,0,0,Leyton,758,13
18225,18225,Waltham Forest,2021-06-25,Strettons Auctions,0,"213B Forest Road, London E17",0,0,pre-owned,290000.0,maisonette,1,leasehold,2 bed maisonette for sale,51.588,-0.035,84.0,2,0,0,2021-06-25,290000.0,1,0,0,Blackhorse Road,404,10
18226,18226,Waltham Forest,2021-06-25,Keatons - Wanstead,0,"The Ridings, Malcolm Way, London E11",0,0,pre-owned,525000.0,flat,0,leasehold,2 bed flat for sale,51.58177,0.021618,76.0,2,2,1,2021-06-25,525000.0,1,0,1,Snaresbrook,480,6
18227,18227,Waltham Forest,2021-06-25,Central Estate Agents,0,"Boundary Road, Walthamstow, London E17",0,0,pre-owned,600000.0,terraced,0,freehold,3 bed terraced house for sale,51.575041,-0.019049,90.0,3,1,2,2021-06-25,650000.0,1,0,1,Walthamstow Central,825,8
18228,18228,Waltham Forest,2021-06-25,Butler & Stag,0,"Albion Terrace, Sewardstone Road, London E4",0,0,pre-owned,375000.0,Other,0,Other,2 bed property for sale,51.647979,-0.010854,81.0,2,1,2,2021-06-25,375000.0,1,0,1,Chesham,4041,0
18229,18229,Waltham Forest,2021-06-24,Coppermills,1,"Blackhorse Road, London E17",0,0,pre-owned,385000.0,flat,0,leasehold,1 bed flat for sale,51.581626,-0.034286,57.0,1,1,1,2021-06-24,385000.0,0,0,0,Blackhorse Road,662,15
18230,18230,Waltham Forest,2021-06-24,Estates 10 Ltd,0,"Liberty Court, High Road Leyton, Leyton, London E10",0,0,pre-owned,475000.0,flat,0,leasehold,2 bed flat for sale,51.55931,-0.008217,68.0,2,1,1,2021-06-24,475000.0,1,1,1,Leyton,297,8
18231,18231,Waltham Forest,2021-06-24,Central Estate Agents,0,"Belgrave Road, Walthamstow, London E17",0,0,pre-owned,650000.0,terraced,0,freehold,3 bed terraced house for sale,51.579151,-0.020798,89.0,3,1,1,2021-06-24,700000.0,1,0,1,Walthamstow Central,481,11
18232,18232,Waltham Forest,2021-06-23,Harper Mason,0,"Walnut Road, London E10",0,0,pre-owned,730000.0,detached,0,freehold,5 bed detached house for sale,51.5708313220339,-0.0060483050847457,141.0,5,2,1,2021-06-23,730000.0,0,0,1,Chesham,1041,3
18233,18233,Waltham Forest,2021-06-23,Central Estate Agents,0,"Chingford Road, Walthamstow, London E17",0,0,pre-owned,425000.0,maisonette,0,leasehold,2 bed maisonette for sale,51.598763,-0.015956,72.0,2,1,1,2021-06-23,425000.0,0,0,1,Walthamstow Central,1423,1
18234,18234,Waltham Forest,2021-06-23,Central Estate Agents,0,"Gosport Road, Walthamstow, London E17",0,0,pre-owned,785000.0,terraced,0,freehold,5 bed terraced house for sale,51.578731,-0.026638,131.0,5,2,1,2021-06-23,785000.0,0,0,1,Walthamstow Central,692,16
18235,18235,Waltham Forest,2021-06-23,Central Estate Agents,1,"Teresa Mews, Walthamstow, London E17",0,0,pre-owned,280000.0,flat,0,leasehold,1 bed flat for sale,51.586296,-0.017624,43.0,1,1,1,2021-06-23,280000.0,0,1,1,Walthamstow Central,428,34
18236,18236,Waltham Forest,2021-06-23,Here Residential,0,"Leaside Road, London E5",0,0,pre-owned,450000.0,Other,0,leasehold,2 bed property for sale,51.567194,-0.051163,61.0,2,1,1,2021-06-23,450000.0,0,0,0,Chesham,2114,2
18237,18237,Waltham Forest,2021-06-23,Here Residential,0,"Leaside Road, London E5",0,0,pre-owned,425000.0,flat,0,leasehold,1 bed flat for sale,51.567166,-0.050868,50.0,1,1,1,2021-06-23,425000.0,0,0,0,Chesham,2136,1
18238,18238,Waltham Forest,2021-06-23,Here Residential,0,"Leaside Road, London E5",0,0,pre-owned,350000.0,Other,0,leasehold,1 bed property for sale,51.567194,-0.051163,43.0,1,1,1,2021-06-23,350000.0,1,0,0,Chesham,2114,2
18239,18239,Waltham Forest,2021-06-22,Estates 17 Ltd,0,"Howard Road, Walthamstow, London E17",0,0,pre-owned,1050000.0,terraced,0,leasehold,4 bed terraced house for sale,51.587173,-0.016013,137.0,4,2,2,2021-06-22,1050000.0,0,1,1,Walthamstow Central,509,29
18240,18240,Waltham Forest,2021-06-22,Estates 10 Ltd,1,"Francis Road, Leyton, London E10",0,0,pre-owned,400000.0,flat,0,leasehold,3 bed flat for sale,51.562732,-0.00439,95.0,3,1,1,2021-06-22,400000.0,0,0,0,Leyton,655,9
18241,18241,Waltham Forest,2021-06-21,"Purplebricks, Head Office",0,"Beck Square, London E10",0,0,pre-owned,300000.0,studio,0,leasehold,Studio for sale,51.569502091954,-0.0238597356321839,46.0,0,1,1,2021-06-21,300000.0,1,0,0,Walthamstow Central,1507,7
18242,18242,Waltham Forest,2021-06-21,Central Estate Agents,0,"Chelmsford Road, Walthamstow, London E17",0,0,pre-owned,700000.0,terraced,0,freehold,2 bed terraced house for sale,51.577753,-0.022979,96.0,2,1,2,2021-06-21,700000.0,0,0,1,Walthamstow Central,653,6
18243,18243,Waltham Forest,2021-06-21,Estates 10 Ltd,0,"Newport Road, Leyton, London E10",0,0,pre-owned,475000.0,flat,0,leasehold,2 bed flat for sale,51.564384,-0.003007,60.0,2,1,1,2021-06-21,475000.0,0,0,1,Chesham,743,5
18244,18244,Waltham Forest,2021-06-21,Estates 10 Ltd,1,"Melford Road, Leytonstone, London E11",0,0,pre-owned,400000.0,maisonette,0,leasehold,2 bed maisonette for sale,51.562007,0.007928,66.0,2,2,1,2021-06-21,400000.0,0,0,0,Leytonstone,627,14
18245,18245,Waltham Forest,2021-06-21,The Stow Brothers,0,"High Street Wanstead, London E11",0,0,pre-owned,375000.0,flat,0,Other,2 bed flat for sale,51.580776,0.022456,20.0,2,1,1,2021-06-21,375000.0,0,0,0,Snaresbrook,182,11
18246,18246,Waltham Forest,2021-06-19,Key Property Consultants,0,"Vicarage Road, London E10",0,0,pre-owned,400000.0,flat,0,leasehold,2 bed flat for sale,51.567594,-0.014507,49.0,2,1,1,2021-06-19,400000.0,0,0,1,Leyton,1047,1
18247,18247,Waltham Forest,2021-06-19,Coultons Estate Agents,1,"Warren Road, London E4",0,0,pre-owned,340000.0,maisonette,0,leasehold,2 bed maisonette for sale,51.6268,-0.004745,51.0,2,1,1,2021-06-19,340000.0,0,0,1,Woodford,2844,4
18248,18248,Waltham Forest,2021-06-18,The Stow Brothers,0,"Ferndale Road, London E11",0,0,pre-owned,335000.0,flat,0,Other,1 bed flat for sale,51.563312,0.012627,9.0,1,1,1,2021-06-18,335000.0,1,0,1,Leytonstone,587,13
18249,18249,Waltham Forest,2021-06-18,Central Estate Agents,0,"Phoenix Close, Walthamstow, London E17",0,0,pre-owned,575000.0,terraced,0,freehold,3 bed terraced house for sale,51.594877,-0.026225,87.0,3,0,0,2021-06-18,575000.0,1,0,1,Chesham,1169,0
18250,18250,Waltham Forest,2021-06-18,Central Estate Agents,0,"Brisbane Road, Leyton, London E10",0,0,pre-owned,425000.0,flat,0,leasehold,2 bed flat for sale,51.560896,-0.012491,74.0,2,1,1,2021-06-18,425000.0,1,0,0,Leyton,650,6
18251,18251,Waltham Forest,2021-06-18,Newlon Living,0,"5 Tower Mews, London E17",0,1,pre-owned,120000.0,flat,0,leasehold,2 bed flat for sale,51.584128,-0.019717,65.0,2,1,0,2021-06-18,120000.0,1,0,0,Walthamstow Central,258,24
18252,18252,Waltham Forest,2021-06-17,The Stow Brothers - E17,0,"Brettenham Road, London E17",0,0,pre-owned,425000.0,flat,0,leasehold,2 bed flat for sale,51.597408,-0.017482,65.0,2,1,1,2021-06-17,450000.0,0,0,1,Walthamstow Central,1429,1
18253,18253,Waltham Forest,2021-06-17,Central Estate Agents,1,"Brookdale Road, Walthamstow, London E17",0,0,pre-owned,800000.0,terraced,0,freehold,5 bed terraced house for sale,51.589103,-0.022924,121.0,5,2,2,2021-06-17,800000.0,1,0,1,Walthamstow Central,608,22
18254,18254,Waltham Forest,2021-06-16,Savills - Loughton,1,"Hamlet Gate, Sewardstone Road E4",0,0,new,585000.0,semi_detached,0,freehold,2 bed semi-detached house for sale,51.664299,-0.000709,102.0,2,2,2,2021-06-16,585000.0,0,1,1,Chesham,3763,2
18255,18255,Waltham Forest,2021-06-16,Keatons - Wanstead,1,"Trent Court, New Wanstead, London E11",0,0,pre-owned,425000.0,flat,0,Other,2 bed flat for sale,51.578747,0.021152,70.0,2,1,1,2021-06-16,425000.0,0,1,1,Snaresbrook,239,15
18256,18256,Waltham Forest,2021-06-16,L&Q - The Chain,1,"South Grove, London E17",0,1,new,497500.0,flat,0,leasehold,2 bed flat for sale,51.581398,-0.028426,72.0,2,2,0,2021-06-16,497500.0,0,0,1,Walthamstow Central,507,19
18257,18257,Waltham Forest,2021-06-16,L&Q - The Chain,1,"South Grove, London E17",0,1,new,495000.0,flat,0,leasehold,2 bed flat for sale,51.581398,-0.028426,72.0,2,2,0,2021-06-16,495000.0,0,0,1,Walthamstow Central,507,19
18258,18258,Waltham Forest,2021-06-16,L&Q - The Chain,1,"South Grove, London E17",0,1,new,365000.0,flat,0,leasehold,1 bed flat for sale,51.581398,-0.028426,50.0,1,1,0,2021-06-16,365000.0,0,0,1,Walthamstow Central,507,19
18259,18259,Waltham Forest,2021-06-16,L&Q - The Chain,1,"South Grove, London E17",0,1,new,382500.0,flat,0,leasehold,1 bed flat for sale,51.581398,-0.028426,50.0,1,1,0,2021-06-16,382500.0,0,0,1,Walthamstow Central,507,19
18260,18260,Waltham Forest,2021-06-16,L&Q at Blackhorse View,1,"Blackhorse Road, Walthamstow E17",0,1,new,432500.0,flat,0,leasehold,2 bed flat for sale,51.586884,-0.041873,1579.0,2,2,0,2021-06-16,432500.0,1,0,1,Blackhorse Road,63,4
18261,18261,Waltham Forest,2021-06-16,L&Q at Blackhorse View,1,"Blackhorse Road, Walthamstow E17",0,1,new,345000.0,flat,0,leasehold,1 bed flat for sale,51.586884,-0.041873,1579.0,1,1,0,2021-06-16,345000.0,1,0,1,Blackhorse Road,63,4
18262,18262,Waltham Forest,2021-06-16,The Stow Brothers - E17,0,"Essex Road, London E17",0,0,pre-owned,350000.0,flat,0,Other,1 bed flat for sale,51.577884,-0.037159,19.0,1,1,1,2021-06-16,360000.0,1,1,1,Blackhorse Road,999,12
18263,18263,Waltham Forest,2021-06-16,The Stow Brothers,1,"Gramer Close, London E11",0,0,pre-owned,500000.0,Other,0,leasehold,3 bed property for sale,51.561313,0.003325,14.0,3,1,1,2021-06-16,525000.0,1,1,1,Leytonstone,730,12
18264,18264,Waltham Forest,2021-06-16,The Stow Brothers,0,"Mornington Road, London E11",0,0,pre-owned,700000.0,terraced,0,Other,3 bed terraced house for sale,51.56948,0.014589,121.0,3,2,3,2021-06-16,715000.0,1,0,1,Leytonstone,402,18
18265,18265,Waltham Forest,2021-06-15,Estates 10 Ltd,0,"Beck Square, Leyton, London E10",0,0,pre-owned,350000.0,flat,0,leasehold,1 bed flat for sale,51.566532,-0.03482,51.0,1,1,1,2021-06-15,350000.0,1,0,1,Chesham,2018,2
18266,18266,Waltham Forest,2021-06-15,The Stow Brothers - E17,0,"Fleeming Road, London E17",0,0,pre-owned,450000.0,flat,0,Other,2 bed flat for sale,51.594799,-0.024919,16.0,2,1,1,2021-06-15,465000.0,0,0,1,Walthamstow Central,1114,1
18267,18267,Waltham Forest,2021-06-15,Barratt London - Blackhorse View,1,"""Alder Point"" at Forest Road, Walthamstow, London E17",0,0,new,421000.0,flat,0,leasehold,1 bed flat for sale,51.587982,-0.042966,50.0,1,1,1,2021-06-15,421000.0,1,0,1,Blackhorse Road,189,4
18268,18268,Waltham Forest,2021-06-14,Pioneer Property Group,1,"Walthamstow, London E17",0,0,new,570000.0,flat,0,leasehold,3 bed flat for sale,51.5887362009346,-0.0335723691588785,90.0,3,2,1,2021-06-14,570000.0,1,0,1,Blackhorse Road,517,9
18269,18269,Waltham Forest,2021-06-14,Pioneer Property Group,1,"Walthamstow, London E17",0,0,new,500000.0,flat,0,leasehold,2 bed flat for sale,51.5887362009346,-0.0335723691588785,66.0,2,2,1,2021-06-14,500000.0,1,0,1,Blackhorse Road,517,9
18270,18270,Waltham Forest,2021-06-14,Pioneer Property Group,1,"Walthamstow, London E17",0,0,new,401000.0,flat,0,leasehold,1 bed flat for sale,51.5887362009346,-0.0335723691588785,52.0,1,1,1,2021-06-14,401000.0,1,0,1,Blackhorse Road,517,9
18271,18271,Waltham Forest,2021-06-14,Estates 17 Ltd,1,"Bellamy Road, Highams Park, Chingford, London E4",0,0,pre-owned,275000.0,maisonette,0,leasehold,3 bed maisonette for sale,51.606887,-0.008771,74.0,3,1,1,2021-06-14,275000.0,1,0,0,Walthamstow Central,2482,2
18272,18272,Waltham Forest,2021-06-14,Castles - Hackney,1,"Homerton Road, London E9",0,0,pre-owned,350000.0,flat,0,leasehold,2 bed flat for sale,51.552052,-0.034051,61.0,2,2,2,2021-06-14,350000.0,0,0,0,Chesham,2066,6
18273,18273,Waltham Forest,2021-06-14,Allen Davies,1,"Vicarage Road, Leyton E10",0,0,pre-owned,950000.0,semi_detached,0,freehold,6 bed semi-detached house for sale,51.571226,-0.018173,168.0,6,4,2,2021-06-14,950000.0,0,1,1,Walthamstow Central,1215,9
18274,18274,Waltham Forest,2021-06-14,Estates 10 Ltd,0,"Lyndhurst Drive, Leyton, London E10",0,0,pre-owned,499995.0,flat,0,leasehold,2 bed flat for sale,51.572235,-0.002383,11.0,2,1,2,2021-06-14,499995.0,0,0,1,Leytonstone,823,2
18275,18275,Waltham Forest,2021-06-14,Estates 10 Ltd,1,"Primrose Road, Leyton, London E10",0,0,pre-owned,400000.0,flat,0,leasehold,2 bed flat for sale,51.565731,-0.016243,44.0,2,1,1,2021-06-14,400000.0,1,0,1,Leyton,1014,5
18276,18276,Waltham Forest,2021-06-12,The Stow Brothers - E17,0,"Thorpe Road, London E17",0,0,pre-owned,585000.0,end_terrace,0,leasehold,3 bed end terrace house for sale,51.595474,-0.008812,19.0,3,1,1,2021-06-12,600000.0,1,0,1,Walthamstow Central,1457,2
18277,18277,Waltham Forest,2021-06-11,April Properties,1,"Forest Drive East, London E11",0,0,pre-owned,380000.0,flat,0,Other,2 bed flat for sale,51.574018,0.002254,43.0,2,1,0,2021-06-11,380000.0,1,0,1,Leytonstone,803,1
18278,18278,Waltham Forest,2021-06-11,The Stow Brothers - E17,1,"Carnanton Road, London E17",0,0,pre-owned,575000.0,terraced,0,Other,3 bed terraced house for sale,51.595844,0.002108,111.0,3,1,1,2021-06-11,575000.0,1,0,1,Chesham,1806,0
18279,18279,Waltham Forest,2021-06-11,Butler & Stag,0,"The Ridgeway, London E4",0,0,pre-owned,1250000.0,Other,0,Other,6 bed property for sale,51.628421,-0.006226,279.0,6,3,3,2021-06-11,1250000.0,0,1,1,Woodford,3128,5
18280,18280,Waltham Forest,2021-06-11,The Stow Brothers,1,"Victory Road, London E11",0,0,pre-owned,400000.0,flat,0,leasehold,2 bed flat for sale,51.584438,0.028088,10.0,2,1,1,2021-06-11,410000.0,0,1,1,Chesham,894,4
18281,18281,Waltham Forest,2021-06-11,Central Estate Agents,0,"Crosbie House, Prospect Hill, Walthamstow, London E17",0,0,pre-owned,350000.0,flat,0,leasehold,2 bed flat for sale,51.587536,-0.009524,61.0,2,1,1,2021-06-11,350000.0,0,0,1,Walthamstow Central,740,10
18282,18282,Waltham Forest,2021-06-11,The Stow Brothers - E17,0,"West Avenue Road, London E17",0,0,pre-owned,335000.0,flat,0,Other,1 bed flat for sale,51.58451,-0.016667,14.0,1,1,1,2021-06-11,335000.0,0,1,1,Walthamstow Central,254,28
18283,18283,Waltham Forest,2021-06-10,Central Estate Agents,0,"Pretoria Avenue, Walthamstow, London E17",0,0,pre-owned,300000.0,flat,0,leasehold,1 bed flat for sale,51.581895,-0.033311,39.0,1,1,1,2021-06-10,300000.0,1,0,0,Blackhorse Road,693,14
18284,18284,Waltham Forest,2021-06-09,L&Q - The Chain,1,"South Grove, London E17",0,1,new,95625.0,flat,0,leasehold,1 bed flat for sale,51.581398,-0.028426,50.0,1,1,0,2021-06-09,95625.0,0,0,1,Walthamstow Central,507,19
18285,18285,Waltham Forest,2021-06-09,Next Home Ltd,0,"Shernhall Street, London E17",0,0,pre-owned,299995.0,flat,0,leasehold,1 bed flat for sale,51.58178,-0.003107,49.0,1,1,1,2021-06-09,299995.0,0,0,1,Walthamstow Central,1018,8
18286,18286,Waltham Forest,2021-06-09,The Stow Brothers - E17,1,"St. John's Road, London E17",0,0,pre-owned,700000.0,terraced,0,Other,4 bed terraced house for sale,51.593532,-0.008316,12.0,4,2,2,2021-06-09,725000.0,1,0,1,Walthamstow Central,1280,4
18287,18287,Waltham Forest,2021-06-09,The Stow Brothers - E17,0,"Hurst Road, London E17",0,0,pre-owned,750000.0,end_terrace,0,Other,5 bed end terrace house for sale,51.589366,-0.014761,130.0,5,2,2,2021-06-09,750000.0,1,0,1,Walthamstow Central,764,20
18288,18288,Waltham Forest,2021-06-08,Churchill Estates - Wanstead,1,"Victory Road, Wanstead, London E11",0,0,pre-owned,650000.0,terraced,0,freehold,2 bed terraced house for sale,51.584927,0.027233,60.0,2,1,1,2021-06-08,675000.0,0,1,1,Chesham,596,5
18289,18289,Waltham Forest,2021-06-08,Allen Davies,0,"Langthorne Road, Leytonstone E11",0,0,pre-owned,650000.0,Other,0,freehold,4 bed property for sale,51.556525,-0.001328,112.0,4,1,1,2021-06-08,675000.0,0,0,0,Leyton,360,14
18290,18290,Waltham Forest,2021-06-07,Estates 17 Ltd,0,"Douglas Avenue, Walthamstow, London E17",0,0,pre-owned,650000.0,terraced,0,leasehold,3 bed terraced house for sale,51.599018,-0.022731,96.0,3,1,1,2021-06-07,650000.0,1,0,1,Walthamstow Central,1455,1
18291,18291,Waltham Forest,2021-06-07,Linus Jackson Property Agent,0,"Millicent Road, London E10",0,0,pre-owned,625000.0,Other,0,Other,3 bed property for sale,51.569374,-0.026414,76.0,3,1,1,2021-06-07,625000.0,1,0,1,Walthamstow Central,1569,8
18292,18292,Waltham Forest,2021-06-07,Linus Jackson Property Agent,1,"Beulah Road, London E17",0,0,pre-owned,450000.0,flat,0,leasehold,2 bed flat for sale,51.581577,-0.010054,51.0,2,1,1,2021-06-07,475000.0,0,1,1,Walthamstow Central,663,16
18293,18293,Waltham Forest,2021-06-07,Central Estate Agents,0,"Rosebank Grove, Walthamstow, London E17",0,0,pre-owned,400000.0,flat,0,leasehold,2 bed flat for sale,51.589193,-0.027192,43.0,2,1,1,2021-06-07,425000.0,0,0,1,Walthamstow Central,815,15
18294,18294,Waltham Forest,2021-06-07,Kings Group - Walthamstow,1,"Radbourne Crescent, London E17",0,0,pre-owned,300000.0,Other,0,Other,2 bed property for sale,51.592132,-0.000105,17.0,2,1,1,2021-06-07,325000.0,0,0,0,Walthamstow Central,1556,7
18295,18295,Waltham Forest,2021-06-07,Allen Davies,1,"Mornington Road, Leytonstone E11",0,0,pre-owned,675000.0,Other,0,freehold,3 bed property for sale,51.569379,0.014272,107.0,3,1,1,2021-06-07,675000.0,0,0,1,Leytonstone,402,18
18296,18296,Waltham Forest,2021-06-07,Allen Davies,1,"Leigh Road, London E10",0,0,pre-owned,425000.0,flat,0,share_of_freehold,3 bed flat for sale,51.569905,-0.004969,57.0,3,1,1,2021-06-07,450000.0,0,0,0,Chesham,818,3
18297,18297,Waltham Forest,2021-06-07,Allen Davies,1,"Elsham Road, Leytonstone E11",0,0,pre-owned,525000.0,Other,0,freehold,2 bed property for sale,51.55573,0.007984,75.0,2,1,1,2021-06-07,525000.0,0,0,1,Chesham,978,15
18298,18298,Waltham Forest,2021-06-06,Audrey Yombo Real Estate,0,"Colchester Road, London E10",0,0,pre-owned,650000.0,terraced,0,freehold,4 bed terraced house for sale,51.572766,-0.005551,164.0,4,3,2,2021-06-06,650000.0,1,0,1,Leytonstone,1031,11
18299,18299,Waltham Forest,2021-06-05,Linus Jackson Property Agent,0,"Cann Hall Road, London E11",0,0,pre-owned,240000.0,flat,0,leasehold,1 bed flat for sale,51.552902,0.006244,37.0,1,1,1,2021-06-05,260000.0,0,0,0,Leyton,876,12
18300,18300,Waltham Forest,2021-06-05,Barratt London - Blackhorse View,1,"""Alder Point"" at Forest Road, Walthamstow, London E17",0,0,new,406000.0,flat,0,leasehold,1 bed flat for sale,51.587982,-0.042966,52.0,1,1,1,2021-06-05,406000.0,1,0,1,Blackhorse Road,189,4
18301,18301,Waltham Forest,2021-06-04,Countryside - Feature17,1,"Wood Street, Walthamstow E17",0,0,new,520000.0,flat,0,leasehold,2 bed flat for sale,51.5873,-0.00277,84.0,2,2,0,2021-06-04,515000.0,1,0,0,Walthamstow Central,992,10
18302,18302,Waltham Forest,2021-06-04,Countryside - Feature17,1,"Wood Street, Walthamstow E17",0,0,new,410000.0,flat,0,leasehold,1 bed flat for sale,51.5873,-0.00277,51.0,1,1,0,2021-06-04,405000.0,1,0,0,Walthamstow Central,992,10
18303,18303,Waltham Forest,2021-06-04,Central Estate Agents,1,"Thomas Jacomb Place, Walthamstow, London E17",0,0,pre-owned,300000.0,flat,0,leasehold,1 bed flat for sale,51.586865,-0.029852,43.0,1,1,1,2021-06-04,325000.0,0,0,0,Chesham,745,12
18304,18304,Waltham Forest,2021-06-04,Abidins Limited,0,"Harold Road, Chingford E4",0,0,pre-owned,650000.0,semi_detached,0,freehold,4 bed semi-detached house for sale,51.620635,-0.005114,150.0,4,1,2,2021-06-04,650000.0,0,0,1,Chesham,2569,1
18305,18305,Waltham Forest,2021-06-04,Central Estate Agents,0,"Clarendon Road, Walthamstow, London E17",0,0,pre-owned,675000.0,terraced,0,freehold,4 bed terraced house for sale,51.577385,-0.014043,131.0,4,1,2,2021-06-04,675000.0,0,0,1,Walthamstow Central,698,17
18306,18306,Waltham Forest,2021-06-04,The Stow Brothers - E17,0,"Luther King Close, London E17",0,0,pre-owned,275000.0,flat,0,Other,1 bed flat for sale,51.574638,-0.031992,14.0,1,1,1,2021-06-04,275000.0,0,1,1,Walthamstow Central,1188,3
18307,18307,Waltham Forest,2021-06-04,The Stow Brothers - E17,1,"Grove Road, London E17",0,0,pre-owned,375000.0,flat,0,leasehold,2 bed flat for sale,51.579151,-0.007118,10.0,2,1,1,2021-06-04,375000.0,0,1,0,Walthamstow Central,915,24
18308,18308,Waltham Forest,2021-06-03,The Stow Brothers E4,0,"York Road, London E4",0,0,pre-owned,450000.0,end_terrace,0,Other,2 bed end terrace house for sale,51.615005,-0.022089,46.0,2,1,1,2021-06-03,475000.0,1,1,1,Walthamstow Central,2967,15
18309,18309,Waltham Forest,2021-06-03,Estates 10 Ltd,1,"High Road Leyton, Leyton, London E10",0,0,pre-owned,275000.0,flat,0,leasehold,1 bed flat for sale,51.565902,-0.010467,41.0,1,1,1,2021-06-03,275000.0,0,0,0,Leyton,842,5
18310,18310,Waltham Forest,2021-06-03,Estates 10 Ltd,1,"Leigh Road, Leyton, London E10",0,0,pre-owned,375000.0,flat,0,leasehold,3 bed flat for sale,51.569461,-0.004662,85.0,3,1,1,2021-06-03,375000.0,0,0,0,Chesham,780,2
18311,18311,Waltham Forest,2021-06-03,Peabody,1,"Lea Bridge Road, London E10",0,1,new,110000.0,flat,0,leasehold,2 bed flat for sale,51.566766,-0.03435,76.0,2,1,0,2021-06-03,110000.0,1,0,1,Chesham,1989,2
18312,18312,Waltham Forest,2021-06-02,The Stow Brothers - E17,0,"Higham Hill Road, London E17",0,0,pre-owned,535000.0,terraced,0,leasehold,3 bed terraced house for sale,51.594749,-0.034602,93.0,3,2,2,2021-06-02,550000.0,0,0,1,Blackhorse Road,923,6
18313,18313,Waltham Forest,2021-06-02,The Stow Brothers - E17,0,"Winns Avenue, London E17",0,0,pre-owned,550000.0,flat,0,leasehold,3 bed flat for sale,51.592201,-0.025138,14.0,3,2,1,2021-06-02,550000.0,1,0,1,Walthamstow Central,918,10
18314,18314,Waltham Forest,2021-06-01,Lifestyle Property,0,"Courtenay Road, Walthamstow, London E17",0,0,pre-owned,240000.0,flat,1,leasehold,1 bed flat for sale,51.583914,-0.038999,50.0,1,0,0,2021-06-01,260000.0,0,1,1,Blackhorse Road,469,12
18315,18315,Waltham Forest,2021-06-01,Petty Son & Prestwich,1,"Kingsley Grange, The Rise, London E11",0,0,pre-owned,567000.0,flat,0,Other,2 bed flat for sale,51.5806,0.019207,68.0,2,1,1,2021-06-01,567000.0,0,0,1,Snaresbrook,440,5
18316,18316,Waltham Forest,2021-05-28,Churchill Estates - Walthamstow,0,"Blackhorse Road, Walthamstow, London E17",0,0,pre-owned,700000.0,terraced,0,freehold,3 bed terraced house for sale,51.582313,-0.034955,130.0,3,2,3,2021-05-28,750000.0,0,0,1,Blackhorse Road,583,15
18317,18317,Waltham Forest,2021-05-28,Countryside - Feature17,1,"Wood Street, Walthamstow E17",0,0,new,404000.0,flat,0,leasehold,1 bed flat for sale,51.5873,-0.00277,50.0,1,1,0,2021-05-28,399000.0,1,1,0,Walthamstow Central,992,10
18318,18318,Waltham Forest,2021-05-28,Red Loft - Centenary House,1,"Lena Kennedy Close, Waltham Forest E4",0,1,new,460000.0,flat,0,leasehold,3 bed flat for sale,51.608506,-0.007393,72.0,3,2,0,2021-05-28,460000.0,0,0,1,Walthamstow Central,2658,10
18319,18319,Waltham Forest,2021-05-28,Red Loft - Centenary House,1,"Lena Kennedy Close, Waltham Forest E4",0,1,new,415000.0,flat,0,leasehold,2 bed flat for sale,51.6107049271255,-0.0047184939271255,72.0,2,1,0,2021-05-28,415000.0,0,0,1,Chesham,2683,14
18320,18320,Waltham Forest,2021-05-28,Red Loft - Centenary House,1,"Lena Kennedy Close, Waltham Forest E4",0,1,new,310000.0,flat,0,leasehold,1 bed flat for sale,51.6107049271255,-0.0047184939271255,51.0,1,1,0,2021-05-28,310000.0,0,0,1,Chesham,2683,14
18321,18321,Waltham Forest,2021-05-28,The Stow Brothers,0,"New Wanstead, London E11",0,0,pre-owned,625000.0,cottage,0,leasehold,2 bed cottage for sale,51.576774,0.020084,8.0,2,1,1,2021-05-28,640000.0,1,0,1,Snaresbrook,393,6
18322,18322,Waltham Forest,2021-05-27,Central Estate Agents,0,"Essex Road, Leyton, London E10",0,0,pre-owned,775000.0,terraced,0,freehold,3 bed terraced house for sale,51.577216,-0.004447,114.0,3,1,1,2021-05-27,775000.0,1,0,1,Leytonstone,1077,17
18323,18323,Waltham Forest,2021-05-27,The Stow Brothers - E17,0,"Essex Close, London E17",0,0,pre-owned,365000.0,flat,0,Other,2 bed flat for sale,51.586948,-0.037077,18.0,2,1,1,2021-05-27,365000.0,0,0,1,Blackhorse Road,396,10
18324,18324,Waltham Forest,2021-05-27,The Stow Brothers,0,"Osprey Close, London E11",0,0,pre-owned,300000.0,flat,0,Other,1 bed flat for sale,51.587341,0.025962,15.0,1,1,1,2021-05-27,300000.0,0,1,1,Chesham,786,5
18325,18325,Waltham Forest,2021-05-27,Estates 17 Ltd,0,"Copeland Road, Walthamstow, London E17",0,0,pre-owned,385000.0,flat,0,leasehold,2 bed flat for sale,51.578655,-0.011908,50.0,2,1,1,2021-05-27,400000.0,0,0,0,Walthamstow Central,696,26
18326,18326,Waltham Forest,2021-05-27,The Stow Brothers - E17,0,"Railway Arches, Boundary Road, London E17",0,0,pre-owned,395000.0,flat,0,leasehold,2 bed flat for sale,51.576213,-0.015946,56.0,2,1,1,2021-05-27,395000.0,0,0,0,Walthamstow Central,648,18
18327,18327,Waltham Forest,2021-05-27,Central Estate Agents,1,"Grange Park Road, Leyton, London E10",0,0,pre-owned,325000.0,flat,0,leasehold,1 bed flat for sale,51.566723,-0.015527,54.0,1,1,1,2021-05-27,325000.0,0,0,0,Leyton,985,3
18328,18328,Waltham Forest,2021-05-27,Estates 17 Ltd,0,"Bank Court, Shernhall Street, Walthamstow, London E17",0,0,pre-owned,400000.0,flat,0,leasehold,2 bed flat for sale,51.587589,-0.008109,61.0,2,1,1,2021-05-27,425000.0,1,1,1,Walthamstow Central,803,11
18329,18329,Waltham Forest,2021-05-26,The Stow Brothers - E17,0,"Clementina Road, London E10",0,0,pre-owned,415000.0,flat,0,Other,2 bed flat for sale,51.566726,-0.028834,16.0,2,1,1,2021-05-26,425000.0,1,0,1,Walthamstow Central,1900,6
18330,18330,Waltham Forest,2021-05-25,The Stow Brothers - E17,0,"Grove Road, London E17",0,0,pre-owned,325000.0,flat,0,Other,2 bed flat for sale,51.579078,-0.011643,12.0,2,1,1,2021-05-25,325000.0,1,0,0,Walthamstow Central,675,23
18331,18331,Waltham Forest,2021-05-25,The Stow Brothers,0,"Goodall Road, London E11",0,0,pre-owned,770000.0,terraced,0,leasehold,5 bed terraced house for sale,51.556495,-0.005061,149.0,5,2,2,2021-05-25,800000.0,1,0,1,Leyton,87,7
18332,18332,Waltham Forest,2021-05-25,Barratt London - Blackhorse View,1,"""Alder Point"" at Forest Road, Walthamstow, London E17",0,0,new,519000.0,flat,0,leasehold,2 bed flat for sale,51.587982,-0.042966,78.0,2,2,1,2021-05-25,519000.0,1,0,1,Blackhorse Road,189,4
18333,18333,Waltham Forest,2021-05-24,William Rose Woodford,0,"The Drive, North Chingford, London E4",0,0,pre-owned,1500000.0,detached,0,Other,5 bed detached house for sale,51.632999,0.005638,288.0,5,2,3,2021-05-24,1500000.0,1,1,1,Chesham,2714,16
18334,18334,Waltham Forest,2021-05-24,"Purplebricks, Head Office",0,"80 Ruckholt Road, Leyton E10",0,0,pre-owned,450000.0,flat,0,leasehold,2 bed flat for sale,51.557286,-0.011696,72.0,2,2,1,2021-05-24,450000.0,1,0,1,Leyton,429,7
18335,18335,Waltham Forest,2021-05-24,Strike,0,"Norman Road, London E11",0,0,pre-owned,385000.0,flat,0,share_of_freehold,2 bed flat for sale,51.56334,0.005217,53.0,2,1,1,2021-05-24,385000.0,1,0,1,Leytonstone,550,16
18336,18336,Waltham Forest,2021-05-24,Central Estate Agents,1,"Pentire Road, Walthamstow, London E17",0,0,pre-owned,665000.0,end_terrace,0,freehold,4 bed end terrace house for sale,51.597962,0.001092,143.0,4,3,2,2021-05-24,665000.0,0,0,1,Walthamstow Central,1912,2
18337,18337,Waltham Forest,2021-05-23,Hunters - Stoke Newington,1,"Riverside Close, London E5",0,0,pre-owned,350000.0,flat,0,Other,1 bed flat for sale,51.565807,-0.048955,43.0,1,0,0,2021-05-23,350000.0,0,1,1,Chesham,2267,2
18338,18338,Waltham Forest,2021-05-21,Keatons - Wanstead,0,"Bourne Court, New Wanstead, London E11",0,0,pre-owned,425000.0,flat,0,leasehold,2 bed flat for sale,51.578302,0.020887,73.0,2,1,1,2021-05-21,425000.0,0,0,0,Snaresbrook,278,12
18339,18339,Waltham Forest,2021-05-21,Red Loft - Pixel at Feature 17,1,"Troubridge Square, Walthamstow E17",0,1,new,113125.0,flat,0,leasehold,2 bed flat for sale,51.587937,-0.005074,7.0,2,2,1,2021-05-21,113125.0,0,0,0,Walthamstow Central,957,11
18340,18340,Waltham Forest,2021-05-21,Petty Son & Prestwich,1,"Fillebrook Road, London E11",0,0,pre-owned,470000.0,flat,0,leasehold,2 bed flat for sale,51.567298,0.004191,86.0,2,1,1,2021-05-21,500000.0,0,1,1,Leytonstone,375,11
18341,18341,Waltham Forest,2021-05-21,Central Estate Agents,0,"Croft House, St Mary Road, Walthamstow, London E17",0,0,pre-owned,425000.0,flat,0,share_of_freehold,1 bed flat for sale,51.584061,-0.014598,47.0,1,1,1,2021-05-21,425000.0,0,1,1,Walthamstow Central,272,28
18342,18342,Waltham Forest,2021-05-21,Central Estate Agents,0,"Church Hill Road, Walthamstow, London E17",0,0,pre-owned,350000.0,flat,0,leasehold,2 bed flat for sale,51.586589,-0.009868,63.0,2,1,1,2021-05-21,350000.0,1,0,0,Walthamstow Central,682,17
18343,18343,Waltham Forest,2021-05-20,Central Estate Agents,1,"Springfield Road, Walthamstow, London E17",0,0,pre-owned,575000.0,terraced,0,freehold,4 bed terraced house for sale,51.576968,-0.030696,104.0,4,1,2,2021-05-20,575000.0,0,0,1,Walthamstow Central,944,6
18344,18344,Waltham Forest,2021-05-20,Central Estate Agents,1,"Mansfield Road, Walthamstow, London E17",0,0,pre-owned,750000.0,terraced,0,freehold,5 bed terraced house for sale,51.585275,-0.027811,127.0,5,2,2,2021-05-20,750000.0,0,0,1,Walthamstow Central,616,20
18345,18345,Waltham Forest,2021-05-20,The Stow Brothers E4,1,"Marlborough Road, London E4",0,0,pre-owned,795000.0,terraced,0,Other,5 bed terraced house for sale,51.60733,-0.015363,232.0,5,3,1,2021-05-20,800000.0,1,0,1,Walthamstow Central,2194,3
18346,18346,Waltham Forest,2021-05-20,Century 21 - Walthamstow,0,"Salcombe Road, London E17",0,0,pre-owned,650000.0,flat,0,Other,5 bed flat for sale,51.571341,-0.024696,147.0,5,3,1,2021-05-20,600000.0,1,1,1,Walthamstow Central,1356,5
18347,18347,Waltham Forest,2021-05-19,The Stow Brothers - E17,0,"Belmont Park Road, London E10",0,0,pre-owned,565000.0,end_terrace,0,Other,4 bed end terrace house for sale,51.575759,-0.010804,93.0,4,2,1,2021-05-19,585000.0,1,0,1,Walthamstow Central,910,18
18348,18348,Waltham Forest,2021-05-19,Peach Properties,0,"Roberts Road, Walthamstow E17",0,0,pre-owned,515000.0,terraced,0,Other,3 bed terraced house for sale,51.598201,-0.014663,84.0,3,1,2,2021-05-19,525000.0,1,0,1,Walthamstow Central,1455,3
18349,18349,Waltham Forest,2021-05-18,L&Q - The Chain,1,"South Grove, London E17",0,1,new,92500.0,flat,0,leasehold,1 bed flat for sale,51.581398,-0.028426,56.0,1,1,0,2021-05-18,92500.0,0,0,1,Walthamstow Central,507,19
18350,18350,Waltham Forest,2021-05-18,L&Q - The Chain,1,"South Grove, London E17",0,1,new,124375.0,flat,0,leasehold,2 bed flat for sale,51.581398,-0.028426,72.0,2,2,0,2021-05-18,124375.0,0,0,1,Walthamstow Central,507,19
18351,18351,Waltham Forest,2021-05-18,Estates 17 Ltd,1,"Salisbury Road, Walthamstow, London E17",0,0,pre-owned,1200000.0,detached,0,leasehold,4 bed detached house for sale,51.579299,-0.007469,160.0,4,3,1,2021-05-18,1200000.0,0,0,1,Walthamstow Central,928,23
18352,18352,Waltham Forest,2021-05-17,The Stow Brothers - E17,1,"Howard Road, London E17",0,0,pre-owned,475000.0,flat,0,Other,2 bed flat for sale,51.589435,-0.016392,60.0,2,1,1,2021-05-17,475000.0,0,0,1,Walthamstow Central,686,18
18353,18353,Waltham Forest,2021-05-17,Allen Davies,0,"Elm Road, Leytonstone E11",0,0,pre-owned,450000.0,Other,0,freehold,2 bed property for sale,51.561746,-0.002715,45.0,2,1,1,2021-05-17,500000.0,0,0,1,Leyton,615,5
18354,18354,Waltham Forest,2021-05-17,Butler & Stag,0,"Mill Lane, London E4",0,0,pre-owned,1500000.0,Other,0,Other,4 bed property for sale,51.653793,-0.00813,279.0,4,2,3,2021-05-17,1500000.0,1,0,0,Buckhurst Hill,4406,0
18355,18355,Waltham Forest,2021-05-17,Estates 10 Ltd,0,"High Road Leyton, Leyton, London E10",0,0,pre-owned,450000.0,flat,0,leasehold,2 bed flat for sale,51.563694,-0.010986,62.0,2,1,1,2021-05-17,450000.0,1,1,1,Leyton,663,6
18356,18356,Waltham Forest,2021-05-17,Estates 10 Ltd,0,"High Road Leyton, Leyton, London E10",0,0,pre-owned,450000.0,flat,0,leasehold,2 bed flat for sale,51.56332,-0.010594,63.0,2,1,1,2021-05-17,450000.0,1,1,1,Leyton,631,6
18357,18357,Waltham Forest,2021-05-14,Century 21 - Walthamstow,0,"Cooper Avenue, London E17",0,0,pre-owned,550000.0,terraced,0,leasehold,5 bed terraced house for sale,51.600731,-0.037462,118.0,5,3,2,2021-05-14,550000.0,0,0,1,Blackhorse Road,1356,1
18358,18358,Waltham Forest,2021-05-13,The Stow Brothers - E17,0,"Wadham Road, London E17",0,0,pre-owned,650000.0,terraced,0,leasehold,5 bed terraced house for sale,51.600681,-0.0068,163.0,5,2,1,2021-05-13,650000.0,1,1,1,Walthamstow Central,2065,3
18359,18359,Waltham Forest,2021-05-13,Barratt London - Blackhorse View,1,"""Alder Point"" at Forest Road, Walthamstow, London E17",0,0,new,524000.0,flat,0,leasehold,2 bed flat for sale,51.587982,-0.042966,78.0,2,2,1,2021-05-13,524000.0,1,0,1,Blackhorse Road,189,4
18360,18360,Waltham Forest,2021-05-12,Petty Son & Prestwich,0,"New Wanstead, London E11",0,0,pre-owned,415000.0,flat,0,Other,2 bed flat for sale,51.574298,0.017487,64.0,2,1,1,2021-05-12,425000.0,1,1,1,Snaresbrook,645,7
18361,18361,Waltham Forest,2021-05-12,Barratt London - Blackhorse View,1,"""Alder Point"" at Forest Road, Walthamstow, London E17",0,0,new,517000.0,flat,0,leasehold,2 bed flat for sale,51.587982,-0.042966,72.0,2,2,1,2021-05-12,517000.0,1,0,1,Blackhorse Road,189,4
18362,18362,Waltham Forest,2021-05-10,Central Estate Agents,0,"Shernhall Street, Walthamstow, London E17",0,0,pre-owned,375000.0,flat,0,leasehold,2 bed flat for sale,51.587744,-0.008121,70.0,2,1,1,2021-05-10,415000.0,0,0,0,Walthamstow Central,815,11
18363,18363,Waltham Forest,2021-05-10,The Stow Brothers E4,0,"Jubilee Avenue, London E4",0,0,pre-owned,415000.0,flat,0,leasehold,2 bed flat for sale,51.608676,-0.003284,9.0,2,2,1,2021-05-10,415000.0,1,0,1,Chesham,2382,16
18364,18364,Waltham Forest,2021-05-10,The Stow Brothers,0,"New Wanstead, London E11",0,0,pre-owned,430000.0,flat,0,Other,2 bed flat for sale,51.578754,0.021651,74.0,2,1,1,2021-05-10,440000.0,0,0,0,Snaresbrook,220,15
18365,18365,Waltham Forest,2021-05-08,Key Property Consultants,0,"Vicarage Road, London E10",0,0,pre-owned,400000.0,flat,0,leasehold,2 bed flat for sale,51.567594,-0.014507,49.0,2,1,1,2021-05-08,400000.0,0,0,1,Leyton,1047,1
18366,18366,Waltham Forest,2021-05-07,Hunter Realty,0,"Tansy House Forest Road, Walthamstow, London E17",0,0,pre-owned,407000.0,flat,0,leasehold,1 bed flat for sale,51.587982,-0.042966,51.0,1,1,1,2021-05-07,404000.0,1,0,1,Blackhorse Road,189,4
18367,18367,Waltham Forest,2021-05-07,Allen Davies,0,"Chesterfield Road, Leyton, London E10",0,0,pre-owned,625000.0,terraced,0,freehold,3 bed terraced house for sale,51.573934,-0.006539,109.0,3,2,1,2021-05-07,625000.0,0,0,1,Chesham,1128,17
18368,18368,Waltham Forest,2021-05-06,Strike,0,"Kings Head Hill, London E4",0,0,pre-owned,275000.0,flat,0,leasehold,1 bed flat for sale,51.634576,-0.009435,53.0,1,1,1,2021-05-06,300000.0,1,1,0,Woodford,3461,1
18369,18369,Waltham Forest,2021-05-05,The Stow Brothers E4,0,"Hickman Avenue, London E4",0,0,pre-owned,450000.0,flat,0,leasehold,2 bed flat for sale,51.609546,-0.006138,75.0,2,2,1,2021-05-05,450000.0,1,1,1,Chesham,2624,14
18370,18370,Waltham Forest,2021-05-04,Portico - Walthamstow,0,"Papermill Place, London E17",0,0,pre-owned,350000.0,flat,0,leasehold,2 bed flat for sale,51.592367,-0.036888,57.0,2,0,0,2021-05-04,375000.0,1,1,0,Blackhorse Road,654,13
18371,18371,Waltham Forest,2021-05-04,The Stow Brothers - E17,1,"Francis Road, London E10",0,0,pre-owned,425000.0,flat,0,Other,2 bed flat for sale,51.564338,-0.006374,65.0,2,1,1,2021-05-04,425000.0,1,0,1,Leyton,784,7
18372,18372,Waltham Forest,2021-05-04,The Stow Brothers - E17,1,"Fulbourne Road, London E17",0,0,pre-owned,560000.0,terraced,0,Other,3 bed terraced house for sale,51.59943,-0.0074,14.0,3,1,1,2021-05-04,575000.0,0,0,1,Walthamstow Central,1814,3
18373,18373,Waltham Forest,2021-05-01,DCS Residential,1,"Ellen Miller House, Raglan Road, London E17",0,0,pre-owned,349950.0,flat,0,leasehold,3 bed flat for sale,51.580933,-0.003043,72.0,3,1,1,2021-05-01,349950.0,1,1,1,Walthamstow Central,1061,12
18374,18374,Waltham Forest,2021-04-30,Linus Jackson Property Agent,0,"High Road Leyton, London E10",0,0,pre-owned,435000.0,flat,0,Other,2 bed flat for sale,51.568569,-0.008459,73.0,2,2,1,2021-04-30,435000.0,0,0,1,Chesham,1074,0
18375,18375,Waltham Forest,2021-04-30,Estates 17 Ltd,1,"Beulah Road, Walthamstow, London E17",0,0,pre-owned,925000.0,terraced,0,leasehold,3 bed terraced house for sale,51.581146,-0.010216,131.0,3,1,2,2021-04-30,925000.0,1,0,1,Walthamstow Central,680,18
18376,18376,Waltham Forest,2021-04-30,Bairstow Eves - Wanstead Sales,0,"Queenswood Gardens, London E11",0,0,pre-owned,240000.0,flat,0,Other,1 bed flat for sale,51.564144,0.026305,33.0,1,1,1,2021-04-30,240000.0,0,1,1,Wanstead,1368,0
18377,18377,Waltham Forest,2021-04-29,Hunters - Stoke Newington,0,"Riverside Close, London E5",0,0,pre-owned,775000.0,terraced,0,leasehold,3 bed terraced house for sale,51.565361,-0.049176,74.0,3,0,0,2021-04-29,800000.0,0,1,1,Chesham,2324,2
18378,18378,Waltham Forest,2021-04-29,Savills - Loughton,0,"Forest Avenue, London E4",0,0,pre-owned,1775000.0,Other,0,freehold,5 bed property for sale,51.6338,0.012775,286.0,5,3,4,2021-04-29,1950000.0,1,1,1,Chesham,2119,13
18379,18379,Waltham Forest,2021-04-29,Central Estate Agents,0,"Thornhill Road, Leyton, London E10",0,0,pre-owned,675000.0,end_terrace,0,freehold,3 bed end terrace house for sale,51.561947,-0.01417,159.0,3,2,3,2021-04-29,675000.0,0,0,1,Leyton,863,6
18380,18380,Waltham Forest,2021-04-29,Central Estate Agents,0,"Queens Road, Walthamstow, London E17",0,0,pre-owned,300000.0,flat,0,leasehold,1 bed flat for sale,51.578359,-0.023731,34.0,1,1,1,2021-04-29,325000.0,0,0,1,Walthamstow Central,598,8
18381,18381,Waltham Forest,2021-04-28,The Stow Brothers E4,0,"Wickham Road, London E4",0,0,pre-owned,625000.0,terraced,0,Other,4 bed terraced house for sale,51.604751,-0.005413,21.0,4,2,1,2021-04-28,625000.0,0,0,1,Walthamstow Central,2336,18
18382,18382,Waltham Forest,2021-04-26,Allen Davies,1,"Grange Park Road, Leyton E10",0,0,pre-owned,275000.0,flat,0,leasehold,2 bed flat for sale,51.565454,-0.01398,40.0,2,1,1,2021-04-26,300000.0,0,0,0,Leyton,860,5
18383,18383,Waltham Forest,2021-04-23,Kings Group - Walthamstow,1,"Bedford Road, London E17",0,0,pre-owned,300000.0,flat,0,Other,1 bed flat for sale,51.592929,-0.018384,37.0,1,1,1,2021-04-23,300000.0,0,0,1,Walthamstow Central,916,7
18384,18384,Waltham Forest,2021-04-23,Keller Williams Prime Properties,1,"Hibiscus House, Walthamstow E17",0,0,pre-owned,425000.0,flat,0,leasehold,2 bed flat for sale,51.587358,-0.01224,82.0,2,1,1,2021-04-23,425000.0,1,0,0,Walthamstow Central,649,12
18385,18385,Waltham Forest,2021-04-22,Estates 10 Ltd,0,"Francis Road, Leyton, London E10",0,0,pre-owned,425000.0,maisonette,0,leasehold,2 bed maisonette for sale,51.56282,-0.00425,53.0,2,2,1,2021-04-22,425000.0,0,0,1,Leyton,656,9
18386,18386,Waltham Forest,2021-04-21,Estates 10 Ltd,0,"Francis Road, Leyton, London E10",0,0,pre-owned,325000.0,flat,0,leasehold,1 bed flat for sale,51.562274,-0.003529,59.0,1,1,1,2021-04-21,350000.0,0,0,0,Leyton,606,8
18387,18387,Waltham Forest,2021-04-19,Allen Davies,1,"Ashville Road, Leytonstone E11",0,0,pre-owned,675000.0,terraced,0,freehold,4 bed terraced house for sale,51.561857,-0.000228,91.0,4,2,1,2021-04-19,700000.0,0,0,1,Leyton,619,7
18388,18388,Waltham Forest,2021-04-19,Estates 10 Ltd,1,"Clementina Road, Leyton, London E10",0,0,pre-owned,425000.0,flat,0,leasehold,2 bed flat for sale,51.566764,-0.0279,72.0,2,1,1,2021-04-19,425000.0,0,0,1,Walthamstow Central,1875,7
18389,18389,Waltham Forest,2021-04-16,Newlon Living - Nest,1,"Siskin Apartments, Dunedin Road, London E10",0,1,new,131250.0,flat,0,leasehold,3 bed flat for sale,51.557341,-0.013942,9.0,3,2,0,2021-04-16,131250.0,1,1,0,Leyton,555,4
18390,18390,Waltham Forest,2021-04-16,Newlon Living - Nest,1,"Siskin Apartment, Dunedin Road, London E10",0,1,new,128750.0,flat,0,leasehold,3 bed flat for sale,51.557341,-0.013942,9.0,3,2,0,2021-04-16,128750.0,1,1,0,Leyton,555,4
18391,18391,Waltham Forest,2021-04-16,L&Q - The Chain,1,"South Grove, London E17",0,1,new,124375.0,flat,0,leasehold,2 bed flat for sale,51.581398,-0.028426,72.0,2,2,0,2021-04-16,124375.0,0,0,1,Walthamstow Central,507,19
18392,18392,Waltham Forest,2021-04-16,The Stow Brothers E4,1,"New Road, London E4",0,0,pre-owned,299999.0,flat,0,leasehold,2 bed flat for sale,51.617935,-0.009445,53.0,2,1,1,2021-04-16,315000.0,1,0,0,Chesham,2626,4
18393,18393,Waltham Forest,2021-04-16,The Stow Brothers,1,"Belgrave Road, London E11",0,0,pre-owned,365000.0,flat,0,leasehold,3 bed flat for sale,51.566101,0.022284,70.0,3,2,1,2021-04-16,365000.0,0,1,0,Chesham,925,2
18394,18394,Waltham Forest,2021-04-16,The Stow Brothers - E17,1,"Grove Road, London E17",0,0,pre-owned,140000.0,studio,0,Other,Studio for sale,51.579158,-0.010367,22.0,0,1,1,2021-04-16,160000.0,0,0,1,Walthamstow Central,740,23
18395,18395,Waltham Forest,2021-04-15,Newlon Living - Nest,1,"Siskin Apartments, Dunedin Road, London E10",0,1,new,127500.0,flat,0,leasehold,3 bed flat for sale,51.557341,-0.013942,9.0,3,2,0,2021-04-15,127500.0,1,1,0,Leyton,555,4
18396,18396,Waltham Forest,2021-04-15,Barratt London - Blackhorse View,1,"""Alder Point"" at Forest Road, Walthamstow, London E17",0,0,new,514000.0,flat,0,leasehold,2 bed flat for sale,51.587982,-0.042966,78.0,2,2,1,2021-04-15,514000.0,1,0,1,Blackhorse Road,189,4
18397,18397,Waltham Forest,2021-04-14,Strike,1,"Lyndhurst Drive, London E10",0,0,pre-owned,350000.0,flat,0,leasehold,2 bed flat for sale,51.572217,-0.002962,40.0,2,1,1,2021-04-14,350000.0,0,0,0,Leytonstone,850,2
18398,18398,Waltham Forest,2021-04-14,Central Estate Agents,0,"Shernhall Street, Walthamstow, London E17",0,0,pre-owned,575000.0,detached,0,freehold,3 bed detached house for sale,51.579708,-0.005868,76.0,3,1,1,2021-04-14,675000.0,0,0,1,Walthamstow Central,1003,20
18399,18399,Waltham Forest,2021-04-14,Newlon Living - Nest,1,"Linnet House, Dunedin Road, London E10",0,1,new,107500.0,flat,0,leasehold,2 bed flat for sale,51.557464,-0.013628,74.0,2,2,0,2021-04-14,107500.0,1,1,0,Leyton,537,4
18400,18400,Waltham Forest,2021-04-14,Newlon Living - Nest,1,"Linnet House, Dunedin Road, London E10",0,1,new,108750.0,flat,0,leasehold,2 bed flat for sale,51.557464,-0.013628,74.0,2,2,0,2021-04-14,108750.0,1,1,0,Leyton,537,4
18401,18401,Waltham Forest,2021-04-14,Nested Ltd,1,"Mornington Road, Leytonstone, London E11",0,0,pre-owned,350000.0,flat,0,share_of_freehold,2 bed flat for sale,51.569379,0.014272,57.0,2,0,0,2021-04-14,350000.0,0,0,0,Leytonstone,402,18
18402,18402,Waltham Forest,2021-04-14,Butler & Stag,0,"Endlebury Road, London E4",0,0,pre-owned,800000.0,Other,0,Other,5 bed property for sale,51.624179,-0.000609,158.0,5,2,2,2021-04-14,900000.0,0,1,1,Woodford,2530,0
18403,18403,Waltham Forest,2021-04-14,Central Estate Agents,1,"Moreno House, Marlowe Road, Walthamstow, London E17",0,0,new,375000.0,flat,0,leasehold,1 bed flat for sale,51.587636,-0.004958,50.0,1,1,1,2021-04-14,375000.0,1,0,0,Walthamstow Central,978,11
18404,18404,Waltham Forest,2021-04-14,The Stow Brothers - E17,0,"Beresford Road, London E17",0,0,pre-owned,275000.0,flat,0,leasehold,1 bed flat for sale,51.597599,-0.012768,16.0,1,1,1,2021-04-14,275000.0,0,1,1,Walthamstow Central,1475,3
18405,18405,Waltham Forest,2021-04-13,Central Estate Agents,0,"Farnan Avenue, Walthamstow, London E17",0,0,pre-owned,650000.0,detached,0,freehold,4 bed detached house for sale,51.593756,-0.016246,111.0,4,1,1,2021-04-13,675000.0,0,0,1,Walthamstow Central,1031,7
18406,18406,Waltham Forest,2021-04-13,Barratt London - Blackhorse View,1,"""Alder Point"" at Forest Road, Walthamstow, London E17",0,0,new,488000.0,flat,0,leasehold,2 bed flat for sale,51.587982,-0.042966,70.0,2,2,1,2021-04-13,488000.0,1,0,1,Blackhorse Road,189,4
18407,18407,Waltham Forest,2021-04-12,Allen Davies,1,"High Road, Leyton E10",0,0,pre-owned,380000.0,flat,0,leasehold,2 bed flat for sale,51.568782,-0.008222,74.0,2,1,1,2021-04-12,400000.0,0,0,0,Chesham,1062,0
18408,18408,Waltham Forest,2021-04-09,Kings Group - North Chingford,0,"Kings Head Hill, London E4",0,0,pre-owned,305000.0,flat,0,leasehold,1 bed flat for sale,51.634574,-0.009434,6.0,1,1,1,2021-04-09,315000.0,0,1,0,Woodford,3461,1
18409,18409,Waltham Forest,2021-04-08,Coultons Estate Agents,1,"The Ridgeway, London E4",0,0,pre-owned,575000.0,end_terrace,0,leasehold,4 bed end terrace house for sale,51.625999,-0.010559,130.0,4,2,1,2021-04-08,599950.0,0,1,1,Chesham,3133,1
18410,18410,Waltham Forest,2021-04-07,Barratt London - Blackhorse View,1,"""Alder Point"" at Forest Road, Walthamstow, London E17",0,0,new,575000.0,flat,0,leasehold,3 bed flat for sale,51.587982,-0.042966,91.0,3,2,1,2021-04-07,575000.0,1,0,1,Blackhorse Road,189,4
18411,18411,Waltham Forest,2021-04-05,Central Estate Agents,0,"Gosport Road, Walthamstow, London E17",0,0,pre-owned,825000.0,terraced,0,freehold,4 bed terraced house for sale,51.579232,-0.026725,122.0,4,2,1,2021-04-05,825000.0,0,0,1,Walthamstow Central,653,17
18412,18412,Waltham Forest,2021-04-01,Estates 10 Ltd,1,"Coopers Lane, Leyton, London E10",0,0,pre-owned,649950.0,detached,0,leasehold,4 bed detached house for sale,51.569381,-0.00951,107.0,4,2,1,2021-04-01,675000.0,1,1,1,Leyton,1269,1
18413,18413,Waltham Forest,2021-03-28,Estates 10 Ltd,1,"Pretoria Road, Leytonstone, London E11",0,0,pre-owned,650000.0,terraced,0,leasehold,4 bed terraced house for sale,51.566535,0.000658,101.0,4,2,2,2021-03-28,675000.0,1,0,1,Leytonstone,479,3
18414,18414,Waltham Forest,2021-03-25,Estates 10 Ltd,0,"Malvern Road, Leytonstone, London E11",0,0,pre-owned,650000.0,terraced,0,leasehold,3 bed terraced house for sale,51.562957,0.010982,98.0,3,1,1,2021-03-25,675000.0,1,0,1,Leytonstone,532,14
18415,18415,Waltham Forest,2021-03-25,Your Nxt Place,1,"Dames Road, Forest Gate E7",0,0,pre-owned,560000.0,terraced,0,freehold,3 bed terraced house for sale,51.557185,0.018941,109.0,3,1,2,2021-03-25,560000.0,0,1,1,Leytonstone,1209,6
18416,18416,Waltham Forest,2021-03-24,L&Q - The Chain,1,"South Grove, London E17",0,1,new,123750.0,flat,0,leasehold,2 bed flat for sale,51.581398,-0.028426,72.0,2,2,0,2021-03-24,123750.0,0,0,1,Walthamstow Central,507,19
