,index,Borough,date_listed,agency_name,chain_free,address,isRetirementHome,isSharedOwnership,listingCondition,price,propertyType,isAuction,tenure,title,latitude,longitude,floor_area_msq,numBedrooms,numBathrooms,numLivingRooms,firstPublishedDate,firstPublishedPrice,balcony_terrace,parking,garden,closest_station_name,closest_station_distance_sec,pub_restaurant
12000,12000,Barnet,2021-02-15,Goldschmidt & Howland - Hampstead,1,"Oakley Gardens, Childs Hill, London NW2",0,0,new,918750.0,flat,0,leasehold,2 bed flat for sale,51.561034,-0.197528,78.0,2,2,1,2021-02-15,918750.0,1,1,1,Golders Green,1074,4
12001,12001,Barnet,2021-02-15,Goldschmidt & Howland - Hampstead,1,"Oakley Gardens, Childs Hill, London NW2",0,0,new,1506750.0,flat,0,leasehold,3 bed flat for sale,51.561034,-0.197528,117.0,3,2,1,2021-02-15,1506750.0,1,1,1,Golders Green,1074,4
12002,12002,Barnet,2021-02-15,Douglas Martin Estate Agents,1,"Brinsdale Park, Brinsdale Road, London NW4",0,0,pre-owned,850000.0,flat,0,Other,3 bed flat for sale,51.590698,-0.217109,172.0,3,2,2,2021-02-15,899950.0,1,1,1,Hendon Central,1045,5
12003,12003,Barnet,2021-02-15,Douglas Martin Estate Agents,0,"High Mount, Station Road, London NW4",0,0,pre-owned,699950.0,town_house,0,Other,3 bed town house for sale,51.578552,-0.239441,124.0,3,3,1,2021-02-15,699950.0,1,1,1,Hendon Central,871,4
12004,12004,Barnet,2021-02-15,Rokstone Estate Agents,0,"Totteridge Common, Totteridge, London N20",0,0,pre-owned,12000000.0,detached,0,freehold,8 bed detached house for sale,51.634003,-0.208437,1814.0,8,8,4,2021-02-15,12000000.0,1,0,1,High Barnet,1950,0
12005,12005,Barnet,2021-02-12,Sothebys Realty UK,1,"Beaufort Park, Colindale, London NW9",0,0,new,834950.0,flat,0,leasehold,3 bed flat for sale,51.595514,-0.24339,97.0,3,3,1,2021-02-12,834950.0,0,0,1,Colindale,549,3
12006,12006,Barnet,2021-02-12,Richard James Estate Agents,0,"Cranberryclose, Mill Hill NW7",0,0,pre-owned,1100000.0,flat,0,leasehold,3 bed flat for sale,51.609716,-0.241549,146.0,3,2,1,2021-02-12,1175000.0,1,1,1,Upminster,1617,4
12007,12007,Barnet,2021-02-12,Ellis & Co - Finchley,1,"Queens Avenue, Finchley N3",0,0,pre-owned,850000.0,terraced,0,freehold,5 bed terraced house for sale,51.602811,-0.179228,195.0,5,4,1,2021-02-12,850000.0,1,1,1,West Finchley,1000,5
12008,12008,Barnet,2021-02-11,Savills - Hampstead,1,"Coachworks Mews, London NW2",0,0,new,2250000.0,mews,0,freehold,3 bed mews house for sale,51.5614614355828,-0.201970582822086,195.0,3,3,2,2021-02-11,2250000.0,1,1,1,Golders Green,1284,6
12009,12009,Barnet,2021-02-11,Osprey,0,"Regents Park Road, London N3",1,0,pre-owned,600000.0,flat,0,share_of_freehold,2 bed flat for sale,51.598242,-0.197749,100.0,2,2,0,2021-02-11,625000.0,1,1,1,Finchley Central,350,7
12010,12010,Barnet,2021-02-10,Douglas Martin Estate Agents,1,"Cedars Close, London NW4",0,0,pre-owned,2195000.0,detached,0,Other,6 bed detached house for sale,51.592361,-0.215766,270.0,6,4,4,2021-02-10,2195000.0,0,0,1,Hendon Central,1343,3
12011,12011,Barnet,2021-02-09,Urban Moves,0,"Bletchley Court, Letchworth Road, Stanmore, Greater London HA7",0,1,pre-owned,140000.0,flat,0,Other,1 bed flat for sale,51.606241,-0.296437,47.0,1,0,0,2021-02-09,140000.0,1,1,0,Canons Park,302,2
12012,12012,Barnet,2021-02-09,Chancellors - Finchley,0,"Dudley Road, Finchley N3",0,0,pre-owned,1000000.0,detached,0,freehold,4 bed detached house for sale,51.59684,-0.18567,186.0,4,1,3,2021-02-09,1200000.0,0,0,0,Finchley Central,599,0
12013,12013,Barnet,2021-02-09,Chancellors - Finchley,0,"Hill Court, Finchley N3",0,0,pre-owned,350000.0,maisonette,0,leasehold,1 bed maisonette for sale,51.59333,-0.190854,54.0,1,0,1,2021-02-09,375000.0,0,0,1,Finchley Central,876,0
12014,12014,Barnet,2021-02-09,Martin Allsuch,0,"Colindale, London NW9",0,0,pre-owned,359000.0,flat,0,leasehold,1 bed flat for sale,51.595954,-0.239507,48.0,1,1,1,2021-02-09,359000.0,1,1,1,Colindale,641,3
12015,12015,Barnet,2021-02-09,Benham and Reeves - Kensington,0,"Croft House, Heritage Avenue, Beaufort Park, Colindale NW9",0,0,pre-owned,1050000.0,flat,0,leasehold,3 bed flat for sale,51.595704,-0.2423,177.0,3,3,1,2021-02-09,1050000.0,1,0,1,Colindale,465,3
12016,12016,Barnet,2021-02-08,William Nelhams and Co,1,"Portman Heights, West Heath Road, Hampstead, London NW3",0,0,pre-owned,950000.0,flat,0,leasehold,2 bed flat for sale,51.563392,-0.196497,117.0,2,0,0,2021-02-08,1050000.0,1,1,0,Golders Green,871,4
12017,12017,Barnet,2021-02-08,Beauchamp Estates,0,"East View, High Barnet, Barnet EN5",0,0,pre-owned,1500000.0,Other,0,freehold,4 bed property for sale,51.657298,-0.198757,279.0,4,3,5,2021-02-08,1750000.0,0,1,1,High Barnet,812,13
12018,12018,Barnet,2021-02-08,TK International,0,"Penthouse Apartment, Portman Heights, Hampstead NW3",0,0,pre-owned,950000.0,flat,0,Other,2 bed flat for sale,51.563766,-0.196165,117.0,2,2,2,2021-02-08,1050000.0,1,1,0,Golders Green,827,4
12019,12019,Barnet,2021-02-07,Savills - Hampstead,0,"Prospect Road, Hampstead, London NW2",0,0,pre-owned,915000.0,end_terrace,0,freehold,3 bed end terrace house for sale,51.561698,-0.198007,115.0,3,1,1,2021-02-07,1000000.0,1,0,1,Golders Green,1060,4
12020,12020,Barnet,2021-02-05,Seven Miles Limited,1,"Millbrook Park, London NW7",0,0,new,625000.0,flat,0,leasehold,2 bed flat for sale,51.608288,-0.209825,71.0,2,2,1,2021-02-05,625000.0,1,1,1,Mill Hill East,41,0
12021,12021,Barnet,2021-02-04,Chancellors - Totteridge,1,"Inverey, Holden Avenue, Woodside Park N12,",0,0,pre-owned,750000.0,flat,0,leasehold,3 bed flat for sale,51.616,-0.183,117.0,3,2,1,2021-02-04,850000.0,0,0,1,Woodside Park,304,14
12022,12022,Barnet,2021-02-02,Chancellors - Finchley,0,"Regency House, Finchley N3",1,0,pre-owned,700000.0,flat,0,share_of_freehold,2 bed flat for sale,51.597,-0.197,98.0,2,2,1,2021-02-02,700000.0,0,0,0,Finchley Central,515,5
12023,12023,Barnet,2021-02-01,Infinity Property Solutions,0,"Edgware Road, London NW9",0,0,pre-owned,480000.0,flat,0,Other,2 bed flat for sale,51.592871,-0.259156,82.0,2,0,0,2021-02-01,510000.0,1,1,0,Colindale,576,2
12024,12024,Barnet,2021-02-01,Arlington Residential,0,"The Bishops Avenue, London N2",0,0,pre-owned,3000000.0,flat,0,leasehold,2 bed flat for sale,51.57935,-0.168799,209.0,2,2,1,2021-02-01,3000000.0,0,1,1,East Finchley,782,0
12025,12025,Barnet,2021-02-01,Brampton Real Estate,1,"Brentwood Lodge, Holmdale Gardens, Hendon NW4",0,0,pre-owned,699950.0,flat,0,leasehold,3 bed flat for sale,51.584195,-0.213228,85.0,3,3,1,2021-02-01,720000.0,0,0,1,Upminster,724,1
12026,12026,Barnet,2021-01-31,"Purplebricks, Head Office",0,"Cornwood Close, Hampstead Garden Suburb N2",0,0,pre-owned,1180000.0,semi_detached,0,freehold,3 bed semi-detached house for sale,51.586052,-0.174323,93.0,3,1,2,2021-01-31,1250000.0,0,0,1,East Finchley,775,0
12027,12027,Barnet,2021-01-29,William Nelhams and Co,0,"Finchley Road, Childs Hill, London NW2",0,0,pre-owned,325000.0,flat,0,leasehold,1 bed flat for sale,51.562205,-0.197092,43.0,1,0,0,2021-01-29,325000.0,1,0,0,Golders Green,937,4
12028,12028,Barnet,2021-01-29,Keller Williams London Bridge,0,"Eastside Road, Golders Green, London NW11",0,0,pre-owned,645000.0,maisonette,0,leasehold,4 bed maisonette for sale,51.586703,-0.202561,95.0,4,1,0,2021-01-29,645000.0,0,0,0,Brent Cross,1158,2
12029,12029,Barnet,2021-01-29,Chancellors - Barnet,0,"High Barnet, Hertfordshire EN5",0,0,pre-owned,325000.0,flat,0,leasehold,2 bed flat for sale,51.65072,-0.210534,52.0,2,0,1,2021-01-29,350000.0,0,1,0,High Barnet,1002,2
12030,12030,Barnet,2021-01-28,Real Estates,0,"Totteridge Common, London N20",0,0,pre-owned,695000.0,flat,0,leasehold,2 bed flat for sale,51.633327,-0.215097,88.0,2,2,1,2021-01-28,695000.0,0,1,1,Upminster,2242,0
12031,12031,Barnet,2021-01-28,Moreland,1,"Cricklewood Lane, London NW2",0,0,pre-owned,900000.0,terraced,0,freehold,5 bed terraced house for sale,51.563125,-0.199216,138.0,5,2,2,2021-01-28,900000.0,0,0,1,Golders Green,963,4
12032,12032,Barnet,2021-01-26,Douglas Martin Estate Agents,1,"Hanbury Close, London NW4",0,0,pre-owned,675000.0,flat,0,freehold,2 bed flat for sale,51.591182,-0.221063,116.0,2,2,1,2021-01-26,699950.0,0,0,1,Hendon Central,907,7
12033,12033,Barnet,2021-01-26,Comfort Properties,0,"1 Moorhen Drive, London NW9",0,0,pre-owned,450000.0,flat,0,leasehold,2 bed flat for sale,51.577112,-0.242526,68.0,2,2,1,2021-01-26,450000.0,1,0,0,Hendon Central,1176,4
12034,12034,Barnet,2021-01-25,Roundtree Real Estate,0,"Tenby Mansions, 186 Brent Street, Brent Street, Hendon NW4",0,0,pre-owned,1200000.0,flat,0,leasehold,3 bed flat for sale,51.589172,-0.221172,130.0,3,3,1,2021-01-25,1200000.0,1,1,1,Hendon Central,724,8
12035,12035,Barnet,2021-01-25,Savills - Margaret Street RDS,1,"The Claves, Millbrook Park, Mill Hill, London NW7",0,0,new,995000.0,flat,0,leasehold,2 bed flat for sale,51.6109153492823,-0.213386631578947,143.0,2,2,1,2021-01-25,995000.0,1,1,1,Mill Hill East,271,0
12036,12036,Barnet,2021-01-25,Chancellors - Finchley,0,"Beaufort Park, London NW9",0,0,pre-owned,425000.0,flat,0,leasehold,2 bed flat for sale,51.595978,-0.241482,54.0,2,2,1,2021-01-25,450000.0,0,0,0,Colindale,543,3
12037,12037,Barnet,2021-01-25,Hunters Residential Sales and Lettings,1,"Gloucester Road, Barnet EN5",0,0,pre-owned,975000.0,semi_detached,0,freehold,6 bed semi-detached house for sale,51.644612,-0.172844,180.0,6,2,3,2021-01-25,1000000.0,1,1,1,Chesham,1247,0
12038,12038,Barnet,2021-01-25,Barnard Marcus - North Finchley,0,"Bramber Road, North Finchley, London N12",0,0,pre-owned,1700000.0,semi_detached,0,freehold,5 bed semi-detached house for sale,51.613013,-0.165788,185.0,5,2,2,2021-01-25,1700000.0,0,1,1,Woodside Park,1381,0
12039,12039,Barnet,2021-01-25,Hausman & Holmes,0,"Hillcrest Avenue, London NW11",0,0,pre-owned,1699500.0,semi_detached,0,Other,6 bed semi-detached house for sale,51.585903,-0.203438,209.0,6,3,1,2021-01-25,1699500.0,0,1,1,Brent Cross,1080,2
12040,12040,Barnet,2021-01-22,Bachik Properties,1,"Henry Darlot Drive Millbrook Park, Mill Hill East, London NW7",0,0,new,429000.0,flat,0,leasehold,1 bed flat for sale,51.613852,-0.21027,53.0,1,1,1,2021-01-22,419000.0,0,1,1,Mill Hill East,608,0
12041,12041,Barnet,2021-01-22,Chancellors - Totteridge,1,"Highgrove Close, London N11,",0,0,pre-owned,675000.0,terraced,0,freehold,3 bed terraced house for sale,51.612,-0.145,97.0,3,2,2,2021-01-22,675000.0,0,1,1,Arnos Grove,919,0
12042,12042,Barnet,2021-01-22,Chancellors - Totteridge,1,"Simmons Close, London N20",0,0,pre-owned,325000.0,flat,0,leasehold,2 bed flat for sale,51.629,-0.159,65.0,2,1,1,2021-01-22,350000.0,0,1,0,Totteridge & Whetstone,1091,2
12043,12043,Barnet,2021-01-22,Worths Real Estate,1,"Chandos Way, Wellgarth Road, London NW11",0,0,pre-owned,3500000.0,detached,0,freehold,5 bed detached house for sale,51.571436,-0.189058,334.0,5,4,3,2021-01-22,3500000.0,0,1,0,Golders Green,769,7
12044,12044,Barnet,2021-01-22,Chancellors - Barnet,1,"High Barnet, Herts EN5",0,0,pre-owned,325000.0,flat,0,leasehold,2 bed flat for sale,51.65,-0.21,53.0,2,1,1,2021-01-22,325000.0,0,0,0,High Barnet,1089,2
12045,12045,Barnet,2021-01-22,Nest Seekers International,0,"Devonshire Place, London NW2",0,0,pre-owned,2650000.0,flat,0,freehold,4 bed flat for sale,51.561562,-0.19671,238.0,4,4,0,2021-01-22,2650000.0,1,1,1,Golders Green,1002,4
12046,12046,Barnet,2021-01-21,Barratt London - Ridgeway Views,1,"""Callow House"" at The Ridgeway, Mill Hill, London NW7",0,0,new,905000.0,flat,0,leasehold,3 bed flat for sale,51.6109153492823,-0.213386631578947,144.0,3,2,1,2021-01-21,905000.0,1,1,1,Mill Hill East,271,0
12047,12047,Barnet,2021-01-21,Taylor Hawkins,0,"Brent Street, London NW4",0,0,pre-owned,10585000.0,flat,0,Other,33 bed flat for sale,51.589,-0.221508,1071.0,33,0,0,2021-01-21,10585000.0,1,1,1,Hendon Central,704,8
12048,12048,Barnet,2021-01-20,DRE Residential,1,"Beaufort Park, Aerodrome Road, Colindale NW9",0,0,new,420000.0,flat,0,leasehold,1 bed flat for sale,51.595193,-0.243726,60.0,1,1,1,2021-01-20,420000.0,1,0,1,Colindale,662,3
12049,12049,Barnet,2021-01-20,Roundtree Real Estate,1,"Parklands Drive, Finchley N3",0,0,pre-owned,2600000.0,Other,0,freehold,6 bed property for sale,51.590786,-0.207856,407.0,6,6,3,2021-01-20,2600000.0,0,1,1,Brent Cross,1530,0
12050,12050,Barnet,2021-01-20,Taylor Hawkins,0,"Brent Street, London NW4",0,0,pre-owned,900000.0,flat,0,Other,3 bed flat for sale,51.589,-0.221508,99.0,3,2,2,2021-01-20,900000.0,1,1,1,Hendon Central,704,8
12051,12051,Barnet,2021-01-20,Taylor Hawkins,0,"Brent Street, London NW4",0,0,pre-owned,830000.0,flat,0,Other,3 bed flat for sale,51.589,-0.221508,85.0,3,2,1,2021-01-20,830000.0,1,1,1,Hendon Central,704,8
12052,12052,Barnet,2021-01-20,Taylor Hawkins,0,"Brent Street, London NW4",0,0,pre-owned,750000.0,flat,0,Other,3 bed flat for sale,51.589,-0.221508,74.0,3,2,1,2021-01-20,750000.0,1,1,1,Hendon Central,704,8
12053,12053,Barnet,2021-01-20,Taylor Hawkins,0,"Brent Street, London NW4",0,0,pre-owned,1200000.0,flat,0,Other,3 bed flat for sale,51.589,-0.221508,130.0,3,3,1,2021-01-20,1200000.0,1,1,1,Hendon Central,704,8
12054,12054,Barnet,2021-01-20,Taylor Hawkins,0,"Brent Street, London NW4",0,0,pre-owned,725000.0,flat,0,Other,2 bed flat for sale,51.589,-0.221508,74.0,2,2,1,2021-01-20,725000.0,1,1,1,Hendon Central,704,8
12055,12055,Barnet,2021-01-20,Redrow - Colindale Gardens,1,"Colindale Avenue, London NW9",0,0,new,400000.0,flat,0,leasehold,1 bed flat for sale,51.595366,-0.249127,56.0,1,1,0,2021-01-20,400000.0,1,0,1,Colindale,77,4
12056,12056,Barnet,2021-01-19,Wayne and Silver,0,"Amberden Avenue, London N3",0,0,pre-owned,2400000.0,Other,0,Other,5 bed property for sale,51.593412,-0.191559,307.0,5,4,3,2021-01-19,2400000.0,1,0,1,Finchley Central,853,1
12057,12057,Barnet,2021-01-18,Glentree,1,"Eliot House, The Bishops Avenue N2",0,0,new,4950000.0,flat,0,Other,3 bed flat for sale,51.575969,-0.171226,246.0,3,3,2,2021-01-18,4950000.0,0,1,0,East Finchley,1080,1
12058,12058,Barnet,2021-01-18,Catalyst - Resales,0,"High Road, North Finchley N12",0,1,pre-owned,192500.0,flat,0,leasehold,2 bed flat for sale,51.61964,-0.176196,75.0,2,2,0,2021-01-18,192500.0,1,1,1,Woodside Park,720,9
12059,12059,Barnet,2021-01-15,Gibbs Gillespie - Stanmore,0,"Howard Road, Stanmore, London HA7",0,0,pre-owned,345000.0,flat,0,leasehold,1 bed flat for sale,51.606442,-0.295482,49.0,1,1,1,2021-01-15,365000.0,0,1,0,Canons Park,500,2
12060,12060,Barnet,2021-01-15,Statons - Hadley Wood,0,"Hadley Common, Hadley Wood, Hertfordshire EN5",0,0,pre-owned,7950000.0,detached,0,freehold,7 bed detached house for sale,51.66077,-0.193134,743.0,7,8,5,2021-01-15,8500000.0,0,1,1,High Barnet,1368,0
12061,12061,Barnet,2021-01-14,Winkworth - Finchley,1,"Regency House, 269 Regents Park Road, Finchley, London N3",1,0,pre-owned,600000.0,flat,0,share_of_freehold,2 bed flat for sale,51.598222,-0.197832,93.0,2,2,1,2021-01-14,625000.0,0,1,0,Finchley Central,354,7
12062,12062,Barnet,2021-01-13,Benham and Reeves - Kensington,1,"Fairbank House, Beaufort Park, Colindale NW9",0,0,new,553500.0,flat,0,leasehold,2 bed flat for sale,51.5968031785714,-0.243965892857143,82.0,2,2,1,2021-01-13,538480.0,1,1,0,Colindale,380,3
12063,12063,Barnet,2021-01-12,Jonathan Arron Residential,0,"West Heath Place, 1B Hodford Road, London NW11",0,0,pre-owned,1325000.0,flat,0,share_of_freehold,2 bed flat for sale,51.566226,-0.197741,119.0,2,2,1,2021-01-12,1325000.0,1,1,1,Golders Green,713,4
12064,12064,Barnet,2021-01-12,Empire Estates,1,"Aerodrome Road, London NW9",0,0,new,400000.0,flat,0,leasehold,1 bed flat for sale,51.594796,-0.241093,51.0,1,1,1,2021-01-12,400000.0,0,1,1,Colindale,519,3
12065,12065,Barnet,2021-01-11,Hunters Residential Sales and Lettings,1,"St. Marks Close, Barnet EN5",0,0,pre-owned,980000.0,detached,0,freehold,4 bed detached house for sale,51.653607,-0.186471,146.0,4,2,1,2021-01-11,995000.0,0,1,1,High Barnet,678,0
12066,12066,Barnet,2021-01-11,Heathgate,0,"Chandos Way, Hampstead Garden Suburb NW11",0,0,pre-owned,3500000.0,detached,0,leasehold,5 bed detached house for sale,51.572763,-0.189751,361.0,5,3,3,2021-01-11,3500000.0,0,0,1,Golders Green,809,5
12067,12067,Barnet,2021-01-11,Chancellors - Finchley,0,"Downage, Hendon NW4",0,0,pre-owned,3000000.0,detached,0,leasehold,6 bed detached house for sale,51.59667,-0.221339,326.0,6,3,3,2021-01-11,2700000.0,0,0,1,Hendon Central,1293,0
12068,12068,Barnet,2021-01-11,Austin Chambers & Co,0,"Constable Close, London N11",0,0,pre-owned,330000.0,flat,0,leasehold,2 bed flat for sale,51.613485,-0.158013,73.0,2,2,1,2021-01-11,365000.0,0,1,1,Arnos Grove,1376,1
12069,12069,Barnet,2021-01-11,Douglas Martin Estate Agents,1,"Courtleigh Gardens, London NW11",0,0,pre-owned,624995.0,flat,0,Other,2 bed flat for sale,51.586963,-0.206926,86.0,2,2,1,2021-01-11,665000.0,1,1,0,Brent Cross,1048,2
12070,12070,Barnet,2021-01-10,Worths Real Estate,1,"Boulevard Drive, London NW9",0,0,new,524950.0,flat,0,leasehold,2 bed flat for sale,51.596122,-0.241949,74.0,2,2,1,2021-01-10,524950.0,1,0,1,Colindale,519,3
12071,12071,Barnet,2021-01-08,Chancellors - Barnet,1,"West End Lane, Barnet EN5",0,0,pre-owned,270000.0,flat,0,freehold,1 bed flat for sale,51.651,-0.21,58.0,1,1,1,2021-01-08,280000.0,0,1,0,High Barnet,1002,2
12072,12072,Barnet,2021-01-07,Martyn Gerrard - Whetstone,0,"Artemis House, 2 Dollis Valley Drive, Barnet, Hertfordshire EN5",0,0,pre-owned,325000.0,flat,0,leasehold,1 bed flat for sale,51.646219,-0.197254,50.0,1,1,1,2021-01-07,350000.0,1,1,0,High Barnet,542,0
12073,12073,Barnet,2021-01-07,Goldschmidt & Howland - Temple Fortune,1,"Finchley Road, Golders Green, London NW11",0,0,new,1150000.0,flat,0,leasehold,2 bed flat for sale,51.580605,-0.198933,116.0,2,0,0,2021-01-07,1150000.0,0,1,1,Golders Green,768,4
12074,12074,Barnet,2021-01-07,Goldschmidt & Howland - Temple Fortune,1,"Finchley Road, Golders Green, London NW11",0,0,new,1700000.0,flat,0,leasehold,3 bed flat for sale,51.580605,-0.198933,181.0,3,0,0,2021-01-07,1700000.0,1,1,1,Golders Green,768,4
12075,12075,Barnet,2021-01-07,Goldschmidt & Howland - Temple Fortune,1,"Finchley Road, Golders Green, London NW11",0,0,new,1450000.0,flat,0,leasehold,3 bed flat for sale,51.580605,-0.198933,161.0,3,0,0,2021-01-07,1450000.0,1,1,1,Golders Green,768,4
12076,12076,Barnet,2021-01-07,Goldschmidt & Howland - Temple Fortune,1,"Finchley Road, Golders Green, London NW11",0,0,new,1600000.0,flat,0,leasehold,3 bed flat for sale,51.580605,-0.198933,164.0,3,0,0,2021-01-07,1600000.0,1,1,1,Golders Green,768,4
12077,12077,Bexley,2021-07-05,Able Estates,1,"Willersley Avenue, Sidcup DA15",0,0,pre-owned,525000.0,semi_detached,0,freehold,4 bed semi-detached house for sale,51.443267,0.099247,112.0,4,2,1,2021-07-05,525000.0,0,1,1,Gallions Reach,7080,3
12078,12078,Bexley,2021-07-05,Redwood Estates,1,"Willersley Avenue, Sidcup DA15",0,0,pre-owned,525000.0,semi_detached,0,freehold,4 bed semi-detached house for sale,51.443267,0.099247,112.0,4,1,1,2021-07-05,525000.0,0,0,0,Gallions Reach,7080,3
12079,12079,Bexley,2021-07-04,EweMove Sales & Lettings - Bexleyheath,0,"Picardy Road, Belvedere DA17",0,0,pre-owned,375000.0,detached,0,freehold,2 bed detached house for sale,51.4847,0.147838,21.0,2,1,1,2021-07-04,375000.0,0,1,1,Chesham,10967,7
12080,12080,Bexley,2021-07-04,EweMove Sales & Lettings - Bexleyheath,0,"Paddock Road, Bexleyheath DA6",0,0,pre-owned,625000.0,detached,0,freehold,4 bed detached house for sale,51.4561,0.132932,16.0,4,2,2,2021-07-04,625000.0,0,1,1,Gallions Reach,6935,21
12081,12081,Bexley,2021-07-02,Yopa,0,"Arbuthnot Lane, Bexley DA5",0,0,pre-owned,950000.0,detached_bungalow,0,Other,5 bed detached bungalow for sale,51.449255,0.137214,221.0,5,3,1,2021-07-02,950000.0,0,0,1,Gallions Reach,7559,1
12082,12082,Bexley,2021-07-02,L&Q - The Quarry,1,"Carlton Road, Erith DA8",0,0,new,542500.0,terraced,0,leasehold,4 bed terraced house for sale,51.478461,0.161292,129.0,4,3,1,2021-07-02,542500.0,0,1,1,Dagenham Heathway,12632,1
12083,12083,Bexley,2021-07-01,EweMove Sales & Lettings - Bexleyheath,1,"Oaklands Road, Bexleyheath DA6",0,0,pre-owned,550000.0,detached,0,freehold,3 bed detached house for sale,51.4553,0.139627,20.0,3,2,2,2021-07-01,550000.0,0,1,1,Becontree,12079,26
12084,12084,Bexley,2021-07-01,Able Estates,0,"Cray Road, Upper Belvedere DA17",0,0,pre-owned,425000.0,Other,0,freehold,3 bed property for sale,51.478621,0.14769,85.0,3,1,1,2021-07-01,425000.0,0,1,1,Chesham,11176,5
12085,12085,Bexley,2021-06-30,Christopher Russell,0,"Ramillies Road, Sidcup DA15",0,0,pre-owned,375000.0,terraced,0,freehold,2 bed terraced house for sale,51.447239,0.109417,1.0,2,1,2,2021-06-30,375000.0,1,1,1,Gallions Reach,6893,5
12086,12086,Bexley,2021-06-29,Anthony Martin Estate Agents - Bexleyheath,0,"Oaklands Road, Bexleyheath DA6",0,0,pre-owned,425000.0,terraced,0,Other,2 bed terraced house for sale,51.455657,0.138881,104.0,2,1,3,2021-06-29,425000.0,1,1,1,Chesham,7231,27
12087,12087,Bexley,2021-06-29,Anthony Martin Estate Agents - Barnehurst,0,"Morris Drive, Belvedere DA17",0,0,pre-owned,290000.0,end_terrace,0,Other,2 bed end terrace house for sale,51.486743,0.165182,58.0,2,1,1,2021-06-29,290000.0,1,1,1,Chesham,12821,1
12088,12088,Bexley,2021-06-27,Keller Williams London Bridge,1,"Castleford Avenue, New Eltham, London SE9",0,0,pre-owned,780000.0,semi_detached,0,freehold,6 bed semi-detached house for sale,51.440733,0.067406,176.0,6,3,2,2021-06-27,780000.0,0,1,0,Chesham,6266,2
12089,12089,Bexley,2021-06-26,Anthony Martin Estate Agents - Barnehurst,1,"Hackney House, Clydesdale Way, Belvedere DA17",0,0,pre-owned,260000.0,flat,0,Other,2 bed flat for sale,51.497245,0.155774,67.0,2,2,1,2021-06-26,260000.0,1,1,1,Dagenham Heathway,12398,1
12090,12090,Bexley,2021-06-25,Greens Property,0,"Edison Grove, London SE18",0,0,pre-owned,220000.0,flat,0,leasehold,1 bed flat for sale,51.474191,0.094821,4.0,1,1,0,2021-06-25,220000.0,0,1,0,Gallions Reach,4256,0
12091,12091,Bexley,2021-06-25,Anthony Martin Estate Agents - Bexleyheath,1,"Hawthorn Road, Bexleyheath DA6",0,0,pre-owned,230000.0,maisonette,0,freehold,1 bed maisonette for sale,51.455574,0.140892,50.0,1,1,1,2021-06-25,230000.0,0,0,1,Becontree,12137,28
12092,12092,Bexley,2021-06-23,EweMove Sales & Lettings - Bexleyheath,1,"Northall Road, Bexleyheath DA7",0,0,pre-owned,575000.0,semi_detached,0,freehold,5 bed semi-detached house for sale,51.4645,0.162226,31.0,5,3,2,2021-06-23,575000.0,0,1,1,Dagenham Heathway,13086,6
12093,12093,Bexley,2021-06-22,EweMove Sales & Lettings - Bexleyheath,0,"Park Crescent, Erith DA8",0,0,pre-owned,550000.0,detached,0,freehold,3 bed detached house for sale,51.4779,0.166971,120.0,3,2,2,2021-06-22,550000.0,0,1,1,Chesham,12942,1
12094,12094,Bexley,2021-06-22,Bellway - Eastside Quarter,1,"2 Watling Street, Bexleyheath DA6",0,0,new,393995.0,flat,0,leasehold,3 bed flat for sale,51.455555,0.15356,87.0,3,2,0,2021-06-22,393995.0,1,1,1,Chesham,12303,6
12095,12095,Bexley,2021-06-22,Bellway - Eastside Quarter,1,"2 Watling Street, Bexleyheath DA6",0,0,new,372495.0,flat,0,leasehold,2 bed flat for sale,51.455555,0.15356,75.0,2,2,0,2021-06-22,372495.0,1,1,1,Chesham,12303,6
12096,12096,Bexley,2021-06-22,Bellway - Eastside Quarter,1,"2 Watling Street, Bexleyheath DA6",0,0,new,359495.0,flat,0,leasehold,2 bed flat for sale,51.455555,0.15356,71.0,2,1,0,2021-06-22,359495.0,1,1,1,Chesham,12303,6
12097,12097,Bexley,2021-06-22,Bellway - Eastside Quarter,1,"2 Watling Street, Bexleyheath DA6",0,0,new,290995.0,flat,0,leasehold,1 bed flat for sale,51.455555,0.15356,50.0,1,1,0,2021-06-22,290995.0,1,1,1,Chesham,12303,6
12098,12098,Bexley,2021-06-22,Bellway - Eastside Quarter,1,"2 Watling Street, Bexleyheath DA6",0,0,new,290995.0,flat,0,leasehold,1 bed flat for sale,51.455555,0.15356,52.0,1,1,0,2021-06-22,290995.0,1,1,1,Chesham,12303,6
12099,12099,Bexley,2021-06-22,Bellway - Eastside Quarter,1,"2 Watling Street, Bexleyheath DA6",0,0,new,289995.0,flat,0,leasehold,1 bed flat for sale,51.455555,0.15356,52.0,1,1,0,2021-06-22,289995.0,1,1,1,Chesham,12303,6
12100,12100,Bexley,2021-06-22,Bellway - Eastside Quarter,1,"2 Watling Street, Bexleyheath DA6",0,0,new,225495.0,studio,0,leasehold,Studio for sale,51.455555,0.15356,40.0,0,1,0,2021-06-22,225495.0,1,1,1,Chesham,12303,6
12101,12101,Bexley,2021-06-21,Strike,0,"Bexley Road, London SE9",0,0,pre-owned,350000.0,flat,0,leasehold,2 bed flat for sale,51.450844,0.083068,64.0,2,2,1,2021-06-21,350000.0,0,1,1,Gallions Reach,5973,2
12102,12102,Bexley,2021-06-16,Able Estates,1,"Mortimer Road, Erith DA8",0,0,pre-owned,369995.0,Other,0,freehold,3 bed property for sale,51.476706,0.168223,66.0,3,1,1,2021-06-16,369995.0,1,0,1,Chesham,13219,3
12103,12103,Bexley,2021-06-16,Redwood Estates,0,"Chichester Wharf, Erith DA8",0,0,pre-owned,195000.0,flat,0,leasehold,1 bed flat for sale,51.484355,0.176695,48.0,1,1,1,2021-06-16,200000.0,0,1,0,Chesham,13372,4
12104,12104,Bexley,2021-06-15,Anthony Martin Estate Agents - Bexleyheath,0,"Butlers Cottages, Woolwich Road, Bexleyheath DA7",0,0,pre-owned,375000.0,terraced,0,Other,2 bed terraced house for sale,51.463878,0.149413,81.0,2,2,2,2021-06-15,400000.0,1,0,1,Chesham,11571,3
12105,12105,Bexley,2021-06-14,Anthony Martin Estate Agents - Bexleyheath,0,"Alers Road, Bexleyheath DA6",0,0,pre-owned,350000.0,terraced,0,Other,2 bed terraced house for sale,51.451808,0.127372,68.0,2,1,2,2021-06-14,350000.0,1,1,1,Gallions Reach,7135,3
12106,12106,Bexley,2021-06-13,EweMove Sales & Lettings - Bexleyheath,1,"Lane End, Bexleyheath DA7",0,0,pre-owned,575000.0,detached,0,freehold,4 bed detached house for sale,51.4609,0.151864,29.0,4,2,1,2021-06-13,600000.0,0,1,1,Chesham,11989,6
12107,12107,Bexley,2021-06-12,Able Estates,0,"Elstree Gardens, Belvedere DA17",0,0,pre-owned,350000.0,Other,0,freehold,2 bed property for sale,51.489801,0.135309,65.0,2,1,2,2021-06-12,350000.0,1,0,1,Becontree,10253,0
12108,12108,Bexley,2021-06-10,Anthony Martin Estate Agents - Bexleyheath,1,"Selwyn Crescent, Welling DA16",0,0,pre-owned,625000.0,detached,0,Other,4 bed detached house for sale,51.458503,0.110021,123.0,4,2,2,2021-06-10,650000.0,0,1,1,Gallions Reach,5929,7
12109,12109,Bexley,2021-06-10,Redwood Estates,0,"Anstridge Road, Eltham SE9",0,0,pre-owned,425000.0,Other,0,freehold,3 bed property for sale,51.448629,0.082453,88.0,3,1,1,2021-06-10,425000.0,0,1,1,Gallions Reach,6095,3
12110,12110,Bexley,2021-06-09,Able Estates,1,"Avenue Road, Erith DA8",0,0,pre-owned,230000.0,flat,0,leasehold,2 bed flat for sale,51.477781,0.179118,60.0,2,1,1,2021-06-09,230000.0,0,1,1,Chesham,13586,5
12111,12111,Bexley,2021-06-09,Bernard Skinner,0,"Crown Woods Way, London SE9",0,0,pre-owned,800000.0,semi_detached,0,Other,4 bed semi-detached house for sale,51.452701,0.081209,142.0,4,1,2,2021-06-09,800000.0,0,1,1,Gallions Reach,5858,2
12112,12112,Bexley,2021-06-07,Lanes New Homes - Hertford,1,"Egerton Place - Apartments, Off Richmer Road, Erith, Kent DA8",0,0,new,260000.0,flat,0,leasehold,1 bed flat for sale,51.472035,0.187282,51.0,1,0,0,2021-06-07,260000.0,1,1,0,Dagenham East,15386,3
12113,12113,Bexley,2021-06-02,Harpers & Co,0,"Glenhurst Avenue, Bexley DA5",0,0,pre-owned,950000.0,detached,0,freehold,5 bed detached house for sale,51.438446,0.137503,229.0,5,2,2,2021-06-02,950000.0,1,0,1,Gallions Reach,8697,0
12114,12114,Bexley,2021-05-29,EweMove Sales & Lettings - Bexleyheath,1,"Woodville Grove, Welling DA16",1,0,pre-owned,150000.0,flat,0,leasehold,1 bed flat for sale,51.4635,0.10445,15.0,1,1,1,2021-05-29,150000.0,0,1,1,Gallions Reach,5591,6
12115,12115,Bexley,2021-05-27,Anthony Martin Estate Agents - Barnehurst,1,"Miller Court, Mayplace Road East, Bexleyheath DA7",1,0,pre-owned,150000.0,flat,0,Other,1 bed flat for sale,51.459152,0.157249,43.0,1,1,1,2021-05-27,150000.0,0,0,0,Dagenham Heathway,13086,7
12116,12116,Bexley,2021-05-27,EweMove Sales & Lettings - Bexleyheath,0,"Mayplace Road East, Bexleyheath DA7",1,0,pre-owned,150000.0,flat,0,leasehold,1 bed flat for sale,51.4592,0.15725,16.0,1,1,0,2021-05-27,150000.0,0,1,0,Dagenham Heathway,13082,7
12117,12117,Bexley,2021-05-25,Able Estates,0,"Rydal Drive, Bexleyheath DA7",0,0,pre-owned,600000.0,Other,0,freehold,4 bed property for sale,51.468613,0.1447,114.0,4,2,1,2021-05-25,600000.0,0,1,1,Chesham,11279,3
12118,12118,Bexley,2021-05-25,Site Sales Property Group,1,"Old Farm Avenue, Sidcup DA15",0,0,new,775000.0,detached,0,leasehold,4 bed detached house for sale,51.43585,0.09233,130.0,4,2,1,2021-05-25,795000.0,0,1,0,Gallions Reach,7341,2
12119,12119,Bexley,2021-05-25,Site Sales Property Group,1,"Old Farm Avenue, Sidcup DA15",0,0,new,415000.0,flat,0,leasehold,2 bed flat for sale,51.43585,0.09233,73.0,2,1,1,2021-05-25,395000.0,0,1,0,Gallions Reach,7341,2
12120,12120,Bexley,2021-05-21,William Theakston,1,"Hurst Road, Sidcup DA15",0,0,pre-owned,700000.0,semi_detached,0,Other,5 bed semi-detached house for sale,51.43608,0.112887,12.0,5,2,3,2021-05-21,700000.0,0,1,1,Gallions Reach,8164,0
12121,12121,Bexley,2021-05-20,Able Estates,1,"Ward Close, Erith DA8",0,0,pre-owned,415000.0,Other,0,freehold,3 bed property for sale,51.478326,0.166658,88.0,3,1,1,2021-05-20,430000.0,0,1,1,Chesham,12998,1
12122,12122,Bexley,2021-05-18,Able Estates,0,"Winchelsea Avenue, Bexleyheath DA7",0,0,pre-owned,600000.0,semi_detached,0,freehold,5 bed semi-detached house for sale,51.473023,0.138629,116.0,5,3,1,2021-05-18,625000.0,0,1,1,Becontree,10866,1
12123,12123,Bexley,2021-05-18,Anthony Martin Estate Agents - Barnehurst,1,"Northend Road, Erith DA8",0,0,pre-owned,360000.0,semi_detached,0,Other,3 bed semi-detached house for sale,51.465618,0.180747,79.0,3,1,2,2021-05-18,360000.0,0,0,1,Chesham,14183,0
12124,12124,Bexley,2021-05-16,EweMove Sales & Lettings - Bexleyheath,1,"Crook Log, Bexleyheath DA6",1,0,pre-owned,300000.0,flat,0,leasehold,2 bed flat for sale,51.4592,0.130184,23.0,2,1,1,2021-05-16,300000.0,1,1,0,Gallions Reach,6638,15
12125,12125,Bexley,2021-05-14,Drewerys Property Consultants,0,"Manor Road, Sidcup DA15",0,0,pre-owned,300000.0,maisonette,0,leasehold,2 bed maisonette for sale,51.430801,0.098916,7.0,2,1,1,2021-05-14,300000.0,0,0,1,Gallions Reach,8124,16
12126,12126,Bexley,2021-05-06,L&Q at Eastside Quarter,1,"Broadway, Bexleyheath DA6",0,1,new,437500.0,flat,0,leasehold,3 bed flat for sale,51.455555,0.15356,114.0,3,2,1,2021-05-06,437500.0,0,1,0,Chesham,12303,6
12127,12127,Bexley,2021-05-06,L&Q at Eastside Quarter,1,"Broadway, Bexleyheath DA6",0,1,new,109375.0,flat,0,leasehold,3 bed flat for sale,51.455555,0.15356,114.0,3,2,1,2021-05-06,109375.0,0,1,0,Chesham,12303,6
12128,12128,Bexley,2021-05-06,Able Estates,0,"Windrush Court, Chichester Wharf, Erith DA8",0,0,pre-owned,195000.0,flat,0,share_of_freehold,1 bed flat for sale,51.484355,0.176695,48.0,1,1,1,2021-05-06,200000.0,0,1,0,Chesham,13372,4
12129,12129,Bexley,2021-04-29,Acorn - Blackfen,1,"Blackfen Parade, Blackfen Road, Blackfen, Sidcup DA15",0,0,pre-owned,500000.0,bungalow,0,freehold,3 bed bungalow for sale,51.448418,0.115862,117.0,3,1,1,2021-04-29,500000.0,0,1,1,Gallions Reach,7035,2
12130,12130,Bexley,2021-04-19,Acorn - Blackfen,0,"Fen Grove, Blackfen, Sidcup DA15",0,0,pre-owned,565000.0,semi_detached,0,freehold,4 bed semi-detached house for sale,51.450143,0.093907,163.0,4,2,2,2021-04-19,575000.0,0,0,1,Gallions Reach,6396,1
12131,12131,Bexley,2021-04-08,Able Estates,0,"Redpoll Way, South Thamesmead DA18",0,0,pre-owned,230000.0,town_house,0,freehold,3 bed town house for sale,51.49519,0.129726,93.0,3,1,1,2021-04-08,245000.0,0,0,1,Becontree,10250,0
12132,12132,Bexley,2021-04-04,EweMove Sales & Lettings - Bexleyheath,0,"Oaklands Road, Bexleyheath DA6",0,0,pre-owned,850000.0,detached,0,freehold,5 bed detached house for sale,51.4528,0.140774,391.0,5,3,3,2021-04-04,850000.0,0,0,1,Becontree,12284,13
12133,12133,Bexley,2021-03-18,Livermores - Crayford,1,"Wyatt Road, Crayford, Dartford DA1",0,0,pre-owned,125000.0,studio,0,leasehold,Studio for sale,51.4608,0.180912,26.0,0,1,0,2021-03-18,130000.0,0,1,1,Chesham,14311,0
12134,12134,Bexley,2021-03-08,Lanes New Homes - Hertford,1,"Egerton Place - Apartments, Off Richmer Road, Erith, Kent DA8",0,0,new,250000.0,flat,0,leasehold,1 bed flat for sale,51.472035,0.187282,51.0,1,0,0,2021-03-08,250000.0,1,1,0,Dagenham East,15386,3
12135,12135,Bexley,2021-02-08,EweMove Sales & Lettings - Bexleyheath,0,"Wickham Lane, Welling DA16",0,0,pre-owned,275000.0,flat,0,leasehold,2 bed flat for sale,51.475879,0.10806,25.0,2,2,1,2021-02-08,285000.0,0,0,0,Gallions Reach,4827,1
12136,12136,Brent,2021-07-05,Camerons Stiff & Co.,0,"Milman Road, London NW6",0,0,pre-owned,2500000.0,semi_detached,0,Other,5 bed semi-detached house for sale,51.53453,-0.212255,181.0,5,3,2,2021-07-05,2500000.0,0,0,1,Queen's Park,462,17
12137,12137,Brent,2021-07-05,"Purplebricks, Head Office",0,"Pempath Place, Wembley HA9",0,0,pre-owned,250000.0,flat,0,leasehold,1 bed flat for sale,51.567423,-0.305204,39.0,1,1,1,2021-07-05,250000.0,0,1,0,South Kenton,448,1
12138,12138,Brent,2021-07-05,Anthology - Wembley Parade,1,"North End Road, Wembley HA9",0,0,new,575000.0,flat,0,leasehold,2 bed flat for sale,51.559057990566,-0.279574622641509,81.0,2,2,0,2021-07-05,575000.0,1,0,1,Wembley Park,446,20
12139,12139,Brent,2021-07-05,Hillyards Estate Agents,1,"Hendon Waterside NW9, London",0,0,pre-owned,260000.0,flat,0,Other,1 bed flat for sale,51.576061,-0.241017,30.0,1,1,1,2021-07-05,260000.0,1,1,1,Hendon Central,1289,4
12140,12140,Brent,2021-07-05,Churchill & Mathesons – Harlesden,1,"St. Johns Avenue, London NW10",0,0,pre-owned,450000.0,flat,0,leasehold,2 bed flat for sale,51.539443,-0.247352,71.0,2,1,1,2021-07-05,450000.0,0,1,0,Willesden Junction,822,11
12141,12141,Brent,2021-07-04,Ashfield Estates,0,"Rayners Close, Wembley HA0",0,0,pre-owned,249950.0,flat,0,leasehold,1 bed flat for sale,51.554199,-0.305088,50.0,1,1,1,2021-07-04,249950.0,0,1,1,Upminster,570,14
12142,12142,Brent,2021-07-03,Camerons Stiff & Co.,0,"College Yard, Winchester Avenue, London NW6",0,0,pre-owned,595000.0,flat,0,Other,2 bed flat for sale,51.541301,-0.207636,73.0,2,1,1,2021-07-03,595000.0,0,0,0,Upminster,648,14
12143,12143,Brent,2021-07-03,Wenlock & Taylor,1,"Kenmont Gardens, College Park, Kensal Green NW10",0,0,pre-owned,749500.0,Other,0,freehold,3 bed property for sale,51.531374,-0.237149,99.0,3,1,3,2021-07-03,749500.0,1,0,1,Willesden Junction,673,9
12144,12144,Brent,2021-07-03,Barratt London - Hendon Waterside,1,"""Harp View Apartments"" at Moorhen Drive, Edgware NW9",0,0,new,502500.0,flat,0,leasehold,2 bed flat for sale,51.577404,-0.242804,72.0,2,2,1,2021-07-03,502500.0,1,1,1,Hendon Central,1158,4
12145,12145,Brent,2021-07-03,Garrison Estates,0,"Tennyson Road, Queens Park, London NW6",0,0,pre-owned,1699950.0,terraced,0,Other,4 bed terraced house for sale,51.53858,-0.20277,161.0,4,2,2,2021-07-03,1699950.0,1,0,1,Queen's Park,461,28
12146,12146,Brent,2021-07-02,Hoopers Estate Agents,1,"Cornmow Drive, London NW10",0,0,pre-owned,370000.0,flat,0,Other,2 bed flat for sale,51.554502,-0.242907,49.0,2,0,0,2021-07-02,370000.0,0,1,1,Dollis Hill,425,1
12147,12147,Brent,2021-07-02,Knight Frank - Queens Park Sales,0,"Hanover Road, London NW10",0,0,pre-owned,1650000.0,terraced,0,Other,5 bed terraced house for sale,51.541397,-0.224781,226.0,5,3,1,2021-07-02,1650000.0,0,0,0,Willesden Green,865,2
12148,12148,Brent,2021-07-02,Knight Frank - St John's Wood Sales,0,"Leith Mansions, Grantully Road, London W9",0,0,pre-owned,1250000.0,flat,0,Other,3 bed flat for sale,51.5291,-0.190904,97.0,3,2,1,2021-07-02,1250000.0,0,0,1,Maida Vale,482,12
12149,12149,Brent,2021-07-02,Ashley Milton,1,"Kilburn Park Road, London NW6",0,0,pre-owned,429950.0,flat,0,Other,1 bed flat for sale,51.52985,-0.194535,52.0,1,1,1,2021-07-02,429950.0,0,0,0,Kilburn Park,472,10
12150,12150,Brent,2021-07-02,Squires Estates,0,"Beaufort Square, Colindale, London NW9",0,0,pre-owned,820000.0,flat,0,leasehold,3 bed flat for sale,51.59554,-0.240315,93.0,3,3,1,2021-07-02,820000.0,0,1,1,Colindale,640,3
12151,12151,Brent,2021-07-01,Hastings International - London Bridge,0,"Newman Close, London NW10",0,0,pre-owned,450000.0,flat,0,Other,1 bed flat for sale,51.54643,-0.228767,53.0,1,0,0,2021-07-01,450000.0,1,1,0,Willesden Green,540,7
12152,12152,Brent,2021-07-01,"Purplebricks, Head Office",0,"33 Olympic Way, Wembley HA9",0,0,pre-owned,585000.0,flat,0,leasehold,2 bed flat for sale,51.55894,-0.279076,74.0,2,2,1,2021-07-01,585000.0,1,0,1,Wembley Park,500,20
12153,12153,Brent,2021-07-01,EweMove Sales & Lettings - Greenford,1,"Abbey Avenue, Wembley HA0",0,0,pre-owned,460000.0,terraced,0,freehold,3 bed terraced house for sale,51.5367,-0.293165,19.0,3,1,1,2021-07-01,460000.0,1,1,1,Upminster,539,3
12154,12154,Brent,2021-07-01,Shaw and Reeves Estates,0,"Brookfield Court, Gooseacre Lane, Kenton HA3",0,0,pre-owned,329000.0,flat,0,leasehold,2 bed flat for sale,51.585922,-0.298554,53.0,2,1,1,2021-07-01,329000.0,0,0,1,Preston Road,1306,2
12155,12155,Brent,2021-07-01,Site Sales Property Group,0,"Acton Lane, Acton NW10",0,1,pre-owned,330000.0,flat,0,leasehold,1 bed flat for sale,51.530366,-0.266757,51.0,1,1,0,2021-07-01,330000.0,1,0,1,Upminster,715,2
12156,12156,Brent,2021-07-01,Chancellors - Stanmore,0,"Stanmore, Middlesex HA7",0,0,pre-owned,400000.0,flat,0,leasehold,2 bed flat for sale,51.596,-0.293,55.0,2,1,1,2021-07-01,400000.0,0,1,1,Queensbury,751,1
12157,12157,Brent,2021-07-01,Chancellors - Stanmore,0,"Harrow, Middlesex HA3",0,0,pre-owned,575000.0,terraced,0,freehold,3 bed terraced house for sale,51.601,-0.326,109.0,3,2,2,2021-07-01,575000.0,0,0,1,Harrow & Wealdston,1088,2
12158,12158,Brent,2021-07-01,Churchill & Mathesons – Harlesden,1,"Wendover Road, London NW10",0,0,pre-owned,545000.0,flat,0,Other,4 bed flat for sale,51.533985,-0.245207,6.0,4,1,1,2021-07-01,545000.0,0,0,0,Willesden Junction,245,11
12159,12159,Brent,2021-07-01,Churchill & Mathesons – Harlesden,1,"Wendover Road, London NW10",0,0,pre-owned,545000.0,flat,0,Other,3 bed flat for sale,51.533985,-0.245207,5.0,3,1,1,2021-07-01,545000.0,0,0,1,Willesden Junction,245,11
12160,12160,Brent,2021-06-30,Fraser & Co - Paddington,0,"Canterbury House, London NW6",0,0,pre-owned,665000.0,flat,0,leasehold,2 bed flat for sale,51.534652,-0.197648,59.0,2,2,1,2021-06-30,665000.0,1,0,1,Kilburn Park,223,18
12161,12161,Brent,2021-06-30,Pioneer Property Group,1,"Harlesden, London NW10",0,0,new,345000.0,flat,0,leasehold,1 bed flat for sale,51.538237,-0.257579,48.0,1,1,1,2021-06-30,345000.0,0,0,1,Harlesden,184,4
12162,12162,Brent,2021-06-30,Pioneer Property Group,1,"Harlesden, London NW10",0,0,new,595000.0,flat,0,leasehold,3 bed flat for sale,51.538237,-0.257579,90.0,3,2,1,2021-06-30,595000.0,0,0,1,Harlesden,184,4
12163,12163,Brent,2021-06-30,Pioneer Property Group,1,"Harlesden, London NW10",0,0,new,445000.0,flat,0,leasehold,2 bed flat for sale,51.538237,-0.257579,65.0,2,2,1,2021-06-30,445000.0,0,0,1,Harlesden,184,4
12164,12164,Brent,2021-06-30,"Purplebricks, Head Office",1,"2 Weaver Walk, London HA9",0,0,pre-owned,350000.0,flat,0,leasehold,1 bed flat for sale,51.559968,-0.280509,51.0,1,1,1,2021-06-30,350000.0,1,0,0,Wembley Park,423,20
12165,12165,Brent,2021-06-30,Churchill & Mathesons – Harlesden,1,"Leghorn Road, London NW10",0,0,pre-owned,550000.0,flat,0,Other,4 bed flat for sale,51.534912,-0.240613,7.0,4,1,1,2021-06-30,550000.0,0,0,0,Willesden Junction,609,10
12166,12166,Brent,2021-06-30,Churchill & Mathesons – Harlesden,1,"Leghorn Road, London NW10",0,0,pre-owned,550000.0,flat,0,Other,3 bed flat for sale,51.534912,-0.240613,6.0,3,1,1,2021-06-30,550000.0,0,0,1,Willesden Junction,609,10
12167,12167,Brent,2021-06-30,Marsh & Parsons - Queens Park,0,"Brondesbury Road, London NW6",0,0,pre-owned,800000.0,flat,0,share_of_freehold,2 bed flat for sale,51.535042,-0.201994,90.0,2,1,1,2021-06-30,800000.0,1,0,0,Queen's Park,204,11
12168,12168,Brent,2021-06-30,Aspect,1,"Cross Way, Willesden NW10",0,0,pre-owned,729950.0,terraced,0,Other,4 bed terraced house for sale,51.542135,-0.235582,151.0,4,2,1,2021-06-30,729950.0,0,0,1,Dollis Hill,1041,1
12169,12169,Brent,2021-06-30,Squires Estates,0,"Aviation Drive, Colindale, London NW9",0,1,pre-owned,450000.0,flat,0,leasehold,3 bed flat for sale,51.596491,-0.239255,84.0,3,1,1,2021-06-30,450000.0,1,1,0,Colindale,714,3
12170,12170,Brent,2021-06-30,Rigby and Marchant,0,"Mount Pleasant Road, London NW10",0,0,pre-owned,1250000.0,flat,0,leasehold,4 bed flat for sale,51.538673,-0.220436,133.0,4,2,1,2021-06-30,1250000.0,0,1,1,Kensal Green,943,4
12171,12171,Brent,2021-06-30,Stones Residential,0,"Whisperwood Close, Harrow Weald, Harrow HA3",0,0,pre-owned,330000.0,flat,0,Other,1 bed flat for sale,51.605937,-0.334534,45.0,1,1,1,2021-06-30,330000.0,0,1,0,Harrow & Wealdston,1223,2
12172,12172,Brent,2021-06-30,Barratt London - Hendon Waterside,1,"""Harp View Apartments"" at Moorhen Drive, Edgware NW9",0,0,new,527500.0,flat,0,leasehold,2 bed flat for sale,51.577404,-0.242804,72.0,2,2,1,2021-06-30,527500.0,1,1,0,Hendon Central,1158,4
12173,12173,Brent,2021-06-29,Hoopers Estate Agents,1,"Lovat Close, London NW2",0,0,pre-owned,385000.0,maisonette,0,Other,2 bed maisonette for sale,51.5598,-0.244853,57.0,2,0,0,2021-06-29,385000.0,0,0,1,Neasden,706,1
12174,12174,Brent,2021-06-29,Hoopers Estate Agents,1,"Runbury Circle, London NW9",0,0,pre-owned,475000.0,terraced,0,Other,2 bed terraced house for sale,51.567352,-0.257981,78.0,2,0,0,2021-06-29,475000.0,1,0,1,Upminster,1329,0
12175,12175,Brent,2021-06-29,Hunters - Northfields,0,"Northwood Gardens, Perivale UB6",0,0,pre-owned,600000.0,terraced,0,freehold,3 bed terraced house for sale,51.554157,-0.328272,102.0,3,1,1,2021-06-29,600000.0,0,0,1,Sudbury Hill,555,1
12176,12176,Brent,2021-06-29,ML Estates,0,"Princes Court, Shoot Up Hill, Kilburn NW2",0,0,pre-owned,550000.0,flat,0,leasehold,2 bed flat for sale,51.550847,-0.208882,78.0,2,1,2,2021-06-29,550000.0,0,0,1,Kilburn,477,15
12177,12177,Brent,2021-06-29,Fairview New Homes - Regency Heights,1,"""Plot 141"" at Lakeside Drive, Park Royal, London NW10",0,0,new,485000.0,flat,0,leasehold,2 bed flat for sale,51.529751,-0.283969,6.0,2,0,0,2021-06-29,485000.0,1,0,1,Park Royal,454,3
12178,12178,Brent,2021-06-29,Latimer Homes - NOMA,1,"Kilburn High Road, London NW6",0,0,new,745000.0,flat,0,leasehold,2 bed flat for sale,51.536106,-0.191588,72.0,2,2,1,2021-06-29,745000.0,1,0,1,Kilburn Park,247,29
12179,12179,Brent,2021-06-29,Notting Hill Genesis - Oaklands Rise,1,"Old Oak Common Lane, London NW10",0,1,new,209200.0,flat,0,share_of_freehold,2 bed flat for sale,51.527359,-0.249447,79.0,2,2,1,2021-06-29,209200.0,1,0,1,Willesden Junction,579,1
12180,12180,Brent,2021-06-29,Notting Hill Genesis - Oaklands Rise,1,"Old Oak Common Lane, London NW10",0,1,new,179200.0,flat,0,share_of_freehold,2 bed flat for sale,51.527359,-0.249447,64.0,2,1,1,2021-06-29,179200.0,1,1,1,Willesden Junction,579,1
12181,12181,Brent,2021-06-29,Notting Hill Genesis - Oaklands Rise,1,"Old Oak Common Lane, London NW10",0,1,new,108250.0,flat,0,share_of_freehold,2 bed flat for sale,51.527359,-0.249447,64.0,2,1,1,2021-06-29,108250.0,1,1,1,Willesden Junction,579,1
12182,12182,Brent,2021-06-29,Notting Hill Genesis - Oaklands Rise,1,"Old Oak Common Lane, London NW10",0,1,new,108250.0,flat,0,share_of_freehold,2 bed flat for sale,51.527359,-0.249447,64.0,2,1,1,2021-06-29,108250.0,1,1,1,Willesden Junction,579,1
12183,12183,Brent,2021-06-29,Dexters - Cricklewood,1,"Dartmouth Road, Mapesbury, London NW2",0,0,pre-owned,1000000.0,flat,0,freehold,2 bed flat for sale,51.5476,-0.207942,121.0,2,2,1,2021-06-29,1000000.0,0,0,1,Kilburn,178,7
12184,12184,Brent,2021-06-29,Ashley Milton,0,"Carlton Vale, London NW6",0,0,pre-owned,725000.0,flat,0,Other,2 bed flat for sale,51.53307,-0.189131,77.0,2,1,1,2021-06-29,725000.0,0,0,0,Maida Vale,311,22
12185,12185,Brent,2021-06-28,Harris & Company,1,"Buchanan Gardens, London NW10",0,0,pre-owned,625000.0,flat,0,freehold,2 bed flat for sale,51.534076,-0.230372,65.0,2,1,1,2021-06-28,625000.0,0,0,1,Kensal Green,560,7
12186,12186,Brent,2021-06-28,Latimer Homes - NOMA,1,"Kilburn High Road, London NW6",0,0,new,700000.0,flat,0,leasehold,2 bed flat for sale,51.536133,-0.191523,73.0,2,2,1,2021-06-28,700000.0,1,0,1,Kilburn Park,244,29
12187,12187,Brent,2021-06-28,Liv London,0,"Sidmouth Road, London NW2",0,0,pre-owned,675000.0,flat,0,share_of_freehold,4 bed flat for sale,51.543136,-0.22503,141.0,4,2,1,2021-06-28,675000.0,0,1,1,Willesden Green,715,5
12188,12188,Brent,2021-06-28,Winkworth - Kensal Rise & Queen's Park,0,"Drayton Road, London NW10",0,0,pre-owned,499950.0,flat,0,leasehold,2 bed flat for sale,51.540638,-0.246066,72.0,2,1,1,2021-06-28,499950.0,0,0,0,Upminster,842,7
12189,12189,Brent,2021-06-28,Camerons Stiff & Co,0,"Olive Road, London NW2",0,0,pre-owned,1399950.0,terraced,0,Other,5 bed terraced house for sale,51.556392,-0.22232,206.0,5,3,2,2021-06-28,1399950.0,1,0,1,Willesden Green,873,0
12190,12190,Brent,2021-06-28,Wenlock & Taylor,1,"Rucklidge Avenue, Harlesden NW10",0,0,pre-owned,620000.0,terraced,0,freehold,3 bed terraced house for sale,51.533773,-0.240131,112.0,3,2,2,2021-06-28,620000.0,1,0,1,Willesden Junction,484,10
12191,12191,Brent,2021-06-28,Atlas Estates,0,"Neasden Lane North, Neasden NW10",0,0,pre-owned,335000.0,flat,0,leasehold,2 bed flat for sale,51.561105,-0.255175,50.0,2,1,1,2021-06-28,335000.0,0,0,0,Neasden,748,1
12192,12192,Brent,2021-06-25,Winkworth - Kensal Rise & Queen's Park,0,"Drayton Road, London NW10",0,0,pre-owned,850000.0,terraced,0,freehold,5 bed terraced house for sale,51.54034,-0.244823,131.0,5,2,2,2021-06-25,850000.0,0,0,1,Willesden Junction,883,7
12193,12193,Brent,2021-06-25,Hamilton Estates,0,"Shaftesbury Avenue, Kenton, Harrow HA3",0,0,pre-owned,985000.0,semi_detached,0,Other,4 bed semi-detached house for sale,51.575698,-0.29563,171.0,4,1,2,2021-06-25,985000.0,0,1,1,Preston Road,593,3
12194,12194,Brent,2021-06-25,Aspect,0,"Bramshill Road, Harlesden NW10",0,0,pre-owned,500000.0,flat,0,leasehold,3 bed flat for sale,51.534869,-0.249344,96.0,3,2,1,2021-06-25,500000.0,0,0,1,Willesden Junction,358,9
12195,12195,Brent,2021-06-25,eXp World UK,1,"Dudden Hill Lane, London NW10",0,0,pre-owned,825000.0,semi_detached,0,leasehold,4 bed semi-detached house for sale,51.555626,-0.244162,161.0,4,2,2,2021-06-25,825000.0,0,0,1,Neasden,342,2
12196,12196,Brent,2021-06-25,Camerons Stiff & Co,1,"Anson Road, London NW2",0,0,pre-owned,1300000.0,Other,0,Other,4 bed property for sale,51.554355,-0.221541,186.0,4,2,2,2021-06-25,1300000.0,0,1,1,Willesden Green,648,3
12197,12197,Brent,2021-06-25,Winkworth - Kensal Rise & Queen's Park,1,"Bathurst Gardens, London NW10",0,0,pre-owned,1299950.0,terraced,0,freehold,5 bed terraced house for sale,51.533523,-0.228028,188.0,5,3,2,2021-06-25,1299950.0,0,0,1,Kensal Green,399,6
12198,12198,Brent,2021-06-25,Gibbs Gillespie - Harrow,0,"Carmelite Road, Harrow HA3",0,0,pre-owned,250000.0,maisonette,0,leasehold,1 bed maisonette for sale,51.599468,-0.349263,39.0,1,1,1,2021-06-25,250000.0,0,1,1,Harrow & Wealdston,985,0
12199,12199,Brent,2021-06-25,Orient Estates,0,"Silverworks Close, Colindale NW9",0,0,pre-owned,450000.0,flat,0,leasehold,2 bed flat for sale,51.591335,-0.258468,74.0,2,2,1,2021-06-25,475000.0,1,1,1,Colindale,648,1
12200,12200,Brent,2021-06-25,Alexanders,0,"Victoria Road, Queens Park, London NW6",0,0,pre-owned,529950.0,flat,0,leasehold,1 bed flat for sale,51.538124,-0.198264,58.0,1,1,1,2021-06-25,529950.0,1,0,1,Upminster,499,35
12201,12201,Brent,2021-06-25,Barratt London - No. 10 Watkin Road,1,"""No.10 Watkin Road"" at Watkin Road, Wembley HA9",0,0,new,538000.0,flat,0,leasehold,2 bed flat for sale,51.560644,-0.275088,66.0,2,2,1,2021-06-25,538000.0,1,0,1,Wembley Park,540,3
12202,12202,Brent,2021-06-25,Garrison Estates,1,"Wrentham Avenue, Queens Park, London NW10",0,0,pre-owned,799950.0,flat,0,Other,3 bed flat for sale,51.535545,-0.218996,84.0,3,2,1,2021-06-25,799950.0,1,0,0,Kensal Green,668,15
12203,12203,Brent,2021-06-24,Hoopers Estate Agents,1,"Warren Road, London NW2",0,0,pre-owned,550000.0,terraced,0,Other,3 bed terraced house for sale,51.564939,-0.244511,84.0,3,0,0,2021-06-24,550000.0,1,1,1,Neasden,1236,0
12204,12204,Brent,2021-06-24,Bryan Maher,0,"Dean Court, Wembley HA0",0,0,pre-owned,350000.0,Other,1,leasehold,3 bed property for sale,51.564895,-0.313235,111.0,3,1,3,2021-06-24,350000.0,0,0,1,Upminster,803,0
12205,12205,Brent,2021-06-24,Bryan Maher,0,"Oakington Manor Drive, Wembley HA9",0,0,pre-owned,250000.0,semi_detached,1,leasehold,3 bed semi-detached house for sale,51.553432,-0.279451,84.0,3,1,2,2021-06-24,250000.0,0,0,1,Wembley Park,1240,21
12206,12206,Brent,2021-06-24,Bryan Maher,0,"Peel Road, Wembley HA9",0,0,pre-owned,200000.0,semi_detached,1,leasehold,2 bed semi-detached house for sale,51.564575,-0.305559,76.0,2,1,2,2021-06-24,200000.0,0,0,1,North Wembley,323,0
12207,12207,Brent,2021-06-24,Coopers Residential - Pinner,1,"Havelock Road, Harrow HA3",0,0,pre-owned,325000.0,maisonette,0,Other,1 bed maisonette for sale,51.59534,-0.33911,57.0,1,1,1,2021-06-24,325000.0,0,1,1,Harrow & Wealdston,324,11
12208,12208,Brent,2021-06-24,Marsh & Parsons - Willesden Green,0,"Colin Road, London NW10",0,0,pre-owned,525000.0,flat,0,leasehold,2 bed flat for sale,51.549851,-0.240841,61.0,2,2,1,2021-06-24,525000.0,1,0,0,Dollis Hill,252,2
12209,12209,Brent,2021-06-24,Strettons Auctions,0,"19 Tanfield Avenue, Neasden NW2",0,0,pre-owned,800000.0,semi_detached,1,freehold,7 bed semi-detached house for sale,51.559208,-0.248314,29.0,7,0,0,2021-06-24,800000.0,0,1,1,Neasden,507,1
12210,12210,Brent,2021-06-24,Daniels Estate Agents - Willesden Green,0,"Dudden Hill Lane, London NW10",0,0,pre-owned,675000.0,end_terrace,0,freehold,5 bed end terrace house for sale,51.552066,-0.242207,205.0,5,1,1,2021-06-24,675000.0,0,0,0,Dollis Hill,223,2
12211,12211,Brent,2021-06-24,Daniels Estate Agents - Willesden Green,0,"High Road, London NW10",0,0,pre-owned,450000.0,maisonette,0,freehold,2 bed maisonette for sale,51.549007,-0.241894,78.0,2,1,1,2021-06-24,450000.0,0,0,1,Dollis Hill,335,2
12212,12212,Brent,2021-06-24,Garrison Estates,0,"Mortimer Road, Kensal Rise, London NW10",0,0,pre-owned,1649950.0,terraced,0,Other,4 bed terraced house for sale,51.531928,-0.218892,192.0,4,2,2,2021-06-24,1649950.0,0,0,1,Kensal Green,380,19
12213,12213,Brent,2021-06-23,Vival Property,0,"Aerodrome Road, London NW9",0,0,pre-owned,819950.0,flat,0,Other,3 bed flat for sale,51.595514,-0.24339,97.0,3,3,1,2021-06-23,819950.0,0,0,1,Colindale,549,3
12214,12214,Brent,2021-06-23,Tobeal Estates Ltd,0,"Gowan Road, London NW10",0,0,pre-owned,650000.0,terraced,0,freehold,3 bed terraced house for sale,51.546522,-0.233105,104.0,3,2,2,2021-06-23,650000.0,1,1,1,Dollis Hill,693,4
12215,12215,Brent,2021-06-23,Camerons Stiff & Co,0,"Teignmouth Road, Mapesbury, London NW2",0,0,pre-owned,575000.0,flat,0,Other,1 bed flat for sale,51.549392,-0.210976,55.0,1,1,1,2021-06-23,575000.0,0,0,1,Kilburn,401,7
12216,12216,Brent,2021-06-23,Mapesbury Estate Agents,0,"Chichele Road, Willesden Green NW2",0,0,pre-owned,449000.0,flat,0,leasehold,1 bed flat for sale,51.552964,-0.218098,55.0,1,1,1,2021-06-23,449000.0,0,0,1,Willesden Green,363,20
12217,12217,Brent,2021-06-23,Compton Reeback Letting & Estate Agent,0,"Morshead Mansions, Morshead Road W9",0,0,pre-owned,1175000.0,flat,0,Other,3 bed flat for sale,51.529075,-0.193092,87.0,3,2,1,2021-06-23,1175000.0,0,0,1,Chesham,485,9
12218,12218,Brent,2021-06-23,Camerons Stiff & Co,1,"Dartmouth Road, Mapesbury, London NW2",0,0,pre-owned,475000.0,flat,0,freehold,2 bed flat for sale,51.549022,-0.213631,69.0,2,1,1,2021-06-23,475000.0,1,0,1,Willesden Green,437,6
12219,12219,Brent,2021-06-23,Plaza Estates,0,"Regents Plaza Apartments, Greville Road, London NW6",0,0,pre-owned,1375000.0,flat,0,Other,3 bed flat for sale,51.536104,-0.190885,158.0,3,3,1,2021-06-23,1375000.0,0,1,1,Kilburn Park,264,30
12220,12220,Brent,2021-06-22,Benham and Reeves - Kensington,1,"Lismore Boulevard, London NW9",0,0,pre-owned,450000.0,flat,0,leasehold,2 bed flat for sale,51.592822,-0.241357,69.0,2,2,1,2021-06-22,450000.0,1,0,1,Colindale,850,3
12221,12221,Brent,2021-06-22,Symonds & Sampson - Sturminster,0,"Oakington Manor Drive, Wembley HA9",0,0,pre-owned,250000.0,semi_detached,1,freehold,3 bed semi-detached house for sale,51.553518,-0.280925,84.0,3,1,2,2021-06-22,250000.0,0,0,1,Wembley Park,1168,23
12222,12222,Brent,2021-06-22,Symonds & Sampson - Sturminster,0,"Dean Court, Wembley HA0",0,0,pre-owned,350000.0,semi_detached,1,freehold,3 bed semi-detached house for sale,51.564629,-0.313336,111.0,3,1,3,2021-06-22,350000.0,0,0,1,Upminster,827,0
12223,12223,Brent,2021-06-22,Symonds & Sampson - Sturminster,0,"Peel Road, Wembley HA9",0,0,pre-owned,200000.0,semi_detached,1,freehold,2 bed semi-detached house for sale,51.565023,-0.305899,76.0,2,1,2,2021-06-22,200000.0,0,0,1,North Wembley,362,0
12224,12224,Brent,2021-06-22,Hoopers Estate Agents,1,"Aylesbury Street, London NW10",0,0,pre-owned,495000.0,terraced,0,Other,3 bed terraced house for sale,51.561004,-0.258642,94.0,3,0,0,2021-06-22,495000.0,1,0,1,Neasden,972,0
12225,12225,Brent,2021-06-22,Hoopers Estate Agents,1,"Shepherds Walk, London NW2",0,0,pre-owned,339950.0,maisonette,0,Other,2 bed maisonette for sale,51.567427,-0.240158,49.0,2,0,0,2021-06-22,339950.0,0,1,1,Upminster,1464,1
12226,12226,Brent,2021-06-22,Hoopers Estate Agents,0,"Clifford Way, London NW10",0,0,pre-owned,650000.0,end_terrace,0,Other,3 bed end terrace house for sale,51.558116,-0.245264,95.0,3,0,0,2021-06-22,650000.0,1,0,1,Neasden,546,1
12227,12227,Brent,2021-06-22,Winkworth Kingsbury,1,"Kenton Road, Harrow HA3",0,0,new,365000.0,flat,0,leasehold,2 bed flat for sale,51.587422,-0.299682,65.0,2,1,1,2021-06-22,365000.0,0,0,0,Queensbury,1267,2
12228,12228,Brent,2021-06-22,Winkworth - Hendon,0,"Moorhen Drive, West Hendon NW9",0,0,pre-owned,535000.0,flat,0,leasehold,2 bed flat for sale,51.577864,-0.242945,93.0,2,2,1,2021-06-22,535000.0,1,1,0,Hendon Central,1122,4
12229,12229,Brent,2021-06-22,Fairview New Homes - Regency Heights,1,"""Plot 97"" at Lakeside Drive, Park Royal, London NW10",0,0,new,350000.0,flat,0,leasehold,1 bed flat for sale,51.529751,-0.283969,5.0,1,0,0,2021-06-22,350000.0,1,0,1,Park Royal,454,3
12230,12230,Brent,2021-06-22,Portland Estate Agents,1,"Glynfield Road, Harlesden, London NW10",0,0,pre-owned,650000.0,terraced,0,Other,3 bed terraced house for sale,51.542465,-0.251367,113.0,3,1,1,2021-06-22,650000.0,0,0,1,Harlesden,672,2
12231,12231,Brent,2021-06-22,Camerons Stiff & Co,0,"Harlesden Road, London NW10",0,0,pre-owned,799950.0,detached,0,Other,3 bed detached house for sale,51.538047,-0.249763,151.0,3,2,1,2021-06-22,799950.0,0,1,0,Upminster,590,10
12232,12232,Brent,2021-06-22,Fairview New Homes - Regency Heights,1,"""Plot 116"" at Lakeside Drive, Park Royal, London NW10",0,0,new,527000.0,flat,0,leasehold,2 bed flat for sale,51.529751,-0.283969,7.0,2,0,0,2021-06-22,527000.0,1,0,1,Park Royal,454,3
12233,12233,Brent,2021-06-22,Stella Lange LLP,0,"Keslake Road, Queens Park NW6",0,0,pre-owned,650000.0,flat,0,share_of_freehold,2 bed flat for sale,51.53409,-0.21676,67.0,2,1,1,2021-06-22,599950.0,0,1,1,Kensal Green,651,16
12234,12234,Brent,2021-06-22,"Purplebricks, Head Office",1,"Elspeth Road, Wembley HA0",0,0,pre-owned,600000.0,terraced,0,freehold,4 bed terraced house for sale,51.553278,-0.298388,111.0,4,2,1,2021-06-22,600000.0,1,0,1,Wembley Central,313,26
12235,12235,Brent,2021-06-22,The Estate Company,0,"Greville Place, London NW6",0,0,pre-owned,925000.0,flat,0,Other,3 bed flat for sale,51.533599,-0.189062,119.0,3,2,1,2021-06-22,925000.0,1,1,0,Chesham,351,25
12236,12236,Brent,2021-06-22,Benham and Reeves - Kensington,0,"Boulevard Drive, London NW9",0,0,pre-owned,310000.0,Other,0,leasehold,1 bed property for sale,51.596304,-0.24154,40.0,1,1,0,2021-06-22,310000.0,1,1,0,Colindale,732,3
12237,12237,Brent,2021-06-21,Hoopers Estate Agents,1,"Cairnfield Avenue, London NW2",0,0,pre-owned,625000.0,terraced,0,Other,4 bed terraced house for sale,51.56187,-0.248567,129.0,4,0,0,2021-06-21,625000.0,1,0,1,Neasden,775,1
12238,12238,Brent,2021-06-21,Warwick Estate Agents,0,"Harrow Road, College Park, London NW10",0,0,pre-owned,389000.0,flat,0,Other,1 bed flat for sale,51.531127,-0.230758,50.0,1,1,1,2021-06-21,389000.0,1,1,0,Kensal Green,330,7
12239,12239,Brent,2021-06-21,Empire Estates,0,"Bolton Road, London NW10",0,0,pre-owned,830000.0,terraced,0,leasehold,5 bed terraced house for sale,51.539001,-0.250854,139.0,5,2,2,2021-06-21,830000.0,1,1,1,Upminster,494,9
12240,12240,Brent,2021-06-21,"Purplebricks, Head Office",0,"Talisman Way, Wembley HA9",0,0,pre-owned,400000.0,flat,0,leasehold,2 bed flat for sale,51.563469,-0.290548,85.0,2,1,1,2021-06-21,400000.0,1,0,1,Upminster,755,0
12241,12241,Brent,2021-06-21,Camerons Stiff & Co,0,"Fleetwood Road, London NW10",0,0,pre-owned,869950.0,semi_detached,0,Other,3 bed semi-detached house for sale,51.553939,-0.236309,111.0,3,1,2,2021-06-21,869950.0,0,1,1,Dollis Hill,301,1
12242,12242,Brent,2021-06-21,Abacus Estates - Kensal Rise,1,"Chevening Road, Queens Park NW6",0,0,pre-owned,799000.0,flat,0,leasehold,2 bed flat for sale,51.539887,-0.210171,75.0,2,1,1,2021-06-21,799000.0,0,0,0,Queen's Park,593,7
12243,12243,Brent,2021-06-21,Daniels Estate Agents - Willesden Green,0,"Mark Twain Drive, London NW2",0,0,pre-owned,1000000.0,town_house,0,leasehold,4 bed town house for sale,51.557537,-0.227872,115.0,4,3,1,2021-06-21,1000000.0,0,1,1,Upminster,1123,0
12244,12244,Brent,2021-06-21,Knight Frank - Queens Park Sales,0,"Dartmouth Road, London NW2",0,0,pre-owned,2950000.0,detached,0,Other,5 bed detached house for sale,51.548853,-0.212632,295.0,5,4,2,2021-06-21,2950000.0,1,1,1,Kilburn,426,5
12245,12245,Brent,2021-06-21,Camerons Stiff & Co,0,"Sidmouth Road, London NW2",0,0,pre-owned,1999950.0,Other,0,Other,4 bed property for sale,51.54457,-0.222113,294.0,4,2,4,2021-06-21,1999950.0,0,0,1,Willesden Green,519,3
12246,12246,Brent,2021-06-20,Barratt London - Hendon Waterside,1,"""Harp View Apartments"" at Moorhen Drive, Edgware NW9",0,0,new,430000.0,flat,0,leasehold,1 bed flat for sale,51.577404,-0.242804,51.0,1,1,1,2021-06-20,430000.0,1,1,0,Hendon Central,1158,4
12247,12247,Brent,2021-06-19,"Purplebricks, Head Office",0,"Beechcroft Gardens, Wembley HA9",0,0,pre-owned,1150000.0,detached_bungalow,0,freehold,7 bed detached bungalow for sale,51.56185,-0.288661,201.0,7,3,2,2021-06-19,1150000.0,0,1,1,Wembley Park,585,7
12248,12248,Brent,2021-06-18,Hunter Realty,0,"Beaufort Square, Edgware NW9",0,0,pre-owned,510000.0,flat,0,leasehold,2 bed flat for sale,51.595945,-0.238958,76.0,2,2,1,2021-06-18,510000.0,1,1,1,Colindale,668,3
12249,12249,Brent,2021-06-18,Comfort Properties,1,"Moorhen Drive, London NW9",0,0,pre-owned,535000.0,flat,0,leasehold,2 bed flat for sale,51.577864,-0.242945,96.0,2,2,1,2021-06-18,535000.0,1,0,0,Hendon Central,1122,4
12250,12250,Brent,2021-06-18,Hoopers Estate Agents,0,"Anson Road, London NW2",0,0,pre-owned,1750000.0,semi_detached,0,Other,8 bed semi-detached house for sale,51.554388,-0.225212,206.0,8,0,0,2021-06-18,1750000.0,0,1,1,Willesden Green,829,0
12251,12251,Brent,2021-06-18,Persona Homes - Anthology Wembley Parade,1,"C102, North End Road, Wembley HA9",0,1,new,132500.0,flat,0,leasehold,2 bed flat for sale,51.561588,-0.276935,79.0,2,2,1,2021-06-18,132500.0,1,0,1,Wembley Park,480,9
12252,12252,Brent,2021-06-18,Persona Homes - Anthology Wembley Parade,1,"Ag02, North End Road, Wembley HA9",0,1,new,281250.0,flat,0,leasehold,1 bed flat for sale,51.561503,-0.277234,55.0,1,1,1,2021-06-18,281250.0,1,0,1,Wembley Park,467,9
12253,12253,Brent,2021-06-18,LRC - London Sales and Letting Agency,1,"Telegraph Avenue, Colindale, London NW9",0,0,new,299500.0,studio,0,leasehold,Studio for sale,51.5989451105263,-0.247741507894737,39.0,0,1,1,2021-06-18,299500.0,1,0,1,Colindale,485,4
12254,12254,Brent,2021-06-18,Abacus Estates - Kensal Rise,1,"Chevening Road, Queens Park NW6",0,0,pre-owned,675000.0,flat,0,leasehold,2 bed flat for sale,51.53452,-0.217719,72.0,2,2,1,2021-06-18,675000.0,1,0,0,Kensal Green,674,16
12255,12255,Brent,2021-06-18,Marsh & Parsons - Willesden Green,0,"Rutland Park Gardens, London NW2",0,0,pre-owned,775000.0,flat,0,share_of_freehold,3 bed flat for sale,51.548051,-0.221641,113.0,3,1,1,2021-06-18,775000.0,0,0,1,Willesden Green,172,4
12256,12256,Brent,2021-06-18,Camerons Stiff & Co,0,"Okehampton Road, London NW10",0,0,pre-owned,2400000.0,Other,0,Other,5 bed property for sale,51.538532,-0.219317,245.0,5,3,2,2021-06-18,2400000.0,1,0,1,Kensal Green,926,6
12257,12257,Brent,2021-06-18,Camerons Stiff & Co.,0,"Brooksville Avenue, London NW6",0,0,pre-owned,2300000.0,Other,0,Other,4 bed property for sale,51.53783,-0.208585,183.0,4,3,3,2021-06-18,2300000.0,1,0,1,Queen's Park,424,12
12258,12258,Brent,2021-06-18,Savills - Ealing,0,"Falcondale Court, Lakeside Drive, London NW10",0,0,pre-owned,450000.0,flat,0,leasehold,2 bed flat for sale,51.531377,-0.28323,68.0,2,2,1,2021-06-18,450000.0,1,1,1,Upminster,834,1
12259,12259,Brent,2021-06-18,Empire Estates,0,"Teignmouth Road, London NW2",0,0,pre-owned,725000.0,flat,0,leasehold,3 bed flat for sale,51.550201,-0.218692,88.0,3,2,1,2021-06-18,725000.0,0,0,1,Willesden Green,173,16
12260,12260,Brent,2021-06-18,Mile Kensal Rise,0,"Tubbs Road, London NW10",0,0,pre-owned,525000.0,flat,0,leasehold,3 bed flat for sale,51.533191,-0.243425,99.0,3,2,1,2021-06-18,525000.0,0,0,1,Willesden Junction,253,12
12261,12261,Brent,2021-06-18,Abacus Estates - Kensal Rise,0,"Malvern Road, Queens Park NW6",0,0,pre-owned,600000.0,flat,0,leasehold,2 bed flat for sale,51.530448,-0.197838,58.0,2,2,1,2021-06-18,600000.0,0,0,0,Upminster,467,10
12262,12262,Brent,2021-06-18,Marsh & Parsons - Queens Park,1,"Hazelmere Road, London NW6",0,0,pre-owned,1550000.0,terraced,0,freehold,4 bed terraced house for sale,51.538847,-0.200096,158.0,4,1,2,2021-06-18,1550000.0,0,0,1,Queen's Park,560,32
12263,12263,Brent,2021-06-18,Camerons Stiff & Co,0,"Dobree Avenue, London NW10",0,0,pre-owned,1999950.0,semi_detached,0,Other,5 bed semi-detached house for sale,51.54293,-0.230937,275.0,5,4,2,2021-06-18,1999950.0,0,0,1,Willesden Green,958,5
12264,12264,Brent,2021-06-18,Camerons Stiff & Co,0,"Churchill Road, London NW2",0,0,pre-owned,725000.0,terraced,0,leasehold,3 bed terraced house for sale,51.549819,-0.232833,93.0,3,1,1,2021-06-18,725000.0,1,0,1,Dollis Hill,429,5
12265,12265,Brent,2021-06-18,Chancellors - Stanmore,0,"Harrow, Middlesex HA3",0,0,pre-owned,650000.0,end_terrace,0,freehold,3 bed end terrace house for sale,51.592182,-0.291908,95.0,3,2,2,2021-06-18,650000.0,1,1,1,Queensbury,658,2
12266,12266,Brent,2021-06-17,Benham and Reeves - Kensington,0,"Constantine House, Colindale NW9",0,0,pre-owned,500000.0,flat,0,leasehold,2 bed flat for sale,51.595641,-0.241075,72.0,2,2,0,2021-06-17,500000.0,1,0,0,Colindale,566,3
12267,12267,Brent,2021-06-17,Winkworth - Kensal Rise & Queen's Park,0,"Sellons Avenue, London NW10",0,0,pre-owned,650000.0,flat,0,leasehold,3 bed flat for sale,51.53923,-0.243308,111.0,3,2,1,2021-06-17,650000.0,0,0,1,Willesden Junction,791,10
12268,12268,Brent,2021-06-17,UK BC,1,"Colindale Avenue, London NW9",0,0,new,510000.0,flat,0,leasehold,2 bed flat for sale,51.596045,-0.241666,76.0,2,2,1,2021-06-17,510000.0,0,1,1,Colindale,533,3
12269,12269,Brent,2021-06-17,Bellgrange Estates,0,"Curtiss House, Heritage Avenue, Beaufort Park, Colindale, London NW9",0,0,pre-owned,325000.0,flat,0,leasehold,1 bed flat for sale,51.595444,-0.24231,28.0,1,1,1,2021-06-17,325000.0,1,0,1,Colindale,465,3
12270,12270,Brent,2021-06-17,Dexters - Acton,1,"Huxley Gardens, London NW10",0,0,pre-owned,700000.0,terraced,0,freehold,3 bed terraced house for sale,51.534037,-0.288097,98.0,3,1,2,2021-06-17,700000.0,1,1,1,Hanger Lane,559,1
12271,12271,Brent,2021-06-17,Hinton & Downes,1,"Talbot Road, Harrow HA3",0,0,pre-owned,250000.0,flat,0,leasehold,1 bed flat for sale,51.596801,-0.328047,2.0,1,1,1,2021-06-17,250000.0,0,0,1,Harrow & Wealdston,669,10
12272,12272,Brent,2021-06-17,Orient Estates,0,"Moorhen Drive, West Hendon NW9",0,0,pre-owned,535000.0,flat,0,leasehold,2 bed flat for sale,51.577867,-0.242919,93.0,2,2,1,2021-06-17,535000.0,1,1,1,Hendon Central,1123,4
12273,12273,Brent,2021-06-17,Hart & Co,1,"Glynfield Road, London NW10",0,0,pre-owned,675000.0,terraced,0,Other,3 bed terraced house for sale,51.540901,-0.252227,139.0,3,1,0,2021-06-17,675000.0,1,0,0,Harlesden,530,5
12274,12274,Brent,2021-06-17,Camerons Stiff & Co.,0,"Chamberlayne Road, London NW10",0,0,pre-owned,1499950.0,semi_detached,0,Other,6 bed semi-detached house for sale,51.540485,-0.224951,209.0,6,2,2,2021-06-17,1499950.0,0,1,1,Willesden Green,945,1
12275,12275,Brent,2021-06-17,Camerons Stiff & Co,0,"Hanover Road, London NW10",0,0,pre-owned,1430000.0,terraced,0,Other,5 bed terraced house for sale,51.538955,-0.222466,188.0,5,3,3,2021-06-17,1430000.0,1,1,1,Kensal Green,945,3
12276,12276,Brent,2021-06-17,Garrison Estates,1,"Noko, 3-6 Banister Road, Kensal Rise, London W10",0,0,pre-owned,520000.0,flat,0,leasehold,2 bed flat for sale,51.531401,-0.21613,64.0,2,2,1,2021-06-17,520000.0,0,0,1,Kensal Green,548,20
12277,12277,Brent,2021-06-16,Benham and Reeves - Kensington,0,"Grahame Park Way, Beaufort Park, London NW9",0,0,pre-owned,380000.0,flat,0,leasehold,1 bed flat for sale,51.603636,-0.241127,60.0,1,1,0,2021-06-16,380000.0,1,1,0,Colindale,1056,2
12278,12278,Brent,2021-06-16,Orchards of London,1,"Alliance Close, Wembley HA0",0,0,pre-owned,325000.0,flat,0,leasehold,2 bed flat for sale,51.556044,-0.302468,54.0,2,2,1,2021-06-16,325000.0,0,1,0,Upminster,570,10
12279,12279,Brent,2021-06-16,Jorgensen Turner,0,"Regal Court, 169 Malvern Road, Queens Park, London NW6",0,0,pre-owned,585000.0,flat,0,leasehold,3 bed flat for sale,51.53236,-0.201213,74.0,3,0,0,2021-06-16,585000.0,1,0,0,Queen's Park,230,14
12280,12280,Brent,2021-06-16,Camerons Stiff & Co,1,"Chaplin Road, London NW2",0,0,pre-owned,875000.0,Other,0,Other,3 bed property for sale,51.548568,-0.236355,130.0,3,1,2,2021-06-16,875000.0,1,1,1,Dollis Hill,470,6
12281,12281,Brent,2021-06-16,Camerons Stiff & Co,0,"Kings Road, London NW10",0,0,pre-owned,569950.0,flat,0,Other,2 bed flat for sale,51.54425,-0.233687,68.0,2,1,1,2021-06-16,565000.0,0,0,1,Upminster,923,4
12282,12282,Brent,2021-06-16,Abacus Estates - Kensal Rise,1,"Creighton Road, Queens Park NW6",0,0,pre-owned,799950.0,flat,0,share_of_freehold,2 bed flat for sale,51.535379,-0.214604,109.0,2,2,1,2021-06-16,799950.0,0,0,0,Queen's Park,633,16
12283,12283,Brent,2021-06-16,Redrow - Lyon Square,1,"Lyon Road, London NW9",0,0,new,465000.0,flat,0,leasehold,2 bed flat for sale,51.595366,-0.249127,82.0,2,2,0,2021-06-16,490000.0,1,0,0,Colindale,77,4
12284,12284,Brent,2021-06-16,Daniels - Dollis Hill & Neasden,0,"Randall Avenue, London NW2",0,0,pre-owned,650000.0,semi_detached,0,Other,4 bed semi-detached house for sale,51.563088,-0.247107,139.0,4,2,3,2021-06-16,650000.0,0,0,1,Neasden,913,1
12285,12285,Brent,2021-06-16,Persona Homes - Anthology Wembley Parade,1,"C301, North End Road, Wembley HA9",0,1,new,191250.0,flat,0,leasehold,1 bed flat for sale,51.561743,-0.276719,50.0,1,1,1,2021-06-16,191250.0,1,0,1,Wembley Park,559,7
12286,12286,Brent,2021-06-16,Persona Homes - Anthology Wembley Parade,1,"D305, North End Road, Wembley HA9",0,1,new,95625.0,flat,0,leasehold,1 bed flat for sale,51.56159,-0.276247,51.0,1,1,1,2021-06-16,95625.0,1,0,1,Wembley Park,517,9
12287,12287,Brent,2021-06-16,Persona Homes - Anthology Wembley Parade,1,"C103, North End Road, Wembley HA9",0,1,new,112500.0,flat,0,leasehold,2 bed flat for sale,51.561588,-0.276935,63.0,2,1,1,2021-06-16,112500.0,1,0,1,Wembley Park,480,9
12288,12288,Brent,2021-06-16,Persona Homes - Anthology Wembley Parade,1,"D304, North End Road, Wembley HA9",0,1,new,476250.0,flat,0,leasehold,3 bed flat for sale,51.561635,-0.276988,97.0,3,2,1,2021-06-16,476250.0,1,0,1,Wembley Park,467,8
12289,12289,Brent,2021-06-15,Benham and Reeves - Kensington,1,"Marathon House, Olympic Way, Wembley HA9",0,0,pre-owned,560000.0,flat,0,leasehold,2 bed flat for sale,51.55894,-0.279076,77.0,2,2,0,2021-06-15,560000.0,1,0,0,Wembley Park,500,20
12290,12290,Brent,2021-06-15,Catalyst - Nova at Queensbury Square,1,"Honeypot Lane, Queensbury NW9",0,1,new,101875.0,flat,0,leasehold,2 bed flat for sale,51.591888,-0.284631,61.0,2,1,0,2021-06-15,101875.0,1,0,1,Queensbury,376,1
12291,12291,Brent,2021-06-15,Catalyst - Nova at Queensbury Square,1,"Honeypot Lane, Queensbury NW9",0,1,new,104375.0,flat,0,leasehold,2 bed flat for sale,51.591888,-0.284631,65.0,2,2,0,2021-06-15,104375.0,1,0,1,Queensbury,376,1
12292,12292,Brent,2021-06-15,Catalyst - Nova at Queensbury Square,1,"Honeypot Lane, Queensbury NW9",0,1,new,163000.0,flat,0,leasehold,2 bed flat for sale,51.591888,-0.284631,61.0,2,1,0,2021-06-15,163000.0,1,0,1,Queensbury,376,1
12293,12293,Brent,2021-06-15,Catalyst - Nova at Queensbury Square,1,"Honeypot Lane, Queensbury NW9",0,1,new,167000.0,flat,0,leasehold,2 bed flat for sale,51.591888,-0.284631,65.0,2,2,0,2021-06-15,167000.0,1,0,1,Queensbury,376,1
12294,12294,Brent,2021-06-15,Catalyst - Nova at Queensbury Square,1,"Honeypot Lane, Queensbury NW9",0,1,new,305625.0,flat,0,leasehold,2 bed flat for sale,51.591888,-0.284631,61.0,2,1,0,2021-06-15,305625.0,1,0,1,Queensbury,376,1
12295,12295,Brent,2021-06-15,Catalyst - Nova at Queensbury Square,1,"Honeypot Lane, Queensbury NW9",0,1,new,313125.0,flat,0,leasehold,2 bed flat for sale,51.591888,-0.284631,65.0,2,2,0,2021-06-15,313125.0,1,0,1,Queensbury,376,1
12296,12296,Brent,2021-06-15,Catalyst - Nova at Queensbury Square,1,"Honeypot Lane, Queensbury NW9",0,1,new,407500.0,flat,0,leasehold,2 bed flat for sale,51.591888,-0.284631,61.0,2,1,0,2021-06-15,407500.0,1,0,1,Queensbury,376,1
12297,12297,Brent,2021-06-15,Catalyst - Nova at Queensbury Square,1,"Honeypot Lane, Queensbury NW9",0,1,new,417500.0,flat,0,leasehold,2 bed flat for sale,51.591888,-0.284631,65.0,2,2,0,2021-06-15,417500.0,1,0,1,Queensbury,376,1
12298,12298,Brent,2021-06-15,Northside Estates,1,"Capitol Way, Edgware NW9",0,0,new,375000.0,flat,0,leasehold,1 bed flat for sale,51.594851,-0.261087,58.0,1,1,1,2021-06-15,375000.0,1,1,0,Upminster,753,2
12299,12299,Brent,2021-06-15,Heathgate,0,"Whitby Apartments, Robson Avenue, Willesden NW10",0,0,pre-owned,525000.0,flat,0,Other,2 bed flat for sale,51.542461,-0.236742,60.0,2,1,1,2021-06-15,525000.0,1,1,1,Dollis Hill,974,4
12300,12300,Brent,2021-06-15,Camerons Stiff & Co,1,"Walm Lane, London NW2",0,0,pre-owned,575000.0,flat,0,Other,3 bed flat for sale,51.547714,-0.224549,78.0,3,2,1,2021-06-15,575000.0,0,0,1,Willesden Green,240,8
12301,12301,Brent,2021-06-15,Camerons Stiff & Co,0,"Temple Road, London NW2",0,0,pre-owned,450000.0,flat,0,Other,2 bed flat for sale,51.55902,-0.222976,67.0,2,2,1,2021-06-15,450000.0,0,0,0,Willesden Green,1158,0
12302,12302,Brent,2021-06-15,"Purplebricks, Head Office",0,"Croxley Road, London W9",0,0,pre-owned,664000.0,flat,0,freehold,1 bed flat for sale,51.529197,-0.199045,68.0,1,1,1,2021-06-15,664000.0,0,0,1,Queen's Park,521,12
12303,12303,Brent,2021-06-15,Pioneer Property Group,1,"Beresford Ave, Wembley London HA0",0,0,new,395000.0,flat,0,leasehold,1 bed flat for sale,51.541138,-0.284781,50.0,1,1,1,2021-06-15,395000.0,0,0,0,Stonebridge Park,684,1
12304,12304,Brent,2021-06-15,Pioneer Property Group,1,"Beresford Ave, Wembley London HA0",0,0,new,545000.0,flat,0,leasehold,2 bed flat for sale,51.541138,-0.284781,72.0,2,2,1,2021-06-15,545000.0,0,0,0,Stonebridge Park,684,1
12305,12305,Brent,2021-06-15,Pioneer Property Group,1,"Beresford Ave, Wembley London HA0",0,0,new,731000.0,flat,0,leasehold,3 bed flat for sale,51.541138,-0.284781,105.0,3,2,1,2021-06-15,731000.0,0,0,0,Stonebridge Park,684,1
12306,12306,Brent,2021-06-15,Churchill & Mathesons – Harlesden,1,"Tunley Road, London NW10",0,0,pre-owned,625000.0,terraced,0,Other,3 bed terraced house for sale,51.54108,-0.252896,12.0,3,2,2,2021-06-15,625000.0,1,0,1,Harlesden,557,3
12307,12307,Brent,2021-06-15,Marsh & Parsons - Queens Park,0,"Okehampton Road, London NW10",0,0,pre-owned,2400000.0,semi_detached,0,Other,5 bed semi-detached house for sale,51.538625,-0.219708,242.0,5,3,2,2021-06-15,2400000.0,0,0,1,Kensal Green,922,5
12308,12308,Brent,2021-06-15,Pioneer Property Group,1,"Aerodrome Road, Colindale, London NW9",0,0,new,519000.0,flat,0,leasehold,2 bed flat for sale,51.595514,-0.24339,72.0,2,2,1,2021-06-15,519000.0,0,1,0,Colindale,549,3
12309,12309,Brent,2021-06-15,Pioneer Property Group,1,"Aerodrome Road, Collindale, London NW9",0,0,new,295000.0,studio,0,leasehold,Studio for sale,51.595514,-0.24339,40.0,0,1,1,2021-06-15,295000.0,0,0,0,Colindale,549,3
12310,12310,Brent,2021-06-15,Pioneer Property Group,1,"Aerodrome Road, Collindale, London NW9",0,0,new,380000.0,flat,0,leasehold,1 bed flat for sale,51.595514,-0.24339,50.0,1,1,1,2021-06-15,380000.0,0,0,0,Colindale,549,3
12311,12311,Brent,2021-06-15,Mile Kensal Rise,0,"Leighton Gardens, London NW10",0,0,pre-owned,775000.0,flat,0,Other,4 bed flat for sale,51.536815,-0.2249,104.0,4,2,1,2021-06-15,775000.0,1,0,0,Kensal Green,614,9
12312,12312,Brent,2021-06-15,Redrow - Colindale Gardens,1,"Colindale Avenue, London NW9",0,0,new,527500.0,flat,0,leasehold,2 bed flat for sale,51.595366,-0.249127,77.0,2,2,0,2021-06-15,527500.0,1,0,1,Colindale,77,4
12313,12313,Brent,2021-06-15,Strike,1,"Willesden Lane, London NW6",0,0,pre-owned,700000.0,flat,0,leasehold,2 bed flat for sale,51.543784,-0.210703,94.0,2,1,1,2021-06-15,700000.0,0,1,1,Kilburn,522,2
12314,12314,Brent,2021-06-15,Mapesbury Estate Agents,0,"Mora Road, Willesden NW2",0,0,pre-owned,469000.0,flat,0,share_of_freehold,3 bed flat for sale,51.558363,-0.223522,76.0,3,1,1,2021-06-15,469000.0,0,0,1,Willesden Green,1036,0
12315,12315,Brent,2021-06-15,Rigby and Marchant,1,"Linden Avenue, London NW10",0,0,pre-owned,1675000.0,Other,0,Other,4 bed property for sale,51.532417,-0.22029,194.0,4,2,2,2021-06-15,1675000.0,1,0,1,Kensal Green,414,21
12316,12316,Brent,2021-06-14,"Purplebricks, Head Office",0,"5 Boulevard Drive, Colindale NW9",0,1,pre-owned,395000.0,flat,0,leasehold,2 bed flat for sale,51.596112,-0.241937,65.0,2,1,1,2021-06-14,395000.0,0,1,1,Colindale,520,3
12317,12317,Brent,2021-06-14,Hoopers Estate Agents,0,"Vincent Gardens, London NW2",0,0,pre-owned,425000.0,maisonette,0,Other,2 bed maisonette for sale,51.562507,-0.243032,54.0,2,0,0,2021-06-14,425000.0,1,0,1,Neasden,975,1
12318,12318,Brent,2021-06-14,St George - Beaufort Park,1,"Aerodrome Road, London NW9",0,0,new,874950.0,flat,0,leasehold,3 bed flat for sale,51.595514,-0.24339,107.0,3,3,0,2021-06-14,874950.0,1,0,1,Colindale,549,3
12319,12319,Brent,2021-06-14,Strike,0,"Moorhen Drive, Edgware NW9",0,0,pre-owned,585000.0,flat,0,leasehold,2 bed flat for sale,51.577126,-0.242436,67.0,2,2,1,2021-06-14,585000.0,1,1,0,Hendon Central,1179,4
12320,12320,Brent,2021-06-13,DRE Residential,1,"Greenwich House, Colindale Avenue, Colindale NW9",0,0,new,357500.0,flat,0,leasehold,1 bed flat for sale,51.5952,-0.24987,47.0,1,1,1,2021-06-13,357500.0,1,0,1,Colindale,60,4
12321,12321,Brent,2021-06-12,Harris & Company,0,"Harrow Road, London NW10",0,0,pre-owned,585000.0,flat,0,leasehold,3 bed flat for sale,51.530849,-0.229378,89.0,3,2,0,2021-06-12,585000.0,0,0,0,Kensal Green,259,6
12322,12322,Brent,2021-06-11,Hoopers Estate Agents,0,"Review Road, London NW2",0,0,pre-owned,625000.0,end_terrace,0,Other,3 bed end terrace house for sale,51.566806,-0.243126,124.0,3,0,0,2021-06-11,625000.0,1,1,1,Neasden,1359,0
12323,12323,Brent,2021-06-11,Camerons Stiff & Co,0,"Melrose Avenue, London NW2",0,0,pre-owned,1550000.0,Other,0,Other,5 bed property for sale,51.552932,-0.224729,180.0,5,2,2,2021-06-11,1550000.0,0,0,1,Willesden Green,465,2
12324,12324,Brent,2021-06-11,Winkworth - St Johns Wood,0,"Morshead Mansions, Maida Vale W9",0,0,pre-owned,1500000.0,flat,0,leasehold,3 bed flat for sale,51.528735,-0.192887,153.0,3,2,1,2021-06-11,1500000.0,0,0,1,Chesham,458,11
12325,12325,Brent,2021-06-11,Camerons Stiff & Co,0,"Melrose Avenue, London NW2",0,0,pre-owned,1050000.0,Other,0,Other,4 bed property for sale,51.554733,-0.229123,153.0,4,1,2,2021-06-11,1050000.0,0,1,1,Willesden Green,709,0
12326,12326,Brent,2021-06-11,Winkworth - Kensal Rise & Queen's Park,0,"Holland Road, London, London NW10",0,0,pre-owned,1475000.0,end_terrace,0,freehold,5 bed end terrace house for sale,51.535724,-0.23384,207.0,5,2,2,2021-06-11,1475000.0,0,0,1,Kensal Green,765,3
12327,12327,Brent,2021-06-11,Hamilton Estates,0,"Neasden Lane North, London NW10",0,0,pre-owned,300000.0,flat,0,leasehold,2 bed flat for sale,51.560699,-0.255795,48.0,2,1,0,2021-06-11,300000.0,0,1,1,Neasden,711,1
12328,12328,Brent,2021-06-11,Homeview Estates Ltd,1,"Dudden Hill Lane, London NW10",0,0,pre-owned,299950.0,flat,0,Other,1 bed flat for sale,51.556806,-0.246656,51.0,1,1,1,2021-06-11,299950.0,1,0,0,Neasden,409,1
12329,12329,Brent,2021-06-11,Camerons Stiff & Co,0,"Dean Road, London NW2",0,0,pre-owned,850000.0,flat,0,Other,3 bed flat for sale,51.548198,-0.224479,126.0,3,2,1,2021-06-11,850000.0,1,0,0,Willesden Green,229,8
12330,12330,Brent,2021-06-11,Just Sold,0,"Lantern Close, Wembley HA0",0,0,pre-owned,550000.0,terraced,0,freehold,3 bed terraced house for sale,51.553566,-0.301536,115.0,3,2,2,2021-06-11,550000.0,1,0,1,Wembley Central,434,15
12331,12331,Brent,2021-06-10,Anthology - Wembley Parade,1,"North End Road, Wembley HA9",0,0,new,385000.0,flat,0,leasehold,1 bed flat for sale,51.561487,-0.276827,49.0,1,1,0,2021-06-10,385000.0,1,0,1,Wembley Park,486,9
12332,12332,Brent,2021-06-10,Pioneer Property Group,1,"Harlesden, London NW10",0,0,new,595000.0,flat,0,leasehold,3 bed flat for sale,51.538237,-0.257579,90.0,3,2,1,2021-06-10,595000.0,0,0,1,Harlesden,184,4
12333,12333,Brent,2021-06-10,Pioneer Property Group,1,"Harlesden, London NW10",0,0,new,445000.0,flat,0,leasehold,2 bed flat for sale,51.538237,-0.257579,65.0,2,2,1,2021-06-10,445000.0,0,0,1,Harlesden,184,4
12334,12334,Brent,2021-06-10,Pioneer Property Group,1,"Harlesden, London NW10",0,0,new,370000.0,flat,0,leasehold,1 bed flat for sale,51.538237,-0.257579,54.0,1,1,1,2021-06-10,370000.0,0,0,1,Harlesden,184,4
12335,12335,Brent,2021-06-10,Hoopers Estate Agents,1,"Spezia Road, London NW10",0,0,pre-owned,1000000.0,end_terrace,0,Other,4 bed end terrace house for sale,51.53491,-0.238904,136.0,4,0,0,2021-06-10,1000000.0,1,0,1,Willesden Junction,619,10
12336,12336,Brent,2021-06-10,Hoopers Estate Agents,0,"Village Way, London NW10",0,0,pre-owned,595000.0,terraced,0,Other,3 bed terraced house for sale,51.559241,-0.257425,95.0,3,0,0,2021-06-10,595000.0,1,1,1,Neasden,741,0
12337,12337,Brent,2021-06-10,Camerons Stiff & Co,0,"Sneyd Road, London NW2",0,0,pre-owned,1350000.0,semi_detached,0,Other,4 bed semi-detached house for sale,51.555877,-0.223867,149.0,4,2,2,2021-06-10,1350000.0,0,0,1,Willesden Green,909,0
12338,12338,Brent,2021-06-10,Chancellors - St John's Wood,0,"Simon Court, Maida Vale W9",0,0,pre-owned,750000.0,flat,0,leasehold,2 bed flat for sale,51.52908,-0.19868,98.0,2,2,1,2021-06-10,750000.0,0,0,1,Upminster,541,13
12339,12339,Brent,2021-06-10,Invest&Co,1,"Engineers Way, Wembley HA9",0,0,new,550000.0,flat,0,leasehold,2 bed flat for sale,51.559535,-0.276928,80.0,2,2,1,2021-06-10,550000.0,0,0,1,Wembley Park,690,20
12340,12340,Brent,2021-06-10,"Anderson, Brown & Clarke",0,"Radley Gardens, Kenton HA3",0,0,pre-owned,780000.0,semi_detached,0,freehold,6 bed semi-detached house for sale,51.588379,-0.292336,28.0,6,2,2,2021-06-10,799950.0,0,0,1,Queensbury,876,0
12341,12341,Brent,2021-06-10,Warwick Estate Agents,0,"Scrubs Lane, Willesden Junction, London NW10",0,0,pre-owned,450000.0,maisonette,0,leasehold,3 bed maisonette for sale,51.526336,-0.234512,73.0,3,1,1,2021-06-10,450000.0,1,0,0,Kensal Green,1079,2
12342,12342,Brent,2021-06-10,Camerons Stiff & Co,1,"Buxton Road, London NW2",0,0,pre-owned,360000.0,flat,0,leasehold,1 bed flat for sale,51.549663,-0.230275,53.0,1,1,1,2021-06-10,360000.0,1,0,0,Upminster,540,6
12343,12343,Brent,2021-06-10,L&Q - Regency Heights,1,"Lakeside Drive, Park Royal NW10",0,1,new,340000.0,flat,0,leasehold,1 bed flat for sale,51.529751,-0.283969,55.0,1,1,0,2021-06-10,340000.0,0,0,1,Park Royal,454,3
12344,12344,Brent,2021-06-10,L&Q - Regency Heights,1,"Lakeside Drive, Park Royal NW10",0,1,new,335000.0,flat,0,leasehold,1 bed flat for sale,51.529751,-0.283969,55.0,1,1,0,2021-06-10,335000.0,0,0,1,Park Royal,454,3
12345,12345,Brent,2021-06-10,L&Q - Regency Heights,1,"Lakeside Drive, Park Royal NW10",0,1,new,85000.0,flat,0,leasehold,1 bed flat for sale,51.529751,-0.283969,55.0,1,1,0,2021-06-10,85000.0,0,0,1,Park Royal,454,3
12346,12346,Brent,2021-06-10,Abacus Estates - Kensal Rise,1,"Peploe Road, Queens Park NW6",0,0,pre-owned,759950.0,flat,0,share_of_freehold,3 bed flat for sale,51.534515,-0.215081,90.0,3,2,1,2021-06-10,759950.0,0,0,0,Queen's Park,628,16
12347,12347,Brent,2021-06-10,Stone Real Estate,1,London NW10,0,0,new,599000.0,flat,0,leasehold,2 bed flat for sale,51.55395,-0.24388,74.0,2,2,0,2021-06-10,599000.0,1,0,1,Dollis Hill,364,1
12348,12348,Brent,2021-06-10,Stone Real Estate,1,London NW10,0,0,new,699000.0,flat,0,leasehold,3 bed flat for sale,51.55395,-0.24388,85.0,3,2,0,2021-06-10,699000.0,1,0,1,Dollis Hill,364,1
12349,12349,Brent,2021-06-10,Stone Real Estate,1,London NW10,0,0,new,430000.0,flat,0,leasehold,1 bed flat for sale,51.555181,-0.244274,50.0,1,1,0,2021-06-10,430000.0,1,0,1,Neasden,375,2
12350,12350,Brent,2021-06-09,Aston Square LTD,0,"Grove Park, Colindale, London NW9",0,0,pre-owned,305000.0,flat,0,leasehold,1 bed flat for sale,51.591955,-0.25922,39.0,1,1,0,2021-06-09,295000.0,0,0,0,Colindale,604,1
12351,12351,Brent,2021-06-09,Knight Frank - Queens Park Sales,0,"Mapesbury Road, Mapesbury, London NW2",0,0,pre-owned,1350000.0,flat,0,Other,3 bed flat for sale,51.549262,-0.210137,143.0,3,2,1,2021-06-09,1350000.0,0,0,1,Kilburn,359,8
12352,12352,Brent,2021-06-09,Gibbs Gillespie - New Homes,1,"La Reve, 19 High Street, Wealdstone, Harrow HA3",0,0,new,345000.0,flat,0,leasehold,1 bed flat for sale,51.593505,-0.335769,46.0,1,1,1,2021-06-09,345000.0,0,0,0,Harrow & Wealdston,83,11
12353,12353,Brent,2021-06-09,Mile Kensal Rise,0,"Wakeman Road, London NW10",0,0,pre-owned,540000.0,flat,0,freehold,2 bed flat for sale,51.530231,-0.222087,66.0,2,1,1,2021-06-09,540000.0,0,0,0,Kensal Green,218,20
12354,12354,Brent,2021-06-09,Mile Kensal Rise,1,"Cumberland Park, Scrubs Lane, London NW10",0,0,pre-owned,450000.0,flat,0,leasehold,3 bed flat for sale,51.52956,-0.236725,73.0,3,1,1,2021-06-09,450000.0,0,0,0,Upminster,803,6
12355,12355,Brent,2021-06-09,Camerons Stiff & Co.,0,"Glengall Road, London NW6",0,0,pre-owned,1299950.0,terraced,0,Other,3 bed terraced house for sale,51.539005,-0.201815,150.0,3,1,2,2021-06-09,1299950.0,1,0,1,Queen's Park,511,29
12356,12356,Brent,2021-06-09,Orient Estates,1,"Hirst Crescent, Wembley HA9",0,0,pre-owned,340000.0,flat,0,leasehold,2 bed flat for sale,51.56322,-0.296891,68.0,2,2,1,2021-06-09,340000.0,1,1,0,North Wembley,447,0
12357,12357,Brent,2021-06-09,Hector Godwin Homes,0,"Rowan Drive, London NW9",0,0,pre-owned,525000.0,flat,0,leasehold,2 bed flat for sale,51.5989451105263,-0.247741507894737,74.0,2,2,1,2021-06-09,525000.0,1,0,0,Colindale,485,4
12358,12358,Brent,2021-06-09,Hector Godwin Homes,0,"Chancellor Place, London NW9",0,0,pre-owned,410000.0,flat,0,leasehold,1 bed flat for sale,51.596267,-0.246234,50.0,1,1,1,2021-06-09,410000.0,1,0,0,Colindale,342,3
12359,12359,Brent,2021-06-08,Knight Frank - Queens Park Sales,0,"Chatsworth Road, London NW2",0,0,pre-owned,2650000.0,detached,0,Other,5 bed detached house for sale,51.547081,-0.214766,344.0,5,3,3,2021-06-08,2650000.0,0,1,1,Willesden Green,535,2
12360,12360,Brent,2021-06-08,Appartel,1,"109 Perryfield Road, Hendon, London NW9",0,0,new,385000.0,flat,0,leasehold,1 bed flat for sale,51.57917,-0.241884,39.0,1,1,1,2021-06-08,385000.0,0,0,0,Hendon Central,1090,4
12361,12361,Brent,2021-06-08,Keller Williams Prime Properties,0,"Kingsbridge Court, Coverdale Road, Brondesbury NW2",0,0,pre-owned,550000.0,flat,0,leasehold,2 bed flat for sale,51.544182,-0.214335,67.0,2,2,0,2021-06-08,550000.0,1,1,1,Upminster,719,1
12362,12362,Brent,2021-06-08,Liv International,0,"Alexander Avenue, Willesden Green NW10",0,0,pre-owned,3500000.0,terraced,0,freehold,9 bed terraced house for sale,51.542414,-0.23059,608.0,9,6,3,2021-06-08,3500000.0,0,1,1,Willesden Green,1025,5
12363,12363,Brent,2021-06-08,Gibbs Gillespie - Stanmore,0,"Colmer Place, Harrow, Middlesex HA3",0,0,pre-owned,525000.0,semi_detached,0,freehold,3 bed semi-detached house for sale,51.606388,-0.345276,76.0,3,1,1,2021-06-08,525000.0,0,1,1,Harrow & Wealdston,1597,1
12364,12364,Brent,2021-06-08,Catalyst - Resales,0,"Ensign House, Colindale NW9",0,1,pre-owned,100000.0,flat,0,leasehold,2 bed flat for sale,51.593966,-0.23792,61.0,2,1,0,2021-06-08,100000.0,1,1,1,Colindale,692,3
12365,12365,Brent,2021-06-08,The Property Shop,1,"Mayfield Avenue, Kenton, Harrow HA3",0,0,pre-owned,975000.0,semi_detached,0,freehold,5 bed semi-detached house for sale,51.584264,-0.316356,232.0,5,3,2,2021-06-08,975000.0,0,1,1,Kenton,259,8
12366,12366,Brent,2021-06-08,Property Inside London,1,"Conrad Court, Pulse, 9 Charcot Road, London NW9",0,0,pre-owned,400000.0,flat,0,leasehold,2 bed flat for sale,51.597033,-0.25293,69.0,2,2,1,2021-06-08,400000.0,1,1,1,Colindale,288,1
12367,12367,Brent,2021-06-07,"Purplebricks, Head Office",0,"Thurlby Road, Wembley HA0",0,0,pre-owned,675000.0,terraced,0,freehold,4 bed terraced house for sale,51.547673,-0.301279,137.0,4,1,3,2021-06-07,675000.0,1,0,1,Wembley Central,552,12
12368,12368,Brent,2021-06-07,Winkworth - Kensal Rise & Queen's Park,0,"Keslake Road, London NW6",0,0,pre-owned,2100000.0,terraced,0,freehold,4 bed terraced house for sale,51.53381,-0.216655,195.0,4,2,2,2021-06-07,2100000.0,0,0,1,Kensal Green,648,16
12369,12369,Brent,2021-06-07,Winkworth - Kensal Rise & Queen's Park,0,"Leigh Gardens, London NW10",0,0,pre-owned,1950000.0,semi_detached,0,freehold,5 bed semi-detached house for sale,51.534726,-0.223108,188.0,5,2,3,2021-06-07,1950000.0,0,1,1,Kensal Green,487,19
12370,12370,Brent,2021-06-07,Winkworth - Hendon,0,"Silverworks Close, Colindale NW9",0,0,pre-owned,450000.0,flat,0,leasehold,2 bed flat for sale,51.591333,-0.258493,73.0,2,2,1,2021-06-07,475000.0,1,1,0,Colindale,648,1
12371,12371,Brent,2021-06-07,Hoopers Estate Agents,0,"Brook Road, London NW2",0,0,pre-owned,340000.0,flat,0,Other,1 bed flat for sale,51.561583,-0.238378,65.0,1,0,0,2021-06-07,340000.0,0,1,1,Dollis Hill,1076,0
12372,12372,Brent,2021-06-07,Hoopers Estate Agents,1,"Ellesmere Road, London NW10",0,0,pre-owned,850000.0,terraced,0,Other,3 bed terraced house for sale,51.554124,-0.239893,96.0,3,0,0,2021-06-07,850000.0,1,0,1,Dollis Hill,272,1
12373,12373,Brent,2021-06-07,Barnard Marcus - Ealing,0,"Hatton Road, Wembley HA0",0,0,pre-owned,420000.0,flat,0,leasehold,2 bed flat for sale,51.538471,-0.298637,76.0,2,1,1,2021-06-07,420000.0,1,0,1,Alperton,255,4
12374,12374,Brent,2021-06-07,Paramount,1,"Winchester Avenue, Queens Park NW6",0,0,pre-owned,425000.0,flat,0,leasehold,1 bed flat for sale,51.54089,-0.20816,55.0,1,1,1,2021-06-07,425000.0,0,0,0,Upminster,607,11
12375,12375,Brent,2021-06-07,Greenstone Estates,0,"Carlton Hill, St Johns Wood NW8",0,0,pre-owned,375000.0,studio,0,Other,Studio for sale,51.534358,-0.1857,36.0,0,1,1,2021-06-07,375000.0,0,1,1,Maida Vale,458,28
12376,12376,Brent,2021-06-07,Daniels - Sudbury & Harrow,1,"Elmwood Court, Sudbury, Wembley HA0",0,0,pre-owned,360000.0,flat,0,leasehold,2 bed flat for sale,51.561733,-0.323238,74.0,2,1,1,2021-06-07,380000.0,0,1,0,Sudbury Town,1178,2
12377,12377,Brent,2021-06-07,Camerons Stiff & Co,0,"Wakeman Road, London NW10",0,0,pre-owned,1399950.0,terraced,0,Other,4 bed terraced house for sale,51.530246,-0.221036,149.0,4,2,2,2021-06-07,1399950.0,1,0,1,Kensal Green,268,20
12378,12378,Brent,2021-06-07,Garrison Estates,1,"Leigh Gardens, Kensal Rise, London NW10",0,0,pre-owned,1950000.0,semi_detached,0,Other,4 bed semi-detached house for sale,51.534726,-0.223108,188.0,4,3,2,2021-06-07,1950000.0,0,1,1,Kensal Green,487,19
12379,12379,Brent,2021-06-05,Orchards of London,0,"Lantern Close, Wembley HA0",0,0,pre-owned,550000.0,town_house,0,freehold,3 bed town house for sale,51.553566,-0.301536,115.0,3,2,2,2021-06-05,575000.0,0,1,1,Wembley Central,434,15
12380,12380,Brent,2021-06-05,Winkworth - Kensal Rise & Queen's Park,1,"Minet Avenue, London NW10",0,0,pre-owned,525000.0,flat,0,share_of_freehold,3 bed flat for sale,51.534874,-0.251521,111.0,3,2,1,2021-06-05,525000.0,0,0,0,Upminster,383,6
12381,12381,Brent,2021-06-04,Hunter Realty,0,"Aerodrome Road, London NW9",0,0,pre-owned,402450.0,flat,0,leasehold,1 bed flat for sale,51.595514,-0.24339,51.0,1,1,1,2021-06-04,402450.0,0,0,1,Colindale,549,3
12382,12382,Brent,2021-06-04,Hunter Realty,0,"Aerodrome Road, London NW9",0,0,pre-owned,579950.0,flat,0,leasehold,2 bed flat for sale,51.595129,-0.243793,7.0,2,0,1,2021-06-04,579950.0,0,0,1,Colindale,662,3
12383,12383,Brent,2021-06-04,Benham and Reeves - Kensington,0,"Eastern Point, Edgware Road, London NW9",0,0,pre-owned,475000.0,flat,0,leasehold,2 bed flat for sale,51.592871,-0.259156,73.0,2,0,0,2021-06-04,475000.0,1,1,1,Colindale,576,2
12384,12384,Brent,2021-06-04,Benham and Reeves - Kensington,0,"East Drive, London NW9",0,0,pre-owned,310000.0,flat,0,leasehold,1 bed flat for sale,51.594026,-0.238322,41.0,1,1,1,2021-06-04,310000.0,1,0,1,Colindale,678,3
12385,12385,Brent,2021-06-04,Jorgensen Turner,0,"Torbay Mansions, 102-130 Willesden Lane, London NW6",0,0,pre-owned,445000.0,flat,0,leasehold,2 bed flat for sale,51.540887,-0.203674,74.0,2,0,0,2021-06-04,445000.0,1,0,0,Upminster,640,28
12386,12386,Brent,2021-06-04,Hoopers Estate Agents,0,"Brownlow Road, London NW10",0,0,pre-owned,349950.0,flat,0,leasehold,1 bed flat for sale,51.544873,-0.250893,46.0,1,0,0,2021-06-04,349950.0,0,0,1,Neasden,833,0
12387,12387,Brent,2021-06-04,"Purplebricks, Head Office",0,"Bridgewater Road, Wembley HA0",0,0,pre-owned,899000.0,semi_detached,0,freehold,6 bed semi-detached house for sale,51.542914,-0.305495,182.0,6,3,2,2021-06-04,899000.0,0,1,1,Alperton,446,2
12388,12388,Brent,2021-06-04,Camerons Stiff & Co,0,"Kings Road, London NW10",0,0,pre-owned,1100000.0,Other,0,Other,5 bed property for sale,51.544288,-0.232768,212.0,5,2,3,2021-06-04,1100000.0,1,0,1,Upminster,879,4
12389,12389,Brent,2021-06-04,Empire Estates,0,"Park Avenue, Willesden, London NW2",0,0,pre-owned,780000.0,flat,0,Other,3 bed flat for sale,51.547698,-0.227446,125.0,3,1,2,2021-06-04,780000.0,0,0,1,Willesden Green,386,7
12390,12390,Brent,2021-06-04,Harding Green,0,"Monterey Studios, 239 Kilburn Lane, London W10",0,0,pre-owned,750000.0,detached,0,freehold,4 bed detached house for sale,51.532974,-0.208892,121.0,4,2,2,2021-06-04,795000.0,1,0,1,Queen's Park,362,11
12391,12391,Brent,2021-06-04,Barratt London - Hendon Waterside,1,"""Harp View Apartments"" at Moorhen Drive, Edgware NW9",0,0,new,382500.0,flat,0,leasehold,1 bed flat for sale,51.577404,-0.242804,50.0,1,1,1,2021-06-04,382500.0,1,1,0,Hendon Central,1158,4
12392,12392,Brent,2021-06-03,Orchards of London,1,"Lancelot Crescent, Wembley HA0",0,0,pre-owned,500000.0,terraced,0,freehold,3 bed terraced house for sale,51.557585,-0.302728,91.0,3,1,2,2021-06-03,500000.0,1,0,0,Upminster,673,2
12393,12393,Brent,2021-06-03,Chestertons - St John's Wood,0,"Royal Langford Apartments, 2 Greville Road, London NW6",0,0,pre-owned,425000.0,flat,0,leasehold,1 bed flat for sale,51.536104,-0.190885,41.0,1,1,1,2021-06-03,425000.0,0,1,0,Kilburn Park,264,30
12394,12394,Brent,2021-06-03,Hoopers Estate Agents,1,"Humber Road, London NW2",0,0,pre-owned,550000.0,terraced,0,Other,3 bed terraced house for sale,51.564982,-0.230629,92.0,3,0,0,2021-06-03,550000.0,0,0,1,Dollis Hill,1447,3
12395,12395,Brent,2021-06-03,Parkheath - Kensal Rise,1,"Hartland Road, London NW6",0,0,pre-owned,325000.0,studio,0,Other,Studio for sale,51.536777,-0.203581,26.0,0,1,1,2021-06-03,325000.0,0,0,1,Queen's Park,257,20
12396,12396,Brent,2021-06-03,Chancellors - Stanmore,0,"Kingsbury, London NW9",0,0,pre-owned,725000.0,semi_detached,0,freehold,4 bed semi-detached house for sale,51.587,-0.281,133.0,4,3,1,2021-06-03,725000.0,0,0,1,Kingsbury,351,4
12397,12397,Brent,2021-06-03,Chancellors - Stanmore,0,"The Leys, Harrow HA3,",0,0,pre-owned,700000.0,semi_detached,0,freehold,3 bed semi-detached house for sale,51.58,-0.29,99.0,3,2,2,2021-06-03,700000.0,0,0,1,Upminster,893,0
12398,12398,Brent,2021-06-03,Marsh & Parsons - Willesden Green,0,"Christchurch Avenue, London NW6",0,0,pre-owned,875000.0,flat,0,share_of_freehold,2 bed flat for sale,51.545925,-0.205486,111.0,2,1,1,2021-06-03,875000.0,0,1,1,Kilburn,181,16
12399,12399,Brent,2021-06-03,Camerons Stiff & Co,0,"Churchill Road, London NW2",0,0,pre-owned,799950.0,terraced,0,Other,3 bed terraced house for sale,51.550041,-0.232826,101.0,3,1,2,2021-06-03,799950.0,1,0,1,Dollis Hill,413,4
12400,12400,Brent,2021-06-03,Hamilton Estates,1,"Robin Grove, Harrow HA3",0,0,pre-owned,489950.0,terraced,0,Other,4 bed terraced house for sale,51.579101,-0.285398,89.0,4,1,2,2021-06-03,489950.0,1,1,1,Kingsbury,912,0
12401,12401,Brent,2021-06-03,Knight Frank - Queens Park Sales,0,"Douglas Road, London NW6",0,0,pre-owned,1450000.0,terraced,0,Other,4 bed terraced house for sale,51.54035,-0.202643,138.0,4,2,1,2021-06-03,1450000.0,1,0,1,Queen's Park,633,32
12402,12402,Brent,2021-06-03,Paramount,1,"Park Avenue, Willesden Green NW2",0,0,pre-owned,780000.0,flat,0,share_of_freehold,3 bed flat for sale,51.548435,-0.226818,121.0,3,1,2,2021-06-03,780000.0,0,0,1,Willesden Green,371,8
12403,12403,Brent,2021-06-03,Knight Frank - Queens Park Sales,1,"Douglas Road, Queen's Park, London NW6.",0,0,pre-owned,1500000.0,terraced,0,Other,5 bed terraced house for sale,51.53998,-0.202456,153.0,5,2,1,2021-06-03,1500000.0,0,0,1,Queen's Park,603,33
12404,12404,Brent,2021-06-03,Nested Ltd,0,"Cambridge Road, Kilburn Park, London NW6",0,0,pre-owned,540000.0,flat,0,leasehold,1 bed flat for sale,51.531035,-0.195026,58.0,1,1,0,2021-06-03,540000.0,1,0,0,Kilburn Park,629,14
12405,12405,Brent,2021-06-03,Barratt London - No. 10 Watkin Road,1,"""No.10 Watkin Road"" at Watkin Road, Wembley HA9",0,0,new,432000.0,flat,0,leasehold,1 bed flat for sale,51.560644,-0.275088,50.0,1,1,1,2021-06-03,432000.0,1,0,1,Wembley Park,540,3
12406,12406,Brent,2021-06-02,Camerons Stiff & Co,1,"Charteris Road, London NW6",0,0,pre-owned,1500000.0,terraced,0,Other,4 bed terraced house for sale,51.537761,-0.200632,136.0,4,3,2,2021-06-02,1500000.0,1,0,1,Queen's Park,592,27
12407,12407,Brent,2021-06-02,CityZEN London,1,"The Avenue, London NW6",0,0,pre-owned,460000.0,studio,0,Other,Studio for sale,51.542522,-0.209714,38.0,0,1,1,2021-06-02,479995.0,1,0,0,Kilburn,608,4
12408,12408,Brent,2021-06-02,Camerons Stiff & Co.,0,"Hartland Road, London NW6",0,0,pre-owned,1499950.0,terraced,0,Other,3 bed terraced house for sale,51.537418,-0.20219,136.0,3,1,2,2021-06-02,1350000.0,1,0,1,Queen's Park,342,23
12409,12409,Brent,2021-06-02,Empire Estates,1,"High Road, Willesden, London NW10",0,0,new,315000.0,flat,0,leasehold,1 bed flat for sale,51.548965,-0.247126,51.0,1,1,1,2021-06-02,324950.0,1,1,0,Neasden,537,1
12410,12410,Brent,2021-06-01,Hunters - West Hampstead,0,"Dartmouth Road, London NW2",0,0,pre-owned,1350000.0,flat,0,Other,3 bed flat for sale,51.548427,-0.212262,153.0,3,0,0,2021-06-01,1350000.0,0,1,1,Kilburn,400,2
12411,12411,Brent,2021-06-01,Fairview New Homes - Regency Heights,1,"""Plot 99"" at Lakeside Drive, Park Royal, London NW10",0,0,new,600000.0,flat,0,leasehold,3 bed flat for sale,51.529751,-0.283969,8.0,3,0,0,2021-06-01,600000.0,1,0,1,Park Royal,454,3
12412,12412,Brent,2021-06-01,Stones Residential,1,"Uxbridge Road, Harrow Weald, Harrow HA3",0,0,pre-owned,375000.0,flat,0,Other,1 bed flat for sale,51.61341,-0.332326,68.0,1,1,1,2021-06-01,375000.0,1,1,1,Upminster,1699,0
12413,12413,Brent,2021-06-01,"Purplebricks, Head Office",0,"Queens Park, London NW6",0,0,pre-owned,849950.0,flat,0,freehold,2 bed flat for sale,51.533624,-0.209756,71.0,2,1,1,2021-06-01,849950.0,0,0,1,Queen's Park,297,11
12414,12414,Brent,2021-06-01,Nested Ltd,0,"Wrentham Avenue, Queens Park, London NW10",0,0,pre-owned,995000.0,maisonette,0,Other,3 bed maisonette for sale,51.536361,-0.218228,139.0,3,3,1,2021-06-01,1000000.0,0,0,0,Kensal Green,798,15
12415,12415,Brent,2021-06-01,Marsh & Parsons - Queens Park,1,"Willesden Lane, London NW6",0,0,pre-owned,850000.0,flat,0,leasehold,1 bed flat for sale,51.543576,-0.208321,111.0,1,2,2,2021-06-01,850000.0,1,1,1,Kilburn,543,11
12416,12416,Brent,2021-06-01,"Purplebricks, Head Office",1,"33 Olympic Way, Wembley, London HA9",0,0,pre-owned,595000.0,flat,0,leasehold,2 bed flat for sale,51.55894,-0.279076,88.0,2,2,1,2021-06-01,625000.0,1,1,1,Wembley Park,500,20
12417,12417,Brent,2021-06-01,Glenmore,0,"Lyon Park Avenue, Wembley HA0",0,0,pre-owned,750000.0,semi_detached,0,freehold,7 bed semi-detached house for sale,51.54738,-0.29165,139.0,7,2,2,2021-06-01,750000.0,0,1,1,Wembley Central,497,7
12418,12418,Brent,2021-06-01,Home & Away Estates,0,"Ruskin Gardens, Kenton HA3",0,0,pre-owned,180000.0,flat,0,leasehold,1 bed flat for sale,51.590334,-0.285379,31.0,1,1,1,2021-06-01,200000.0,0,1,1,Queensbury,555,1
12419,12419,Brent,2021-06-01,Glenmore,0,"Lyon Park Avenue, Wembley HA0",0,0,pre-owned,975000.0,semi_detached,0,freehold,8 bed semi-detached house for sale,51.54765,-0.29205,139.0,8,3,3,2021-06-01,975000.0,0,1,1,Wembley Central,468,9
12420,12420,Brent,2021-06-01,Home & Away Estates,0,"Dollis Hill Lane, London NW2",0,0,pre-owned,310000.0,flat,0,leasehold,1 bed flat for sale,51.557955,-0.24801,47.0,1,0,0,2021-06-01,310000.0,0,0,0,Neasden,395,1
12421,12421,Brent,2021-06-01,Home & Away Estates,0,"Selwyn Road, London NW10",0,0,pre-owned,600000.0,terraced,0,freehold,2 bed terraced house for sale,51.544385,-0.256136,85.0,2,0,0,2021-06-01,600000.0,1,0,1,Harlesden,812,2
12422,12422,Brent,2021-06-01,Dexters - Cricklewood,0,"Chatsworth Road, Mapesbury, London NW2",0,0,pre-owned,2650000.0,detached,0,freehold,5 bed detached house for sale,51.547202,-0.215303,297.0,5,3,1,2021-06-01,2650000.0,0,0,1,Willesden Green,415,2
12423,12423,Brent,2021-05-31,Pioneer Property Group,1,"Beresford Ave, Alperton, Wembley, London HA0",0,0,new,570000.0,flat,0,leasehold,2 bed flat for sale,51.541138,-0.284781,72.0,2,2,1,2021-05-31,545000.0,0,0,0,Stonebridge Park,684,1
12424,12424,Brent,2021-05-31,Pioneer Property Group,1,"Beresford Ave, Wembley London HA0",0,0,new,425000.0,flat,0,leasehold,1 bed flat for sale,51.541138,-0.284781,49.0,1,1,1,2021-05-31,395000.0,0,0,0,Stonebridge Park,684,1
12425,12425,Brent,2021-05-31,Pioneer Property Group,1,"Aerodrome Road, Colindale, London NW9",0,0,new,315000.0,flat,0,leasehold,1 bed flat for sale,51.595514,-0.24339,31.0,1,1,1,2021-05-31,289950.0,0,1,1,Colindale,549,3
12426,12426,Brent,2021-05-31,Pioneer Property Group,1,"Aerodrome Road, Colindale, London NW9",0,0,new,519000.0,flat,0,leasehold,2 bed flat for sale,51.595514,-0.24339,72.0,2,2,1,2021-05-31,519000.0,0,1,0,Colindale,549,3
12427,12427,Brent,2021-05-31,Pioneer Property Group,1,"Aerodrome Road, Collindale, London NW9",0,0,new,814950.0,flat,0,leasehold,3 bed flat for sale,51.595514,-0.24339,97.0,3,3,1,2021-05-31,814950.0,0,0,1,Colindale,549,3
12428,12428,Brent,2021-05-29,Mapesbury Estate Agents,0,"Spring Hill House, Willesden Lane, Willesden Green NW2",1,0,pre-owned,375000.0,flat,0,leasehold,1 bed flat for sale,51.546879,-0.221775,56.0,1,1,1,2021-05-29,375000.0,0,0,1,Willesden Green,354,5
12429,12429,Brent,2021-05-28,Savills - Shared Ownership,1,"Liberty Wharf, Mount Pleasant, Wembley, Middlesex HA0",0,1,new,84750.0,flat,0,leasehold,1 bed flat for sale,51.54105,-0.291691,52.0,1,1,1,2021-05-28,84750.0,1,0,1,Alperton,454,1
12430,12430,Brent,2021-05-28,Savills - Shared Ownership,1,"Liberty Wharf, 152 Mount Pleasant, Wembley, Middlesex HA0",0,1,new,120000.0,flat,0,leasehold,2 bed flat for sale,51.54105,-0.291691,76.0,2,2,1,2021-05-28,120000.0,1,1,1,Alperton,454,1
12431,12431,Brent,2021-05-28,Hoopers Estate Agents,1,"Birchen Grove, London NW9",0,0,pre-owned,670000.0,semi_detached,0,Other,3 bed semi-detached house for sale,51.565816,-0.25993,177.0,3,0,0,2021-05-28,699950.0,0,1,1,Upminster,1148,0
12432,12432,Brent,2021-05-28,Hoopers Estate Agents,1,"Braemar Avenue, London NW10",0,0,pre-owned,284950.0,maisonette,0,Other,Maisonette for sale,51.563918,-0.258675,45.0,0,0,0,2021-05-28,284950.0,1,0,1,Neasden,1052,0
