,index,Borough,date_listed,agency_name,chain_free,address,isRetirementHome,isSharedOwnership,listingCondition,price,propertyType,isAuction,tenure,title,latitude,longitude,floor_area_msq,numBedrooms,numBathrooms,numLivingRooms,firstPublishedDate,firstPublishedPrice,balcony_terrace,parking,garden,closest_station_name,closest_station_distance_sec,pub_restaurant
2000,2000,Hammersmith,2021-06-29,Knight Frank - Fulham Sales,0,"Fulham Park Road, Fulham SW6",0,0,pre-owned,5750000.0,detached,0,Other,6 bed detached house for sale,51.4726,-0.2071,382.0,6,4,4,2021-06-29,5750000.0,1,1,1,Putney Bridge,412,24
2001,2001,Hammersmith,2021-06-29,Latymers,1,"Higham House West, Carnwath Road, Fulham SW6",0,0,new,1050000.0,flat,0,Other,2 bed flat for sale,51.465531,-0.195974,77.0,2,2,1,2021-06-29,1050000.0,1,1,1,Parsons Green,929,4
2002,2002,Hammersmith,2021-06-28,Jorgensen Turner,1,"Pennard Road, Shepherd's Bush, London W12",0,0,pre-owned,525000.0,flat,0,share_of_freehold,2 bed flat for sale,51.503989,-0.225428,60.0,2,0,0,2021-06-28,525000.0,0,0,0,Shepherd's Bush (H),189,72
2003,2003,Hammersmith,2021-06-28,Finlay Brewer,1,"Ashchurch Park Villas, Ravenscourt Park, London W12",0,0,pre-owned,550000.0,flat,0,Other,2 bed flat for sale,51.500213,-0.242236,66.0,2,1,1,2021-06-28,550000.0,1,0,1,Stamford Brook,651,17
2004,2004,Hammersmith,2021-06-28,Latymers,1,"Higham House East, Carnwath Road, Fulham SW6",0,0,new,1050000.0,flat,0,Other,2 bed flat for sale,51.465571,-0.19621,82.0,2,2,1,2021-06-28,1050000.0,1,1,1,Parsons Green,918,3
2005,2005,Hammersmith,2021-06-28,The Modern House,0,"St. Elmo Road, London W12",0,0,pre-owned,925000.0,flat,0,leasehold,4 bed flat for sale,51.50616,-0.2461,116.0,4,2,0,2021-06-28,925000.0,1,0,0,Upminster,1214,11
2006,2006,Hammersmith,2021-06-28,Finlay Brewer,0,"Lena Gardens, London W6",0,0,pre-owned,2395000.0,terraced,0,Other,5 bed terraced house for sale,51.498695,-0.223832,231.0,5,3,2,2021-06-28,2395000.0,0,0,1,Goldhawk Road,573,37
2007,2007,Hammersmith,2021-06-28,Latymers,1,"Faulkner House, Tierney Lane, Hammersmith W6",0,0,new,1550000.0,flat,0,Other,2 bed flat for sale,51.487271,-0.225783,108.0,2,3,1,2021-06-28,1550000.0,1,0,0,Hammersmith,625,28
2008,2008,Hammersmith,2021-06-28,Latymers,1,"Faulkner House, Tierney Lane, Hammersmith W6",0,0,new,1000000.0,flat,0,Other,1 bed flat for sale,51.487271,-0.225783,65.0,1,1,1,2021-06-28,1000000.0,1,0,0,Hammersmith,625,28
2009,2009,Hammersmith,2021-06-28,Brik,0,"Ringmer Avenue, London SW6",0,0,pre-owned,2150000.0,terraced,0,Other,4 bed terraced house for sale,51.474502,-0.209323,208.0,4,4,1,2021-06-28,2150000.0,0,0,1,Upminster,602,14
2010,2010,Hammersmith,2021-06-28,Latymers,0,"Faulkner House, Tierney Lane, Hammersmith W6",0,0,pre-owned,1600000.0,flat,0,Other,2 bed flat for sale,51.487271,-0.225783,108.0,2,3,1,2021-06-28,1600000.0,1,0,0,Hammersmith,625,28
2011,2011,Hammersmith,2021-06-28,Chatterton Rees,0,"Wardo Avenue, London SW6",0,0,pre-owned,895000.0,flat,0,freehold,3 bed flat for sale,51.476383,-0.214229,111.0,3,2,1,2021-06-28,895000.0,1,0,0,Putney Bridge,790,6
2012,2012,Hammersmith,2021-06-28,Douglas & Gordon - Fulham,0,"Mirabel Road, London SW6",0,0,pre-owned,550000.0,flat,0,share_of_freehold,1 bed flat for sale,51.480986,-0.204171,54.0,1,1,1,2021-06-28,550000.0,0,0,0,Parsons Green,598,27
2013,2013,Hammersmith,2021-06-27,Prime London (Central and Riverside),1,"Central Avenue, Fulham Riverside, London SW6",0,0,pre-owned,2750000.0,terraced,0,leasehold,5 bed terraced house for sale,51.467598,-0.186124,231.0,5,4,1,2021-06-27,2750000.0,0,1,1,Chesham,1274,15
2014,2014,Hammersmith,2021-06-26,ACME Property Solutions,0,"Queen Caroline Street, Hammersmith W6",0,0,pre-owned,360000.0,flat,0,leasehold,1 bed flat for sale,51.49032,-0.225973,48.0,1,1,0,2021-06-26,360000.0,1,1,0,Hammersmith,317,49
2015,2015,Hammersmith,2021-06-26,Chestertons - Munster Road Sales,0,"Rosebank, Holyport Road, London SW6",0,0,pre-owned,1200000.0,flat,0,leasehold,3 bed flat for sale,51.480849,-0.223489,124.0,3,2,1,2021-06-26,1200000.0,1,1,0,Hammersmith,1184,5
2016,2016,Hammersmith,2021-06-26,Sherwoods International Properties Ltd,0,"Beckford Close, Warwick Road, London W14",0,0,pre-owned,850000.0,flat,0,Other,2 bed flat for sale,51.4916,-0.203694,76.0,2,2,1,2021-06-26,850000.0,1,1,0,West Kensington,185,21
2017,2017,Hammersmith,2021-06-25,John D Wood & Co. - Fulham Broadway Sales,0,"Sherbrooke Road, Fulham, Parsons Green, London SW6",0,0,pre-owned,1500000.0,detached,0,freehold,4 bed detached house for sale,51.480709,-0.208291,150.0,4,3,1,2021-06-25,1500000.0,1,0,1,Parsons Green,656,10
2018,2018,Hammersmith,2021-06-25,Dexters - West Kensington,1,"Challoner Street, London W14",0,0,pre-owned,565000.0,flat,0,leasehold,1 bed flat for sale,51.488778,-0.206432,56.0,1,1,1,2021-06-25,565000.0,0,0,0,West Kensington,215,27
2019,2019,Hammersmith,2021-06-25,Strike,0,"Danehurst Street, London SW6",0,0,pre-owned,575000.0,flat,0,share_of_freehold,2 bed flat for sale,51.477931,-0.211118,45.0,2,1,1,2021-06-25,575000.0,0,0,0,Upminster,777,8
2020,2020,Hammersmith,2021-06-25,Shaws Kensington,0,"Turneville Road, West Kensington, Hammersmith, London W14",0,0,pre-owned,1075000.0,maisonette,0,freehold,3 bed maisonette for sale,51.486795,-0.206726,115.0,3,2,1,2021-06-25,1075000.0,0,0,0,West Kensington,543,27
2021,2021,Hammersmith,2021-06-25,Kerr and Co,1,"Stowe Road, London W12",0,0,pre-owned,450000.0,flat,0,share_of_freehold,1 bed flat for sale,51.502038,-0.23303,59.0,1,1,1,2021-06-25,450000.0,0,1,0,Goldhawk Road,381,36
2022,2022,Hammersmith,2021-06-25,Savills - Bishops Park,0,"Tasso Road, London W6",0,0,pre-owned,1425000.0,terraced,0,freehold,4 bed terraced house for sale,51.485242,-0.212574,149.0,4,2,1,2021-06-25,1425000.0,0,0,1,Barons Court,520,12
2023,2023,Hammersmith,2021-06-25,Curtis and Parker,0,"Du Cane Road, London W12",0,0,pre-owned,445000.0,flat,0,Other,2 bed flat for sale,51.516452,-0.232036,66.0,2,1,1,2021-06-25,425000.0,0,1,0,White City,696,6
2024,2024,Hammersmith,2021-06-25,Kerr and Co,0,"Pennard Road, London W12",0,0,pre-owned,1375000.0,terraced,0,freehold,4 bed terraced house for sale,51.50356,-0.225606,184.0,4,2,3,2021-06-25,1375000.0,1,1,1,Upminster,207,74
2025,2025,Hammersmith,2021-06-25,Chestertons - Munster Road Sales,0,"Waldemar Avenue Mansions, Waldemar Avenue, Fulham, London SW6",0,0,pre-owned,560000.0,flat,0,share_of_freehold,1 bed flat for sale,51.474683,-0.211863,51.0,1,1,1,2021-06-25,560000.0,0,0,0,Putney Bridge,609,10
2026,2026,Hammersmith,2021-06-25,Brik,0,"Compass House, Park Street, London SW6",0,0,pre-owned,500000.0,flat,0,Other,1 bed flat for sale,51.475016,-0.184332,42.0,1,1,1,2021-06-25,500000.0,0,0,0,Fulham Broadway,918,19
2027,2027,Hammersmith,2021-06-25,Vanquish Real Estate,1,"Chelsea Creek, Fulham SW6",0,0,new,750000.0,flat,0,leasehold,1 bed flat for sale,51.47841,-0.1881,46.0,1,1,1,2021-06-25,750000.0,1,0,0,Fulham Broadway,569,25
2028,2028,Hammersmith,2021-06-25,Strutt & Parker - Fulham,0,"Walham Grove, London SW6",0,0,pre-owned,2850000.0,terraced,0,freehold,5 bed terraced house for sale,51.48,-0.2,230.0,5,3,3,2021-06-25,2850000.0,1,0,1,Parsons Green,444,36
2029,2029,Hammersmith,2021-06-25,Vanquish Real Estate,1,"Chelsea Creek, Fulham SW6",0,0,new,1540000.0,flat,0,leasehold,2 bed flat for sale,51.47829,-0.18851,80.0,2,2,1,2021-06-25,1540000.0,1,0,0,Fulham Broadway,679,28
2030,2030,Hammersmith,2021-06-25,Vanquish Real Estate,1,"Chelsea Creek, Fulham, London SW6",0,0,new,1450000.0,flat,0,leasehold,2 bed flat for sale,51.470682,-0.183459,84.0,2,2,1,2021-06-25,1450000.0,1,0,0,Chesham,1316,9
2031,2031,Hammersmith,2021-06-25,Vanquish Real Estate,1,"Chelsea Creek, Fulham SW6",0,0,new,2225000.0,flat,0,leasehold,3 bed flat for sale,51.47827,-0.18832,118.0,3,3,1,2021-06-25,2225000.0,1,0,0,Fulham Broadway,676,25
2032,2032,Hammersmith,2021-06-25,Vanquish Real Estate,1,"Chelsea Creek, Fulham, London SW6",0,0,new,2275000.0,flat,0,leasehold,3 bed flat for sale,51.474974,-0.184253,118.0,3,3,1,2021-06-25,2275000.0,1,0,0,Fulham Broadway,954,19
2033,2033,Hammersmith,2021-06-25,Kinleigh Folkard & Hayward - Fulham Sales,0,"Wardo Avenue, London SW6",0,0,pre-owned,765000.0,flat,0,Other,2 bed flat for sale,51.476978,-0.211975,84.0,2,2,0,2021-06-25,765000.0,0,0,0,Upminster,799,8
2034,2034,Hammersmith,2021-06-25,Vanquish Real Estate,1,"Fulham, Chelsea Creek SW6",0,0,new,870000.0,flat,0,leasehold,1 bed flat for sale,51.474974,-0.184253,57.0,1,1,1,2021-06-25,870000.0,1,0,0,Fulham Broadway,954,19
2035,2035,Hammersmith,2021-06-25,Lawson Rutter,0,"Alder Lodge, Stevenage Road, Fulham, London SW6",0,0,pre-owned,750000.0,flat,0,leasehold,2 bed flat for sale,51.476697,-0.222455,97.0,2,2,1,2021-06-25,750000.0,1,1,0,Putney Bridge,1161,0
2036,2036,Hammersmith,2021-06-25,Whitman & Co,0,"Beavor Grove, London W6",0,0,pre-owned,945000.0,terraced,0,Other,3 bed terraced house for sale,51.491634,-0.239427,119.0,3,2,2,2021-06-25,945000.0,0,1,1,Ravenscourt Park,365,21
2037,2037,Hammersmith,2021-06-24,Horton and Garton - Hammersmith and Shepherd's Bush,0,"Myrtle House, Sulgrave Road, Hammersmith, London W6",0,0,pre-owned,465000.0,flat,0,leasehold,1 bed flat for sale,51.500502,-0.22614,5.0,1,1,1,2021-06-24,465000.0,0,0,0,Goldhawk Road,578,43
2038,2038,Hammersmith,2021-06-24,Harrods Estates,0,"Regency House, The Boulevard, Imperial Wharf, London SW6",0,0,pre-owned,1095000.0,flat,0,leasehold,2 bed flat for sale,51.473868,-0.182779,79.0,2,2,1,2021-06-24,1095000.0,1,1,1,Fulham Broadway,1067,11
2039,2039,Hammersmith,2021-06-24,Brik,0,"Novello Street, London SW6",0,0,pre-owned,1495000.0,terraced,0,Other,4 bed terraced house for sale,51.4762,-0.198912,121.0,4,2,1,2021-06-24,1495000.0,1,0,1,Parsons Green,172,40
2040,2040,Hammersmith,2021-06-24,Prime London (Central and Riverside),1,"Lillie Square, Earl's Court, London SW6",0,0,pre-owned,879000.0,flat,0,Other,1 bed flat for sale,51.485806,-0.194552,57.0,1,1,1,2021-06-24,879000.0,1,0,1,West Brompton,290,31
2041,2041,Hammersmith,2021-06-24,Savills - Fulham,0,"Linver Road, Parsons Green, Fulham, London SW6",0,0,pre-owned,995000.0,maisonette,0,leasehold,2 bed maisonette for sale,51.471633,-0.20114,84.0,2,2,1,2021-06-24,995000.0,1,0,0,Parsons Green,368,18
2042,2042,Hammersmith,2021-06-24,Savills - Bishops Park,0,"Chancellors Road, London W6",0,0,pre-owned,1249950.0,end_terrace,0,freehold,3 bed end terrace house for sale,51.488537,-0.225207,135.0,3,2,2,2021-06-24,1249950.0,1,0,1,Hammersmith,519,35
2043,2043,Hammersmith,2021-06-24,Moveli,0,"Danehurst Street, London SW6",0,0,pre-owned,1050000.0,maisonette,0,freehold,2 bed maisonette for sale,51.478027,-0.21177,95.0,2,2,1,2021-06-24,1050000.0,0,0,1,Upminster,801,8
2044,2044,Hammersmith,2021-06-24,Vanquish Real Estate,1,"Chelsea Creek, Fulham, London SW6",0,0,new,1315000.0,flat,0,leasehold,2 bed flat for sale,51.474974,-0.184253,78.0,2,2,1,2021-06-24,1315000.0,1,0,0,Fulham Broadway,954,19
2045,2045,Hammersmith,2021-06-24,Moveli,1,"Hazlebury Road, London SW6",0,0,pre-owned,600000.0,flat,0,Other,2 bed flat for sale,51.470901,-0.1887,60.0,2,1,1,2021-06-24,635000.0,1,0,1,Chesham,916,12
2046,2046,Hammersmith,2021-06-24,Vanquish Real Estate,1,"Chelsea Creek, Fulham, London SW6",0,0,new,946000.0,flat,0,leasehold,1 bed flat for sale,51.470682,-0.183459,58.0,1,1,1,2021-06-24,946000.0,1,0,0,Chesham,1316,9
2047,2047,Hammersmith,2021-06-24,London Property Zone,1,"Beadon Road, Hammersmith W6",0,0,new,749950.0,flat,0,leasehold,1 bed flat for sale,51.494201,-0.227493,62.0,1,1,0,2021-06-24,749950.0,1,0,1,Hammersmith,194,44
2048,2048,Hammersmith,2021-06-24,Latymers,1,"Higham House West, Carnwath Road, Fulham SW6",0,0,new,1050000.0,flat,0,Other,2 bed flat for sale,51.465531,-0.195974,82.0,2,2,1,2021-06-24,1050000.0,1,1,1,Parsons Green,929,4
2049,2049,Hammersmith,2021-06-24,Barnard Marcus - Bedford Park,1,"Gayford Road, London W12",0,0,pre-owned,1200000.0,terraced,0,freehold,4 bed terraced house for sale,51.502885,-0.245282,116.0,4,3,2,2021-06-24,1200000.0,1,0,0,Stamford Brook,1023,20
2050,2050,Hammersmith,2021-06-23,Benham and Reeves - Kensington,0,"Dolphin House, Lensbury Avenue, Imperial Wharf SW6",0,0,pre-owned,1300000.0,flat,0,leasehold,3 bed flat for sale,51.472174,-0.182559,127.0,3,2,1,2021-06-23,1300000.0,1,1,1,Fulham Broadway,1104,9
2051,2051,Hammersmith,2021-06-23,Savills - Shepherds Bush & Brook Green,0,"Gunterstone Road, London W14",0,0,pre-owned,3200000.0,terraced,0,freehold,6 bed terraced house for sale,51.491577,-0.210453,305.0,6,3,3,2021-06-23,3200000.0,1,0,1,Upminster,223,22
2052,2052,Hammersmith,2021-06-23,Finlay Brewer,0,"St. Dunstans Road, London W6",0,0,pre-owned,2250000.0,Other,0,Other,5 bed property for sale,51.489391,-0.217413,223.0,5,3,1,2021-06-23,2250000.0,0,0,1,Barons Court,306,23
2053,2053,Hammersmith,2021-06-23,Hunters - Northfields,1,"Lille Road, Fulham SW6",0,0,pre-owned,1150000.0,terraced,0,freehold,3 bed terraced house for sale,51.483212,-0.210939,100.0,3,2,2,2021-06-23,1150000.0,1,0,0,Barons Court,796,6
2054,2054,Hammersmith,2021-06-23,Aston Rowe,1,"Hammersmith Grove, London W6",0,0,pre-owned,900000.0,flat,0,leasehold,2 bed flat for sale,51.498554,-0.22744,97.0,2,2,1,2021-06-23,900000.0,1,0,0,Goldhawk Road,341,39
2055,2055,Hammersmith,2021-06-23,MyLondonHome - Central London,0,"Helios, Television Centre, London W12",0,0,pre-owned,1125000.0,flat,0,leasehold,2 bed flat for sale,51.510026,-0.226847,85.0,2,1,1,2021-06-23,1125000.0,1,0,1,White City,252,44
2056,2056,Hammersmith,2021-06-22,Benham and Reeves - Kensington,0,"The Boulevard, Imperial Wharf, London SW6",0,0,pre-owned,899000.0,flat,0,leasehold,2 bed flat for sale,51.473733,-0.182237,93.0,2,2,1,2021-06-22,899000.0,1,0,0,Fulham Broadway,1256,12
2057,2057,Hammersmith,2021-06-22,Benham and Reeves - Kensington,0,"Lillie Square, Earls Court, London SW6",0,0,pre-owned,900000.0,flat,0,leasehold,1 bed flat for sale,51.485035,-0.194895,58.0,1,1,1,2021-06-22,900000.0,0,0,1,West Brompton,328,30
2058,2058,Hammersmith,2021-06-22,Benham and Reeves - Kensington,1,"Octavia House, Townmead Road SW6",0,0,pre-owned,599999.0,flat,0,leasehold,1 bed flat for sale,51.473944,-0.18305,61.0,1,1,1,2021-06-22,599999.0,1,0,0,Fulham Broadway,971,11
2059,2059,Hammersmith,2021-06-22,Jorgensen Turner,0,"Hammersmith Grove, Hammersmith, London W6",0,0,pre-owned,350000.0,flat,0,leasehold,1 bed flat for sale,51.501483,-0.229214,44.0,1,0,0,2021-06-22,350000.0,1,0,0,Goldhawk Road,181,47
2060,2060,Hammersmith,2021-06-22,Knight Frank - Fulham Sales,0,"Tournay Road, Fulham SW6",0,0,pre-owned,2100000.0,terraced,0,Other,6 bed terraced house for sale,51.482296,-0.20157,233.0,6,2,1,2021-06-22,2100000.0,0,0,1,Fulham Broadway,666,47
2061,2061,Hammersmith,2021-06-22,Finlay Brewer,0,"Skelwith Road, London W6",0,0,pre-owned,1250000.0,Other,0,Other,3 bed property for sale,51.484512,-0.223868,125.0,3,2,1,2021-06-22,1250000.0,0,0,1,Hammersmith,865,16
2062,2062,Hammersmith,2021-06-22,London Private Listings,0,"Watermans Quay, Fulham SW6",0,0,pre-owned,899950.0,flat,0,share_of_freehold,2 bed flat for sale,51.469125,-0.183731,82.0,2,2,1,2021-06-22,900000.0,1,1,1,Chesham,1348,10
2063,2063,Hammersmith,2021-06-22,Moveli,1,"Central Avenue, Fulham, London SW6",0,0,pre-owned,975000.0,flat,0,Other,2 bed flat for sale,51.467201,-0.185467,89.0,2,2,1,2021-06-22,975000.0,1,1,1,Chesham,1318,13
2064,2064,Hammersmith,2021-06-22,Barnard Marcus - West Kensington,0,"Edith Villas, London W14",0,0,pre-owned,525000.0,flat,0,leasehold,2 bed flat for sale,51.491425,-0.206397,46.0,2,1,1,2021-06-22,525000.0,0,0,0,West Kensington,142,24
2065,2065,Hammersmith,2021-06-22,Kerr and Co,1,"Brackenbury Road, London W6",0,0,pre-owned,450000.0,flat,0,leasehold,2 bed flat for sale,51.498458,-0.231271,41.0,2,1,1,2021-06-22,450000.0,1,1,0,Goldhawk Road,497,29
2066,2066,Hammersmith,2021-06-21,Savills - Shepherds Bush & Brook Green,0,"Television Centre, 101 Wood Lane, London W12",0,0,pre-owned,1125000.0,flat,0,leasehold,2 bed flat for sale,51.51035,-0.226261,86.0,2,2,1,2021-06-21,1125000.0,1,0,1,White City,235,41
2067,2067,Hammersmith,2021-06-21,Douglas & Gordon - Fulham,0,"Ongar Road, London SW6",0,0,pre-owned,1695000.0,flat,0,share_of_freehold,4 bed flat for sale,51.484976,-0.197086,186.0,4,2,1,2021-06-21,1695000.0,0,1,1,West Brompton,509,42
2068,2068,Hammersmith,2021-06-21,Dexters - Hammersmith,0,"Manbre Road, London W6",0,0,pre-owned,1600000.0,flat,0,share_of_freehold,2 bed flat for sale,51.485575,-0.224581,121.0,2,2,1,2021-06-21,1600000.0,0,0,0,Hammersmith,818,20
2069,2069,Hammersmith,2021-06-21,Aspire - Fulham South,1,"De Morgan Road, Fulham, London SW6",0,0,pre-owned,1450000.0,Other,0,freehold,4 bed property for sale,51.468149,-0.188732,174.0,4,3,2,2021-06-21,1450000.0,1,0,1,Chesham,1093,10
2070,2070,Hammersmith,2021-06-21,Chestertons - Parsons Green,1,"Parsons Green Lane, Parsons Green, Fulham, London SW6",0,0,pre-owned,1095000.0,flat,0,share_of_freehold,3 bed flat for sale,51.474889,-0.200594,111.0,3,2,1,2021-06-21,1095000.0,1,0,0,Parsons Green,82,18
2071,2071,Hammersmith,2021-06-19,Winkworth - Fulham & Parsons Green,0,"Yeldham Road, London W6",0,0,pre-owned,550000.0,flat,0,leasehold,1 bed flat for sale,51.48969,-0.221201,56.0,1,1,1,2021-06-19,550000.0,0,0,1,Hammersmith,518,37
2072,2072,Hammersmith,2021-06-18,Nest Seekers International,1,"Ormiston Grove, London W12",0,0,pre-owned,725000.0,maisonette,0,leasehold,3 bed maisonette for sale,51.508402,-0.236124,79.0,3,1,0,2021-06-18,725000.0,0,0,1,Shepherd's Bush (H),628,27
2073,2073,Hammersmith,2021-06-18,Savills - South West London RDS,1,"King's Road Park, London SW6",0,0,new,1125000.0,flat,0,leasehold,2 bed flat for sale,51.477589,-0.188492,75.0,2,2,1,2021-06-18,1125000.0,0,0,1,Fulham Broadway,585,29
2074,2074,Hammersmith,2021-06-18,Savills - South West London RDS,1,"Kings Road Park, London SW6",0,0,new,1447500.0,flat,0,leasehold,2 bed flat for sale,51.477589,-0.188492,9290.0,2,2,1,2021-06-18,1447500.0,0,0,1,Fulham Broadway,585,29
2075,2075,Hammersmith,2021-06-18,Savills - South West London RDS,1,"Kings Road Park, London SW6",0,0,new,825000.0,studio,0,leasehold,Studio for sale,51.477589,-0.188492,9290.0,0,0,0,2021-06-18,825000.0,0,0,1,Fulham Broadway,585,29
2076,2076,Hammersmith,2021-06-18,Savills - Fulham,0,"Holmead Road, London SW6",0,0,pre-owned,1100000.0,maisonette,0,leasehold,2 bed maisonette for sale,51.479617,-0.188801,87.0,2,1,1,2021-06-18,1100000.0,0,0,1,Fulham Broadway,443,33
2077,2077,Hammersmith,2021-06-18,Savills - Shepherds Bush & Brook Green,0,"Richmond Way, London W12",0,0,pre-owned,575000.0,flat,0,leasehold,1 bed flat for sale,51.503513,-0.217723,44.0,1,1,1,2021-06-18,575000.0,0,0,1,Shepherd's Bush (C),297,54
2078,2078,Hammersmith,2021-06-18,CBRE,0,"Riverwalk Apartments, 5 Central Avenue SW6",0,0,pre-owned,1250000.0,flat,0,leasehold,2 bed flat for sale,51.467447,-0.187387,104.0,2,2,1,2021-06-18,1250000.0,1,1,1,Chesham,1208,13
2079,2079,Hammersmith,2021-06-18,CBRE,0,"Westbourne Apartments, 5 Central Avenue SW6",0,0,pre-owned,850000.0,flat,0,Other,1 bed flat for sale,51.467447,-0.187387,71.0,1,1,1,2021-06-18,850000.0,1,1,1,Chesham,1208,13
2080,2080,Hammersmith,2021-06-18,Moveli,1,"Shorrolds Road, London SW6",0,0,pre-owned,2000000.0,terraced,0,Other,4 bed terraced house for sale,51.48056,-0.202808,185.0,4,3,1,2021-06-18,2000000.0,1,0,1,Parsons Green,581,32
2081,2081,Hammersmith,2021-06-18,Knight Frank - Fulham Sales,0,"Peterborough Road, Fulham SW6",0,0,pre-owned,2600000.0,terraced,0,Other,5 bed terraced house for sale,51.467981,-0.195251,242.0,5,3,3,2021-06-18,2600000.0,1,0,1,Parsons Green,696,10
2082,2082,Hammersmith,2021-06-18,Brik,0,"Parsons Green Lane, London SW6",0,0,pre-owned,1095000.0,flat,0,freehold,3 bed flat for sale,51.474399,-0.201487,115.0,3,3,1,2021-06-18,1095000.0,1,0,0,Parsons Green,120,19
2083,2083,Hammersmith,2021-06-18,Brik,0,"Horder Road, London SW6",0,0,pre-owned,1150000.0,terraced,0,Other,3 bed terraced house for sale,51.474601,-0.21156,106.0,3,2,1,2021-06-18,1150000.0,0,0,1,Putney Bridge,694,11
2084,2084,Hammersmith,2021-06-18,Savills - Shepherds Bush & Brook Green,0,"Thornfield Road, London W12",0,0,pre-owned,825000.0,flat,0,leasehold,2 bed flat for sale,51.503955,-0.232129,86.0,2,1,0,2021-06-18,825000.0,0,1,1,Goldhawk Road,453,46
2085,2085,Hammersmith,2021-06-18,Savills - Shepherds Bush & Brook Green,0,"Shepherds Bush Road, London W6",0,0,pre-owned,1295000.0,flat,0,leasehold,4 bed flat for sale,51.497817,-0.222858,148.0,4,4,1,2021-06-18,1295000.0,0,0,0,Hammersmith,462,31
2086,2086,Hammersmith,2021-06-18,Brik,0,"Beltran Road, London SW6",0,0,pre-owned,1775000.0,terraced,0,Other,3 bed terraced house for sale,51.471015,-0.192539,150.0,3,3,2,2021-06-18,1775000.0,0,0,1,Parsons Green,792,14
2087,2087,Hammersmith,2021-06-18,Knight Frank - Battersea and Riverside Sales,0,"Compass House, Chelsea Creek, 5 Park Street, Fulham, London SW6",0,0,pre-owned,920000.0,flat,0,Other,2 bed flat for sale,51.475042,-0.184339,73.0,2,2,1,2021-06-18,920000.0,1,0,0,Fulham Broadway,920,20
2088,2088,Hammersmith,2021-06-18,Nested Ltd,0,"Digby Mansions, Hammersmith, London W6",0,0,pre-owned,460000.0,flat,0,share_of_freehold,1 bed flat for sale,51.489485,-0.22965,51.0,1,1,0,2021-06-18,460000.0,0,0,1,Hammersmith,496,47
2089,2089,Hammersmith,2021-06-17,Benham and Reeves - Kensington,0,"Brunswick House, Fulham Reach W6",0,0,pre-owned,1129995.0,flat,0,leasehold,2 bed flat for sale,51.487484,-0.225766,96.0,2,2,0,2021-06-17,1129995.0,1,0,0,Hammersmith,611,28
2090,2090,Hammersmith,2021-06-17,Horton and Garton - Hammersmith and Shepherd's Bush,0,"Beauclerc Road, Brackenbury Village, Hammersmith, London W6",0,0,pre-owned,2495000.0,terraced,0,freehold,6 bed terraced house for sale,51.499348,-0.229498,24.0,6,3,2,2021-06-17,2495000.0,0,0,1,Goldhawk Road,342,35
2091,2091,Hammersmith,2021-06-17,Jeremy Davidson Property Consultants,0,"Lena Gardens, London W6",0,0,pre-owned,3150000.0,terraced,0,freehold,5 bed terraced house for sale,51.49867,-0.223963,288.0,5,5,3,2021-06-17,3150000.0,0,0,1,Goldhawk Road,542,35
2092,2092,Hammersmith,2021-06-17,Jeremy Davidson Property Consultants,0,"Lena Gardens, London W6",0,0,pre-owned,3150000.0,terraced,0,freehold,5 bed terraced house for sale,51.49867,-0.223963,288.0,5,5,3,2021-06-17,3150000.0,0,0,1,Goldhawk Road,542,35
2093,2093,Hammersmith,2021-06-17,Knight Frank - Fulham Sales,0,"Radipole Road, Fulham, London SW6",0,0,pre-owned,2500000.0,terraced,0,Other,5 bed terraced house for sale,51.476819,-0.205682,259.0,5,4,2,2021-06-17,2500000.0,1,0,1,Parsons Green,381,23
2094,2094,Hammersmith,2021-06-17,Savills - Shepherds Bush & Brook Green,0,"Wood Crescent, London W12",0,0,pre-owned,1750000.0,flat,0,leasehold,3 bed flat for sale,51.510467,-0.226819,129.0,3,2,1,2021-06-17,1750000.0,1,1,1,White City,202,40
2095,2095,Hammersmith,2021-06-17,Martin & Co - London Riverside,0,"Lensbury Avenue, London SW6",0,0,pre-owned,1350000.0,flat,0,Other,3 bed flat for sale,51.4718,-0.183016,104.0,3,2,1,2021-06-17,1300000.0,1,0,1,Fulham Broadway,1139,8
2096,2096,Hammersmith,2021-06-17,Finlay Brewer,0,"Lena Gardens, London W6",0,0,pre-owned,3150000.0,Other,0,Other,5 bed property for sale,51.498641,-0.223098,286.0,5,5,1,2021-06-17,3150000.0,1,0,1,Upminster,539,38
2097,2097,Hammersmith,2021-06-17,London Estates,0,"Fulham Park Gardens, Fulham SW6",0,0,pre-owned,550000.0,flat,0,leasehold,2 bed flat for sale,51.472235,-0.206066,69.0,2,2,1,2021-06-17,550000.0,0,0,0,Putney Bridge,395,26
2098,2098,Hammersmith,2021-06-17,Kinleigh Folkard & Hayward - Fulham Sales,0,"Filmer Chambers, Filmer Road, London SW6",0,0,pre-owned,475000.0,flat,0,Other,1 bed flat for sale,51.477888,-0.20857,65.0,1,1,0,2021-06-17,475000.0,0,0,1,Parsons Green,583,9
2099,2099,Hammersmith,2021-06-17,Barnard Marcus - Earl's Court,0,"Fulham Road, London SW6",0,0,pre-owned,365000.0,flat,0,leasehold,1 bed flat for sale,51.477364,-0.198971,46.0,1,1,1,2021-06-17,365000.0,0,1,1,Parsons Green,294,40
2100,2100,Hammersmith,2021-06-16,Savills - Shepherds Bush & Brook Green,0,"Beauclerc Road, Brackenbury, London W6",0,0,pre-owned,2495000.0,terraced,0,freehold,6 bed terraced house for sale,51.499348,-0.229498,218.0,6,3,2,2021-06-16,2495000.0,0,0,1,Goldhawk Road,342,35
2101,2101,Hammersmith,2021-06-16,Horton and Garton - Hammersmith and Shepherd's Bush,1,"Shepherd's Bush Road, Brook Green, Shepherd's Bush, London W6",0,0,pre-owned,900000.0,flat,0,leasehold,3 bed flat for sale,51.502776,-0.222536,11.0,3,2,1,2021-06-16,900000.0,1,0,1,Upminster,359,65
2102,2102,Hammersmith,2021-06-16,Horton and Garton - Hammersmith and Shepherd's Bush,0,"Aldensley Road, Brackenbury Village, London W6",0,0,pre-owned,1400000.0,terraced,0,freehold,4 bed terraced house for sale,51.496857,-0.230733,13.0,4,2,1,2021-06-16,1400000.0,0,0,1,Ravenscourt Park,511,38
2103,2103,Hammersmith,2021-06-16,Lawson Rutter,0,"Fulham Palace Road, London SW6",0,0,pre-owned,998950.0,maisonette,0,freehold,4 bed maisonette for sale,51.480985,-0.218241,139.0,4,2,1,2021-06-16,1050000.0,0,0,1,Barons Court,1023,6
2104,2104,Hammersmith,2021-06-16,Winkworth - Hammersmith,0,"St Peters Grove, Hammersmith, London W6",0,0,pre-owned,1100000.0,terraced,0,freehold,2 bed terraced house for sale,51.492792,-0.24204,88.0,2,1,1,2021-06-16,1100000.0,0,0,1,Upminster,411,20
2105,2105,Hammersmith,2021-06-16,Francis James Residential,0,"Rostrevor Road, Fulham SW6",0,0,pre-owned,1750000.0,terraced,0,freehold,4 bed terraced house for sale,51.47579,-0.207154,170.0,4,2,3,2021-06-16,1750000.0,0,1,1,Parsons Green,457,20
2106,2106,Hammersmith,2021-06-16,JLL - Kensington,0,"Wood Lane, London W12",0,0,pre-owned,700000.0,flat,0,leasehold,1 bed flat for sale,51.51035,-0.226261,57.0,1,1,1,2021-06-16,700000.0,0,0,1,White City,235,41
2107,2107,Hammersmith,2021-06-16,Kerr and Co,0,"Richford Gate, Richford Street, London W6",0,0,pre-owned,1595000.0,Other,0,freehold,4 bed property for sale,51.500702,-0.227323,145.0,4,1,2,2021-06-16,1595000.0,1,1,1,Goldhawk Road,135,43
2108,2108,Hammersmith,2021-06-16,Moveli,1,"Kenyon Street, London SW6",0,0,pre-owned,950000.0,flat,0,freehold,3 bed flat for sale,51.47858,-0.219316,130.0,3,2,1,2021-06-16,950000.0,0,0,1,Upminster,1118,3
2109,2109,Hammersmith,2021-06-16,Property Inside London,0,"Lancaster House, Sovereign Court, Hammersmith, London W6",0,0,pre-owned,890000.0,flat,0,leasehold,2 bed flat for sale,51.494153,-0.227052,85.0,2,2,1,2021-06-16,890000.0,1,0,1,Hammersmith,143,43
2110,2110,Hammersmith,2021-06-15,John D Wood & Co. - Fulham Broadway Sales,0,"Kinnoul Road, Hammersmith, Fulham, London W6",0,0,pre-owned,1250000.0,detached,0,freehold,4 bed detached house for sale,51.485335,-0.212085,143.0,4,3,0,2021-06-15,1250000.0,0,0,1,Barons Court,527,11
2111,2111,Hammersmith,2021-06-15,Knight Frank - Fulham Sales,1,"Lillie Square, Seagrave Road, London SW6",0,0,new,775000.0,flat,0,Other,1 bed flat for sale,51.486314,-0.19511,52.0,1,1,1,2021-06-15,775000.0,0,0,1,West Brompton,241,26
2112,2112,Hammersmith,2021-06-15,Pioneer Property Group,1,"Distillery Wharf, Parrs Wy, Hammersmith London W6",0,0,new,980000.0,flat,0,leasehold,2 bed flat for sale,51.487277,-0.226365,62.0,2,2,1,2021-06-15,980000.0,0,0,0,Hammersmith,649,29
2113,2113,Hammersmith,2021-06-15,Pioneer Property Group,1,"Distillery Wharf, Parrs Wy, Hammersmith London W6",0,0,new,775000.0,flat,0,leasehold,1 bed flat for sale,51.487277,-0.226365,51.0,1,1,1,2021-06-15,775000.0,0,0,0,Hammersmith,649,29
2114,2114,Hammersmith,2021-06-15,Chestertons - Munster Road Sales,0,"Bronsart Road, Fulham, London SW6",0,0,pre-owned,450000.0,flat,0,share_of_freehold,1 bed flat for sale,51.480783,-0.214404,50.0,1,1,1,2021-06-15,450000.0,1,0,0,Barons Court,1022,5
2115,2115,Hammersmith,2021-06-15,Properly,0,"Higham House, Hurlingham Walk SW6",0,0,pre-owned,800000.0,flat,0,Other,2 bed flat for sale,51.465496,-0.195719,90.0,2,2,1,2021-06-15,800000.0,1,1,1,Parsons Green,942,4
2116,2116,Hammersmith,2021-06-14,Strutt & Parker - Fulham,0,"Perrymead Street, Fulham, London SW6",0,0,pre-owned,3400000.0,terraced,0,freehold,5 bed terraced house for sale,51.472683,-0.193479,270.0,5,4,3,2021-06-14,3400000.0,0,0,1,Chesham,606,20
2117,2117,Hammersmith,2021-06-14,Chestertons - Parsons Green,0,"Clancarty Road, South Park, Fulham, London SW6",0,0,pre-owned,1600000.0,terraced,0,freehold,5 bed terraced house for sale,51.471043,-0.194367,154.0,5,3,2,2021-06-14,1600000.0,1,0,1,Parsons Green,702,18
2118,2118,Hammersmith,2021-06-14,Winkworth - Fulham & Parsons Green,0,"Peterborough Road, London SW6",0,0,pre-owned,1700000.0,flat,0,share_of_freehold,3 bed flat for sale,51.468137,-0.195461,161.0,3,3,2,2021-06-14,1700000.0,0,0,1,Parsons Green,692,11
2119,2119,Hammersmith,2021-06-14,Winkworth - Fulham & Parsons Green,0,"Margravine Gardens, London W6",0,0,pre-owned,675000.0,flat,0,share_of_freehold,2 bed flat for sale,51.490123,-0.21656,87.0,2,1,1,2021-06-14,675000.0,1,0,1,Barons Court,215,20
2120,2120,Hammersmith,2021-06-14,Winkworth - Hammersmith,1,"Ravilious House, 273 King Street, Hammersmith, London W6",0,0,new,870000.0,flat,0,leasehold,2 bed flat for sale,51.493206,-0.239042,83.0,2,2,1,2021-06-14,870000.0,1,0,0,Ravenscourt Park,240,25
2121,2121,Hammersmith,2021-06-14,Finlay Brewer,0,"Findon Road, London W12",0,0,pre-owned,2600000.0,Other,0,Other,6 bed property for sale,51.504905,-0.236105,281.0,6,3,1,2021-06-14,2600000.0,1,0,1,Shepherd's Bush (H),622,37
2122,2122,Hammersmith,2021-06-14,Brik,0,"Shottendane Road, London SW6",0,0,pre-owned,1025000.0,flat,0,leasehold,2 bed flat for sale,51.477802,-0.200594,104.0,2,2,1,2021-06-14,1025000.0,1,0,0,Parsons Green,271,39
2123,2123,Hammersmith,2021-06-14,John D Wood & Co. - Fulham Broadway Sales,0,"Darlan Road, Fulham, London SW6",0,0,pre-owned,1450000.0,detached,0,freehold,4 bed detached house for sale,51.478269,-0.202223,186.0,4,3,2,2021-06-14,1450000.0,0,0,1,Parsons Green,293,35
2124,2124,Hammersmith,2021-06-12,Knight Frank - Fulham Sales,0,"Tournay Road, Fulham SW6",0,0,pre-owned,2800000.0,terraced,0,Other,6 bed terraced house for sale,51.4823,-0.2016,271.0,6,3,3,2021-06-12,2800000.0,1,0,1,Fulham Broadway,667,47
2125,2125,Hammersmith,2021-06-12,Dendrow,1,"Gilstead Road, London SW6",0,0,pre-owned,1600000.0,Other,0,Other,5 bed property for sale,51.472218,-0.188936,152.0,5,2,2,2021-06-12,1600000.0,0,0,1,Chesham,872,13
2126,2126,Hammersmith,2021-06-12,Shaws Kensington,0,"Palmerston Mansions, Queens Club Gardens, London W14",0,0,pre-owned,950000.0,flat,0,leasehold,3 bed flat for sale,51.48489,-0.210044,121.0,3,2,2,2021-06-12,950000.0,0,0,1,West Kensington,683,18
2127,2127,Hammersmith,2021-06-12,London Property Zone,1,"Beadon Road, Hammersmith W6",0,0,new,750000.0,flat,0,leasehold,1 bed flat for sale,51.494201,-0.227493,62.0,1,1,0,2021-06-12,750000.0,1,0,1,Hammersmith,194,44
2128,2128,Hammersmith,2021-06-11,"Purplebricks, Head Office",0,"Bloemfontein Road, Shepherds Bush W12",0,0,pre-owned,635000.0,flat,0,leasehold,3 bed flat for sale,51.510845,-0.23522,121.0,3,2,1,2021-06-11,635000.0,1,1,0,Upminster,754,17
2129,2129,Hammersmith,2021-06-11,Savills - Bishops Park,1,"Sulivan Road, London SW6",0,0,new,2200000.0,end_terrace,0,freehold,3 bed end terrace house for sale,51.466895,-0.195956,219.0,3,3,2,2021-06-11,2200000.0,1,0,1,Parsons Green,842,6
2130,2130,Hammersmith,2021-06-11,Prime London (Central and Riverside),0,"Fairwater House, Chelsea Creek, London SW6",0,0,pre-owned,790000.0,flat,0,Other,1 bed flat for sale,51.475994,-0.185642,57.0,1,1,1,2021-06-11,790000.0,1,0,1,Fulham Broadway,940,24
2131,2131,Hammersmith,2021-06-11,Churchill & Mathesons â€“ Acton,0,"Fitzneal Street, London W12",0,0,pre-owned,660000.0,Other,0,Other,4 bed property for sale,51.517436,-0.248912,8.0,4,2,2,2021-06-11,660000.0,1,0,1,East Acton,143,0
2132,2132,Hammersmith,2021-06-11,Winkworth - Shepherd's Bush & Acton,0,"Ormiston Grove, London W12",0,0,pre-owned,550000.0,flat,0,leasehold,2 bed flat for sale,51.508874,-0.2357,79.0,2,1,1,2021-06-11,565000.0,0,0,1,Shepherd's Bush (H),665,28
2133,2133,Hammersmith,2021-06-11,Hawks,1,"Leamore Street, London W6",0,0,new,1075000.0,flat,0,Other,2 bed flat for sale,51.494224,-0.228459,91.0,2,2,1,2021-06-11,1075000.0,1,0,1,Hammersmith,221,45
2134,2134,Hammersmith,2021-06-11,Shaws Kensington,0,"Cheesemans Terrace, West Kensington, Hammersmith, London W14",0,0,pre-owned,375000.0,flat,0,leasehold,1 bed flat for sale,51.487152,-0.207256,48.0,1,1,1,2021-06-11,375000.0,0,1,1,West Kensington,445,26
2135,2135,Hammersmith,2021-06-11,Emma's Estate Agents,0,"Dawes Road, London SW6",0,0,pre-owned,800000.0,flat,0,Other,4 bed flat for sale,51.481266,-0.210464,127.0,4,2,1,2021-06-11,800000.0,0,1,0,Barons Court,1012,4
2136,2136,Hammersmith,2021-06-11,Maskells,0,"Tyrawley Road, Fulham SW6",0,0,pre-owned,2150000.0,semi_detached,0,Other,6 bed semi-detached house for sale,51.47734,-0.192621,191.0,6,2,1,2021-06-11,2150000.0,1,0,1,Fulham Broadway,479,48
2137,2137,Hammersmith,2021-06-10,Cuffley Banks Ltd,1,"Eynham Road, London W12",0,0,pre-owned,665000.0,flat,0,share_of_freehold,2 bed flat for sale,51.517429,-0.225785,72.0,2,1,1,2021-06-10,665000.0,0,0,1,White City,545,3
2138,2138,Hammersmith,2021-06-10,Knight Frank - Fulham Sales,0,"Musgrave Crescent, Fulham SW6",0,0,pre-owned,4500000.0,semi_detached,0,Other,6 bed semi-detached house for sale,51.4775,-0.1939,356.0,6,5,3,2021-06-10,4500000.0,1,0,1,Chesham,469,53
2139,2139,Hammersmith,2021-06-09,Jorgensen Turner,0,"Ingersoll Road, Shepherds Bush, London W12",0,0,pre-owned,700000.0,flat,0,leasehold,2 bed flat for sale,51.507124,-0.232929,100.0,2,0,0,2021-06-09,700000.0,1,0,0,Shepherd's Bush (H),394,34
2140,2140,Hammersmith,2021-06-09,CB Williams Property,0,"Bishops Road, Fulham SW6",0,0,pre-owned,1750000.0,terraced,0,freehold,4 bed terraced house for sale,51.478374,-0.206267,158.0,4,2,2,2021-06-09,1750000.0,0,0,1,Parsons Green,449,19
2141,2141,Hammersmith,2021-06-09,Savills - Bishops Park,0,"Riverwalk Apartments, 5 Central Avenue, London SW6",0,0,pre-owned,1250000.0,flat,0,leasehold,2 bed flat for sale,51.467447,-0.187411,102.0,2,2,1,2021-06-09,1250000.0,1,0,1,Chesham,1207,13
2142,2142,Hammersmith,2021-06-09,Douglas & Gordon - Fulham,0,"Fulham Road, London SW6",0,0,pre-owned,750000.0,flat,0,leasehold,2 bed flat for sale,51.475709,-0.205427,82.0,2,1,1,2021-06-09,750000.0,1,0,0,Parsons Green,354,24
2143,2143,Hammersmith,2021-06-09,Whitman & Co,0,"Emlyn Road, London W12",0,0,pre-owned,595000.0,flat,0,leasehold,2 bed flat for sale,51.501914,-0.251825,76.0,2,1,2,2021-06-09,595000.0,0,0,1,Upminster,647,1
2144,2144,Hammersmith,2021-06-09,Oliver Bernard Private,0,"Lockgate Road, Chelsea Creek, Fulham, London SW6",0,0,pre-owned,790000.0,flat,0,share_of_freehold,1 bed flat for sale,51.475757,-0.185085,59.0,1,1,1,2021-06-09,790000.0,1,0,0,Fulham Broadway,916,22
2145,2145,Hammersmith,2021-06-09,John D Wood & Co. - Chiswick Sales,0,"Stamford Brook Road, London W6",0,0,pre-owned,3650000.0,detached,0,freehold,6 bed detached house for sale,51.497941,-0.245565,313.0,6,1,4,2021-06-09,3650000.0,0,1,1,Stamford Brook,399,8
2146,2146,Hammersmith,2021-06-08,Kerr and Co,1,"Overstone Road, London W6",0,0,pre-owned,250000.0,studio,0,leasehold,Studio for sale,51.495893,-0.228009,22.0,1,1,1,2021-06-08,250000.0,0,1,0,Hammersmith,295,44
2147,2147,Hammersmith,2021-06-08,Kerr and Co,0,"Wormholt Road, London W12",0,0,pre-owned,1450000.0,semi_detached,0,freehold,4 bed semi-detached house for sale,51.507914,-0.240455,161.0,4,1,2,2021-06-08,1450000.0,0,1,1,East Acton,1303,20
2148,2148,Hammersmith,2021-06-08,Latymers,0,"Latymer Court, Hammersmith Road W6",0,0,pre-owned,600000.0,flat,0,leasehold,3 bed flat for sale,51.493744,-0.218628,77.0,3,1,1,2021-06-08,600000.0,0,0,1,Upminster,431,39
2149,2149,Hammersmith,2021-06-08,Andrew Nunn & Associates,1,"Boot Court, Jeddo Road, London W12",0,0,new,599950.0,flat,0,Other,2 bed flat for sale,51.504394,-0.250008,65.0,2,1,1,2021-06-08,599950.0,1,0,0,Stamford Brook,1046,16
2150,2150,Hammersmith,2021-06-08,Chatterton Rees,0,"Kings Road, London SW6",0,0,pre-owned,1350000.0,flat,0,leasehold,3 bed flat for sale,51.479225,-0.187882,130.0,3,2,1,2021-06-08,1350000.0,1,1,0,Fulham Broadway,497,26
2151,2151,Hammersmith,2021-06-08,Portico - Fulham,1,"Fulham Road, London SW6",0,0,pre-owned,399500.0,flat,0,leasehold,1 bed flat for sale,51.4736,-0.207442,56.0,1,0,0,2021-06-08,410000.0,1,1,0,Upminster,473,24
2152,2152,Hammersmith,2021-06-07,Savills - Shepherds Bush & Brook Green,1,"Haymarket House, 15 Wolverton Gardens, London W6",0,0,pre-owned,800000.0,flat,0,leasehold,2 bed flat for sale,51.493956,-0.221467,77.0,2,2,1,2021-06-07,800000.0,1,1,0,Hammersmith,296,35
2153,2153,Hammersmith,2021-06-07,Horton and Garton - Hammersmith and Shepherd's Bush,0,"Redmore Road, Brackenbury Village, Hammersmith, London W6",0,0,pre-owned,1175000.0,terraced,0,freehold,3 bed terraced house for sale,51.494992,-0.233484,9.0,3,1,2,2021-06-07,1175000.0,0,0,1,Ravenscourt Park,193,28
2154,2154,Hammersmith,2021-06-07,Winkworth - Shepherd's Bush & Acton,0,"Collingbourne Road, London W12",0,0,pre-owned,700000.0,flat,0,share_of_freehold,2 bed flat for sale,51.509051,-0.234901,92.0,2,2,1,2021-06-07,700000.0,1,0,0,Shepherd's Bush (H),652,30
2155,2155,Hammersmith,2021-06-07,Winkworth - Shepherd's Bush & Acton,0,"Bloemfontein Road, London W12",0,0,pre-owned,1250000.0,terraced,0,freehold,3 bed terraced house for sale,51.507658,-0.234335,141.0,3,2,2,2021-06-07,1250000.0,0,0,1,Shepherd's Bush (H),515,31
2156,2156,Hammersmith,2021-06-07,Lawson Rutter,0,"Fulham Palace Road, London SW6",0,0,pre-owned,875000.0,flat,0,freehold,3 bed flat for sale,51.478064,-0.21657,117.0,3,2,1,2021-06-07,900000.0,0,0,1,Putney Bridge,915,5
2157,2157,Hammersmith,2021-06-07,Knight Frank - Chiswick Sales,0,"Albion House, St. Peters Square, London W6",0,0,pre-owned,995000.0,flat,0,Other,2 bed flat for sale,51.4925,-0.244623,86.0,2,1,1,2021-06-07,995000.0,0,0,1,Stamford Brook,312,16
2158,2158,Hammersmith,2021-06-07,Hart & Co,1,"White City Estate, London W12",0,0,pre-owned,399000.0,flat,0,Other,3 bed flat for sale,51.509998,-0.234672,70.0,3,1,0,2021-06-07,399000.0,0,0,0,Upminster,661,32
2159,2159,Hammersmith,2021-06-07,Aspire - Fulham South,0,"Wandsworth Bridge Road, Fulham, London SW6",0,0,pre-owned,1400000.0,flat,0,freehold,5 bed flat for sale,51.47363,-0.192191,204.0,5,4,1,2021-06-07,1400000.0,1,0,0,Chesham,651,20
2160,2160,Hammersmith,2021-06-06,Martin & Co - Chelsea,1,"Gironde Road, London SW6",0,0,pre-owned,835000.0,flat,0,Other,2 bed flat for sale,51.479949,-0.204222,92.0,2,2,1,2021-06-06,835000.0,1,0,0,Parsons Green,465,24
2161,2161,Hammersmith,2021-06-06,Martin & Co - Chelsea,1,"Coleridge Gardens, London SW10",0,0,pre-owned,750000.0,flat,0,Other,1 bed flat for sale,51.480873,-0.187823,59.0,1,1,1,2021-06-06,750000.0,0,1,0,Fulham Broadway,818,26
2162,2162,Hammersmith,2021-06-05,Winkworth - Fulham & Parsons Green,0,"Finlay Street, London SW6",0,0,pre-owned,3500000.0,terraced,0,freehold,6 bed terraced house for sale,51.475102,-0.219867,327.0,6,4,3,2021-06-05,3500000.0,0,0,1,Putney Bridge,974,0
2163,2163,Hammersmith,2021-06-05,Barnard Marcus - Earl's Court,0,"St. Dunstans Road, London W6",0,0,pre-owned,1500000.0,Other,0,freehold,4 bed property for sale,51.48899,-0.217757,158.0,4,2,2,2021-06-05,1500000.0,1,0,1,Barons Court,334,23
2164,2164,Hammersmith,2021-06-04,Hunter Realty,0,"Parr's Way, London W6",0,0,pre-owned,1350000.0,flat,0,leasehold,2 bed flat for sale,51.487277,-0.226365,8.0,2,2,1,2021-06-04,1350000.0,0,0,1,Hammersmith,649,29
2165,2165,Hammersmith,2021-06-04,Horton and Garton - Hammersmith and Shepherd's Bush,1,"Wingate Road, Brackenbury Village, London W6",0,0,pre-owned,500000.0,flat,0,share_of_freehold,2 bed flat for sale,51.499809,-0.23507,5.0,2,1,1,2021-06-04,500000.0,0,0,1,Ravenscourt Park,572,20
2166,2166,Hammersmith,2021-06-04,Hamptons - London Residential Development,1,"22 Bowery Apartments, Fountain Park Way, London W12",0,0,new,832000.0,flat,0,leasehold,1 bed flat for sale,51.511387,-0.222322,6.0,1,1,1,2021-06-04,832000.0,1,1,1,White City,279,15
2167,2167,Hammersmith,2021-06-04,LRC - London Sales and Letting Agency,1,"Broughton Road, Fulham, London SW6",0,0,new,798500.0,flat,0,leasehold,1 bed flat for sale,51.472393,-0.19034,52.0,1,1,1,2021-06-04,798500.0,1,0,1,Chesham,804,15
2168,2168,Hammersmith,2021-06-04,LRC - London Sales and Letting Agency,1,"Broughton Road, Fulham, London SW6",0,0,new,1190950.0,flat,0,leasehold,2 bed flat for sale,51.472393,-0.19034,74.0,2,2,1,2021-06-04,1190950.0,1,0,1,Chesham,804,15
2169,2169,Hammersmith,2021-06-04,LRC - London Sales and Letting Agency,1,"Broughton Road, Fulham, London SW6",0,0,new,1899950.0,flat,0,leasehold,3 bed flat for sale,51.472393,-0.19034,105.0,3,2,1,2021-06-04,1899950.0,1,0,1,Chesham,804,15
2170,2170,Hammersmith,2021-06-04,Savills - Shepherds Bush & Brook Green,0,"Brackenbury Gardens, London W6",0,0,pre-owned,2100000.0,terraced,0,freehold,4 bed terraced house for sale,51.500715,-0.231347,176.0,4,2,2,2021-06-04,2300000.0,0,0,1,Goldhawk Road,440,32
2171,2171,Hammersmith,2021-06-04,Savills - Shepherds Bush & Brook Green,0,"Coningham Road, London W12",0,0,pre-owned,375000.0,flat,0,leasehold,1 bed flat for sale,51.502115,-0.234102,37.0,1,1,1,2021-06-04,375000.0,0,0,0,Goldhawk Road,457,44
2172,2172,Hammersmith,2021-06-04,Savills - Shepherds Bush & Brook Green,0,"Hanover Court, Uxbridge Road, London W12",0,0,pre-owned,350000.0,flat,0,leasehold,1 bed flat for sale,51.506259,-0.239432,40.0,1,1,1,2021-06-04,350000.0,0,0,1,Upminster,726,24
2173,2173,Hammersmith,2021-06-04,LRC - London Sales and Letting Agency,0,"Chelsea Creek, Park Street, London SW6",0,0,pre-owned,1810000.0,flat,0,leasehold,3 bed flat for sale,51.47412,-0.183964,112.0,3,2,1,2021-06-04,1810000.0,0,1,1,Fulham Broadway,925,13
2174,2174,Hammersmith,2021-06-04,LRC - London Sales and Letting Agency,0,"Chelsea Creek, Park Street, London SW6",0,0,pre-owned,1360000.0,flat,0,leasehold,2 bed flat for sale,51.47412,-0.183964,77.0,2,2,1,2021-06-04,1360000.0,0,1,1,Fulham Broadway,925,13
2175,2175,Hammersmith,2021-06-04,LRC - London Sales and Letting Agency,0,"Lockside House, Chelsea Creek, London SW6",0,0,pre-owned,850000.0,flat,0,leasehold,1 bed flat for sale,51.47412,-0.183964,51.0,1,1,1,2021-06-04,850000.0,0,0,1,Fulham Broadway,925,13
2176,2176,Hammersmith,2021-06-04,Winkworth - Hammersmith,0,"Auriol Mansions, Edith Road, West Kensington, London W14",0,0,pre-owned,1000000.0,flat,0,share_of_freehold,3 bed flat for sale,51.492809,-0.21222,96.0,3,2,1,2021-06-04,1000000.0,0,0,0,Barons Court,365,26
2177,2177,Hammersmith,2021-06-04,Winkworth - Fulham & Parsons Green,0,"Parsons Gate Mews, London SW6",0,0,pre-owned,2000000.0,Other,0,freehold,3 bed property for sale,51.47184,-0.199404,167.0,3,2,0,2021-06-04,2000000.0,1,0,1,Parsons Green,339,18
2178,2178,Hammersmith,2021-06-04,Kinleigh Folkard & Hayward - Fulham Sales,1,"Bishops Road, London SW6",0,0,pre-owned,900000.0,flat,0,Other,2 bed flat for sale,51.478106,-0.206343,84.0,2,2,0,2021-06-04,900000.0,0,0,0,Parsons Green,461,18
2179,2179,Hammersmith,2021-06-04,Knight Frank - Fulham Sales,0,"Chesson Road, West Kensington W14",0,0,pre-owned,629950.0,maisonette,0,Other,2 bed maisonette for sale,51.486171,-0.204515,64.0,2,1,1,2021-06-04,629950.0,0,0,1,West Kensington,506,30
2180,2180,Hammersmith,2021-06-04,Keller Williams Prime Properties,0,"Rainsborough Square, London SW6",0,0,pre-owned,3750000.0,town_house,0,leasehold,5 bed town house for sale,51.483345,-0.197106,279.0,5,5,1,2021-06-04,3750000.0,0,0,1,Chesham,514,55
2181,2181,Hammersmith,2021-06-04,Chestertons - Fulham Road,0,"Hartismere Road, London SW6",0,0,pre-owned,1395000.0,Other,0,freehold,4 bed property for sale,51.48205,-0.203135,161.0,4,3,0,2021-06-04,1395000.0,1,0,1,Parsons Green,669,40
2182,2182,Hammersmith,2021-06-04,Strike,0,"Woodger Road, London W12",0,0,pre-owned,365000.0,flat,0,leasehold,1 bed flat for sale,51.502268,-0.225081,46.0,1,1,1,2021-06-04,365000.0,1,0,1,Goldhawk Road,230,72
2183,2183,Hammersmith,2021-06-04,Hamptons - London Residential Development,1,"15 Bowery Apartments, Fountain Park Way, London W12",0,0,new,1285000.0,flat,0,leasehold,2 bed flat for sale,51.511387,-0.222322,7.0,2,2,1,2021-06-04,1285000.0,1,1,1,White City,279,15
2184,2184,Hammersmith,2021-06-04,Dexters - Shepherds Bush,1,"Coningham Road, London W12",0,0,pre-owned,425000.0,flat,0,leasehold,1 bed flat for sale,51.505485,-0.235432,56.0,1,1,1,2021-06-04,425000.0,0,0,0,Shepherd's Bush (H),543,35
2185,2185,Hammersmith,2021-06-03,Horton and Garton - Hammersmith and Shepherd's Bush,0,"Uxbridge Road, White City, Shepherd's Bush, London W12",0,0,pre-owned,315000.0,flat,0,leasehold,1 bed flat for sale,51.505069,-0.223124,3.0,1,1,1,2021-06-03,315000.0,0,0,0,Shepherd's Bush (H),215,60
2186,2186,Hammersmith,2021-06-03,Savills - Shepherds Bush & Brook Green,1,"Television Centre, 101 Wood Lane, London W12",0,0,new,775000.0,flat,0,leasehold,1 bed flat for sale,51.51035,-0.226261,62.0,1,1,1,2021-06-03,800000.0,1,0,1,White City,235,41
2187,2187,Hammersmith,2021-06-03,John D Wood & Co. - Parsons Green Sales,0,"Ackmar Road, Parsons Green, Fulham, London SW6",0,0,pre-owned,975000.0,flat,0,share_of_freehold,3 bed flat for sale,51.474847,-0.200193,102.0,3,2,1,2021-06-03,975000.0,0,0,0,Parsons Green,134,19
2188,2188,Hammersmith,2021-06-03,Francis James Residential,0,"Danehurst Street, London SW6",0,0,pre-owned,1050000.0,flat,0,leasehold,3 bed flat for sale,51.477534,-0.212457,118.0,3,2,0,2021-06-03,1050000.0,1,1,0,Upminster,849,8
2189,2189,Hammersmith,2021-06-03,Andrew Nunn & Associates,1,"Boot Court, Jeddo Road, London W12",0,0,new,599950.0,flat,0,Other,2 bed flat for sale,51.504394,-0.250008,65.0,2,1,1,2021-06-03,599950.0,1,0,0,Stamford Brook,1046,16
2190,2190,Hammersmith,2021-06-03,Chestertons - Munster Road Sales,0,"Munster Mews, Lillie Road, London SW6",0,0,pre-owned,525000.0,flat,0,share_of_freehold,2 bed flat for sale,51.479933,-0.211744,50.0,2,1,1,2021-06-03,525000.0,1,0,1,Upminster,865,5
2191,2191,Hammersmith,2021-06-03,Kerr and Co,0,"St. Elmo Road, London W12",0,0,pre-owned,1075000.0,terraced,0,freehold,4 bed terraced house for sale,51.506312,-0.246377,159.0,4,2,2,2021-06-03,1075000.0,1,1,1,Upminster,1229,13
2192,2192,Hammersmith,2021-06-03,Barnard Marcus - Auctions,0,"Greyhound Road, London W6",0,0,pre-owned,525000.0,maisonette,1,leasehold,3 bed maisonette for sale,51.48499,-0.218417,82.0,3,1,1,2021-06-03,525000.0,0,0,1,Barons Court,680,15
2193,2193,Hammersmith,2021-06-02,Hunter Realty,0,"Sands End Lane, London SW6",0,0,pre-owned,880000.0,flat,0,leasehold,1 bed flat for sale,51.4737632743055,-0.187886913194444,9290.0,1,1,1,2021-06-02,880000.0,0,0,0,Fulham Broadway,900,21
2194,2194,Hammersmith,2021-06-02,Hunter Realty,0,"Sands End Lane, London SW6",0,0,pre-owned,1125000.0,flat,0,leasehold,2 bed flat for sale,51.4737632743055,-0.187886913194444,9290.0,2,2,1,2021-06-02,1125000.0,0,0,0,Fulham Broadway,900,21
2195,2195,Hammersmith,2021-06-02,Hunter Realty,0,"Sands End Lane, London SW6",0,0,pre-owned,1965000.0,flat,0,leasehold,3 bed flat for sale,51.4737632743055,-0.187886913194444,9290.0,3,2,1,2021-06-02,1965000.0,0,0,0,Fulham Broadway,900,21
2196,2196,Hammersmith,2021-06-02,Tyron Ash,0,"Higham House, Carnwath Road, Fulham, London SW6",0,0,pre-owned,2000000.0,flat,0,Other,4 bed flat for sale,51.46627,-0.190836,181.0,4,5,1,2021-06-02,2000000.0,1,1,0,Parsons Green,1006,7
2197,2197,Hammersmith,2021-06-02,Knight Frank - Fulham Sales,0,"Tournay Road, Fulham SW6.",0,0,pre-owned,2795000.0,terraced,0,Other,6 bed terraced house for sale,51.4819,-0.2027,276.0,6,4,3,2021-06-02,2895000.0,1,0,1,Parsons Green,663,44
2198,2198,Hammersmith,2021-06-02,Chestertons - Munster Road Sales,0,"Munster Road, London SW6",0,0,pre-owned,3350000.0,terraced,0,freehold,6 bed terraced house for sale,51.474071,-0.20594,311.0,6,6,2,2021-06-02,3350000.0,0,0,1,Parsons Green,387,22
2199,2199,Hammersmith,2021-06-02,Lawson Rutter,1,"Cheesemans Terrace, West Kensington, London W14",0,0,pre-owned,375000.0,flat,0,leasehold,1 bed flat for sale,51.487554,-0.206131,49.0,1,1,1,2021-06-02,375000.0,0,0,0,West Kensington,465,28
2200,2200,Hammersmith,2021-06-02,Brik,0,"Fabian Road, London SW6",0,0,pre-owned,1550000.0,terraced,0,Other,4 bed terraced house for sale,51.481792,-0.203781,148.0,4,2,0,2021-06-02,1550000.0,1,0,1,Parsons Green,676,34
2201,2201,Hammersmith,2021-06-02,Aspire - Fulham South,1,"Rosaline Road, Fulham, London SW6",0,0,pre-owned,1300000.0,Other,0,freehold,4 bed property for sale,51.480588,-0.210476,139.0,4,2,1,2021-06-02,1300000.0,1,0,1,Upminster,787,4
2202,2202,Hammersmith,2021-06-02,Holcroft Property Consultants,0,"Moore Park Road, Fulham, London SW6",0,0,pre-owned,2450000.0,town_house,0,freehold,5 bed town house for sale,51.479925,-0.190128,277.0,5,4,1,2021-06-02,2450000.0,1,1,1,Fulham Broadway,423,35
2203,2203,Hammersmith,2021-06-01,Chestertons - Munster Road Sales,0,"Musard Road, Barons Court, London W6",0,0,pre-owned,1425000.0,Other,0,freehold,4 bed property for sale,51.485185,-0.21115,185.0,4,2,1,2021-06-01,1425000.0,1,0,1,Barons Court,588,9
2204,2204,Hammersmith,2021-06-01,Savills - Bishops Park,0,"Margravine Gardens, London W6",0,0,pre-owned,1895000.0,end_terrace,0,freehold,5 bed end terrace house for sale,51.489699,-0.217642,179.0,5,2,1,2021-06-01,1895000.0,1,0,1,Barons Court,275,24
2205,2205,Hammersmith,2021-06-01,Savills - Fulham,0,"Moore Park Road, Fulham, London SW6",0,0,pre-owned,2450000.0,end_terrace,0,freehold,5 bed end terrace house for sale,51.479925,-0.190128,277.0,5,4,2,2021-06-01,2450000.0,1,1,1,Fulham Broadway,423,35
2206,2206,Hammersmith,2021-06-01,Chestertons - Munster Road Sales,0,"Margravine Gardens, Barons Court, London W6",0,0,pre-owned,1895000.0,end_terrace,0,freehold,5 bed end terrace house for sale,51.489699,-0.217642,181.0,5,2,2,2021-06-01,1895000.0,1,0,1,Barons Court,275,24
2207,2207,Hammersmith,2021-06-01,Finlay Brewer,0,"Tabor Road, London W6",0,0,pre-owned,1625000.0,Other,0,Other,3 bed property for sale,51.498218,-0.230558,136.0,3,1,2,2021-06-01,1625000.0,0,0,1,Goldhawk Road,485,27
2208,2208,Hammersmith,2021-06-01,Lawson Rutter,1,"Inglethorpe Street, London SW6",0,0,pre-owned,2250000.0,Other,0,freehold,5 bed property for sale,51.477031,-0.220772,215.0,5,2,1,2021-06-01,2000000.0,1,0,1,Putney Bridge,1175,0
2209,2209,Hammersmith,2021-06-01,Pioneer Property Group,1,"Distillery Wharf, Parrs Wy, Hammersmith London W6",0,0,new,980000.0,flat,0,leasehold,2 bed flat for sale,51.487277,-0.226365,62.0,2,2,1,2021-06-01,980000.0,0,0,0,Hammersmith,649,29
2210,2210,Hammersmith,2021-06-01,Pioneer Property Group,1,"Distillery Wharf, Parrs Wy, Hammersmith London W6",0,0,new,775000.0,flat,0,leasehold,1 bed flat for sale,51.487277,-0.226365,51.0,1,1,1,2021-06-01,775000.0,0,0,0,Hammersmith,649,29
2211,2211,Hammersmith,2021-06-01,The London Broker,0,"Townmead Road, Imperial Wharf, London SW6",0,0,pre-owned,500000.0,flat,0,Other,1 bed flat for sale,51.473886,-0.183131,45.0,1,0,1,2021-06-01,550000.0,1,0,0,Fulham Broadway,966,12
2212,2212,Hammersmith,2021-06-01,Aspire - Fulham South,1,"Elbe Street, Fulham, London SW6",0,0,new,550000.0,flat,0,Other,2 bed flat for sale,51.472892,-0.185675,65.0,2,1,1,2021-06-01,550000.0,1,0,0,Fulham Broadway,1038,18
2213,2213,Hammersmith,2021-06-01,Marsh & Parsons - Fulham,0,"Moore Park Road, London SW6",0,0,pre-owned,2450000.0,detached,0,freehold,6 bed detached house for sale,51.479889,-0.189812,274.0,6,5,2,2021-06-01,2450000.0,1,0,0,Fulham Broadway,429,34
2214,2214,Hammersmith,2021-06-01,Kerr and Co,1,"Goldhawk Road, London W12",0,0,pre-owned,250000.0,flat,0,leasehold,1 bed flat for sale,51.502438,-0.22552,27.0,1,1,1,2021-06-01,250000.0,0,1,0,Goldhawk Road,168,71
2215,2215,Hammersmith,2021-05-31,Chelwood Partners,0,"Halford Road, London SW6",0,0,pre-owned,750000.0,flat,0,share_of_freehold,2 bed flat for sale,51.48403,-0.19674,63.0,2,1,1,2021-05-31,750000.0,0,0,1,West Brompton,438,55
2216,2216,Hammersmith,2021-05-30,Strike,0,"Uxbridge Road, London W12",0,0,pre-owned,450000.0,flat,0,leasehold,2 bed flat for sale,51.505458,-0.225505,55.0,2,1,1,2021-05-30,450000.0,0,1,0,Shepherd's Bush (H),87,70
2217,2217,Hammersmith,2021-05-29,Aspire - Fulham South,1,"Woolneigh Street, Fulham, London SW6",0,0,pre-owned,2500000.0,Other,0,freehold,5 bed property for sale,51.469118,-0.191718,256.0,5,3,1,2021-05-29,2500000.0,1,0,1,Parsons Green,900,12
2218,2218,Hammersmith,2021-05-29,Knight Frank - Fulham Sales,0,"Acfold Road, Fulham SW6",0,0,pre-owned,3500000.0,semi_detached,0,Other,6 bed semi-detached house for sale,51.4755,-0.1913,319.0,6,5,2,2021-05-29,3500000.0,0,1,1,Fulham Broadway,686,29
2219,2219,Hammersmith,2021-05-28,Benham and Reeves - Kensington,0,"Fountain Park Way, London W12",0,0,pre-owned,1200000.0,flat,0,leasehold,2 bed flat for sale,51.5104280106952,-0.22978850802139,74.0,2,2,1,2021-05-28,1200000.0,1,0,0,Upminster,447,34
2220,2220,Hammersmith,2021-05-28,Knight Frank - Fulham Sales,0,"Walham Grove, Fulham, London SW6",0,0,pre-owned,2850000.0,terraced,0,freehold,3 bed terraced house for sale,51.4823,-0.198115,244.0,3,3,3,2021-05-28,3000000.0,1,0,0,Fulham Broadway,584,50
2221,2221,Hammersmith,2021-05-28,Aston Rowe,1,"Woodger Road, London W12",0,0,pre-owned,325000.0,flat,0,leasehold,1 bed flat for sale,51.502296,-0.224838,39.0,1,1,1,2021-05-28,340000.0,0,0,1,Goldhawk Road,232,72
2222,2222,Hammersmith,2021-05-28,Aspire - Fulham South,0,"Inglethorpe Street, Fulham, London SW6",0,0,pre-owned,1850000.0,Other,0,freehold,5 bed property for sale,51.477006,-0.220906,186.0,5,3,2,2021-05-28,1850000.0,1,0,1,Putney Bridge,1181,0
2223,2223,Hammersmith,2021-05-27,Horton and Garton - Hammersmith and Shepherd's Bush,1,"Eynham Road, Ladbroke Grove, London W12",0,0,pre-owned,675000.0,flat,0,share_of_freehold,2 bed flat for sale,51.51742,-0.225799,7.0,2,1,1,2021-05-27,675000.0,1,0,1,White City,544,3
2224,2224,Hammersmith,2021-05-27,Savills - Shepherds Bush & Brook Green,0,"Willow Vale, London W12",0,0,pre-owned,550000.0,flat,0,share_of_freehold,2 bed flat for sale,51.508147,-0.238149,69.0,2,1,1,2021-05-27,550000.0,0,0,0,Shepherd's Bush (H),754,26
2225,2225,Hammersmith,2021-05-27,Savills - Fulham,1,"Rosaville Road, London SW6",0,0,pre-owned,1395000.0,terraced,0,freehold,3 bed terraced house for sale,51.479583,-0.206458,113.0,3,1,1,2021-05-27,1395000.0,0,0,1,Parsons Green,547,16
2226,2226,Hammersmith,2021-05-27,"Carter Jonas - Bishops Park, Fulham",0,"Archel Road, London W14",0,0,pre-owned,1550000.0,detached,0,freehold,3 bed detached house for sale,51.486098,-0.206712,149.0,3,2,1,2021-05-27,1550000.0,1,0,1,West Kensington,559,26
2227,2227,Hammersmith,2021-05-27,Chestertons - Fulham Road,0,"Wandon Road, Fulham, London SW6",0,0,pre-owned,425000.0,flat,0,leasehold,2 bed flat for sale,51.480343,-0.188052,59.0,2,2,0,2021-05-27,425000.0,1,0,0,Fulham Broadway,512,26
2228,2228,Hammersmith,2021-05-27,JLL - New Homes,1,"King's Road Park, King's Road SW6",0,0,new,2530000.0,flat,0,Other,3 bed flat for sale,51.47823,-0.18924,123.0,3,3,1,2021-05-27,2530000.0,1,0,1,Fulham Broadway,495,32
2229,2229,Hammersmith,2021-05-27,JLL - New Homes,1,"King's Road Park, King's Road SW6",0,0,new,1420000.0,flat,0,Other,2 bed flat for sale,51.47823,-0.18924,83.0,2,2,1,2021-05-27,1420000.0,0,0,1,Fulham Broadway,495,32
2230,2230,Hammersmith,2021-05-26,Savills - Margaret Street RDS,1,"King's Road Park, King's Road, London SW6",0,0,new,1625000.0,flat,0,leasehold,2 bed flat for sale,51.477589,-0.188492,9290.0,2,2,1,2021-05-26,1625000.0,1,0,1,Fulham Broadway,585,29
2231,2231,Hammersmith,2021-05-26,Savills - Fulham,0,"Fernhurst Road, Fulham, London SW6",0,0,pre-owned,2300000.0,terraced,0,freehold,5 bed terraced house for sale,51.477942,-0.209144,200.0,5,3,2,2021-05-26,2300000.0,1,0,1,Parsons Green,697,10
2232,2232,Hammersmith,2021-05-26,Allday & Miller,0,"Yew Tree Road, London W12",0,0,pre-owned,825000.0,semi_detached,0,Other,3 bed semi-detached house for sale,51.512027,-0.242677,96.0,3,1,1,2021-05-26,850000.0,0,1,1,East Acton,969,0
2233,2233,Hammersmith,2021-05-25,Kinleigh Folkard & Hayward - Fulham Sales,1,"Peterborough Road, London SW6",0,0,pre-owned,550000.0,flat,0,Other,3 bed flat for sale,51.469787,-0.19865,84.0,3,1,0,2021-05-25,550000.0,0,0,0,Parsons Green,553,16
2234,2234,Hammersmith,2021-05-25,RE/MAX Property Group,0,"Imperial Crescent, Fulham SW6",0,0,pre-owned,4500000.0,town_house,0,leasehold,6 bed town house for sale,51.470938,-0.184033,409.0,6,7,3,2021-05-25,4500000.0,0,1,1,Fulham Broadway,1276,9
2235,2235,Hammersmith,2021-05-25,"Carter Jonas - Bishops Park, Fulham",0,"Rowallan Road, London SW6",0,0,pre-owned,900000.0,flat,0,share_of_freehold,3 bed flat for sale,51.479735,-0.21348,111.0,3,3,1,2021-05-25,900000.0,0,0,1,Barons Court,1090,5
2236,2236,Hammersmith,2021-05-25,Savills - Shepherds Bush & Brook Green,1,"Wood Crescent, London W12",0,0,new,765000.0,flat,0,leasehold,1 bed flat for sale,51.510467,-0.226819,57.0,1,1,1,2021-05-25,765000.0,1,0,0,White City,202,40
2237,2237,Hammersmith,2021-05-25,Peabody,0,"Lillie Road, London SW6",0,1,pre-owned,138000.0,flat,0,leasehold,1 bed flat for sale,51.485803,-0.200357,46.0,1,1,0,2021-05-25,138000.0,1,1,0,West Brompton,356,35
2238,2238,Hammersmith,2021-05-24,Jorgensen Turner,1,"Oaklands Grove, Shepherds Bush, London W12",0,0,pre-owned,530000.0,flat,0,share_of_freehold,2 bed flat for sale,51.508762,-0.236641,59.0,2,0,0,2021-05-24,545000.0,0,0,1,Shepherd's Bush (H),705,26
2239,2239,Hammersmith,2021-05-24,Jorgensen Turner,0,"Percy Road, Shepherds Bush, London W12",0,0,pre-owned,645000.0,flat,0,share_of_freehold,2 bed flat for sale,51.502546,-0.239474,84.0,2,0,0,2021-05-24,645000.0,0,0,0,Ravenscourt Park,814,34
2240,2240,Hammersmith,2021-05-24,Jorgensen Turner,0,"Australia Road, White City, London W12",0,0,pre-owned,350000.0,Other,0,leasehold,2 bed property for sale,51.510133,-0.232135,56.0,2,0,0,2021-05-24,350000.0,1,0,0,Upminster,527,35
2241,2241,Hammersmith,2021-05-24,Relocate Me,0,"Doulton House, Chelsea Creek, Fulham, London SW6",0,0,pre-owned,1500000.0,flat,0,leasehold,3 bed flat for sale,51.474483,-0.184785,97.0,3,2,1,2021-05-24,1500000.0,1,1,0,Fulham Broadway,875,23
2242,2242,Hammersmith,2021-05-24,Knight Frank - Battersea and Riverside Sales,0,"Marina Point, Lensbury Avenue, London SW6",0,0,pre-owned,1225000.0,flat,0,Other,3 bed flat for sale,51.4726,-0.182498,117.0,3,2,1,2021-05-24,1275000.0,1,1,1,Fulham Broadway,1071,10
2243,2243,Hammersmith,2021-05-24,Savills - Bishops Park,1,"New Kings Road, London SW6",0,0,pre-owned,650000.0,flat,0,leasehold,2 bed flat for sale,51.473445,-0.196763,69.0,2,1,1,2021-05-24,650000.0,0,0,0,Parsons Green,344,26
2244,2244,Hammersmith,2021-05-24,Brackenbury Estates Ltd,0,"Marchbank Road, West Kensington W14",0,0,pre-owned,469990.0,flat,0,freehold,2 bed flat for sale,51.486837,-0.200412,73.0,2,1,1,2021-05-24,469990.0,0,0,0,West Brompton,443,32
2245,2245,Hammersmith,2021-05-23,Winkworth - Fulham & Parsons Green,1,"Peterborough Road, London SW6",0,0,pre-owned,1500000.0,flat,0,leasehold,2 bed flat for sale,51.465953,-0.193172,139.0,2,2,0,2021-05-23,1500000.0,1,1,0,Parsons Green,971,8
2246,2246,Hammersmith,2021-05-22,Strike,1,"Stanlake Road, London W12",0,0,pre-owned,625000.0,flat,0,share_of_freehold,2 bed flat for sale,51.507988,-0.228021,58.0,2,1,1,2021-05-22,625000.0,1,0,0,Shepherd's Bush (H),274,51
2247,2247,Hammersmith,2021-05-21,Jorgensen Turner,0,"Australia Road, White City, London W12",0,0,pre-owned,300000.0,flat,0,leasehold,1 bed flat for sale,51.512972,-0.234951,40.0,1,0,0,2021-05-21,310000.0,0,0,0,Upminster,718,4
2248,2248,Hammersmith,2021-05-21,"RiverHomes, West London Branch",1,"Thames Reach, Hammersmith W6",0,0,pre-owned,1250000.0,flat,0,leasehold,2 bed flat for sale,51.484505,-0.225032,102.0,2,2,1,2021-05-21,1295000.0,0,1,0,Hammersmith,870,17
2249,2249,Hammersmith,2021-05-21,Finlay Brewer,0,"Batoum Gardens, Brook Green, London W6",0,0,pre-owned,575000.0,flat,0,Other,2 bed flat for sale,51.499462,-0.224225,54.0,2,1,2,2021-05-21,575000.0,0,0,0,Goldhawk Road,553,38
2250,2250,Hammersmith,2021-05-21,Charles Banks,1,"Hammersmith Bridge Road, London W6",0,0,pre-owned,459950.0,flat,0,Other,1 bed flat for sale,51.489494,-0.229635,50.0,1,1,1,2021-05-21,459950.0,1,0,0,Hammersmith,495,48
2251,2251,Hammersmith,2021-05-21,Go View London,0,"Nasmyth Street, London W6",0,0,pre-owned,699950.0,maisonette,0,Other,3 bed maisonette for sale,51.497398,-0.235158,83.0,3,1,1,2021-05-21,699950.0,0,0,1,Ravenscourt Park,377,27
2252,2252,Hammersmith,2021-05-21,London Property Zone,1,"Beadon Road, Hammersmith W6",0,0,new,749950.0,flat,0,leasehold,1 bed flat for sale,51.494201,-0.227493,62.0,1,1,0,2021-05-21,749950.0,1,0,1,Hammersmith,194,44
2253,2253,Hammersmith,2021-05-20,Strutt & Parker - Fulham,0,"Winchendon Road, Fulham, London SW6",0,0,pre-owned,2750000.0,terraced,0,freehold,5 bed terraced house for sale,51.477642,-0.204792,242.0,5,4,3,2021-05-20,2750000.0,0,0,1,Parsons Green,329,26
2254,2254,Hammersmith,2021-05-20,Brik,0,"Burnthwaite Road, London SW6",0,0,pre-owned,1300000.0,terraced,0,Other,4 bed terraced house for sale,51.479,-0.202748,138.0,4,3,1,2021-05-20,1325000.0,1,1,1,Parsons Green,388,36
2255,2255,Hammersmith,2021-05-20,Knight Frank - Fulham Sales,0,"Chipstead Street, Fulham SW6",0,0,pre-owned,2000000.0,terraced,0,Other,5 bed terraced house for sale,51.4739,-0.1958,175.0,5,4,1,2021-05-20,2000000.0,1,0,1,Parsons Green,429,26
2256,2256,Hammersmith,2021-05-20,John D Wood & Co. - Fulham Broadway Sales,0,"Hartismere Road, Fulham, London SW6",0,0,pre-owned,1850000.0,detached,0,freehold,4 bed detached house for sale,51.480427,-0.202225,171.0,4,3,2,2021-05-20,1850000.0,0,0,1,Parsons Green,535,33
2257,2257,Hammersmith,2021-05-19,Knight Frank - Fulham Sales,0,"Dawes Road, Fulham SW6",0,0,pre-owned,550000.0,flat,0,Other,2 bed flat for sale,51.480637,-0.200695,48.0,2,1,1,2021-05-19,550000.0,0,0,0,Chesham,542,37
2258,2258,Hammersmith,2021-05-19,Chestertons - Parsons Green,0,"Gledstanes Road, West Kensington, London W14",0,0,pre-owned,575000.0,flat,0,share_of_freehold,2 bed flat for sale,51.487958,-0.210235,68.0,2,1,1,2021-05-19,575000.0,0,0,1,Barons Court,347,17
2259,2259,Hammersmith,2021-05-19,Savills - South West London RDS,1,"Kings Road Park, London SW6",0,0,new,865000.0,flat,0,leasehold,1 bed flat for sale,51.477589,-0.188492,9290.0,1,1,1,2021-05-19,865000.0,0,0,1,Fulham Broadway,585,29
2260,2260,Hammersmith,2021-05-19,Featherstone Leigh - Fulham,0,"Faulkner House, Tierney Lane, London, UK W6",0,0,pre-owned,1290000.0,flat,0,leasehold,2 bed flat for sale,51.491856,-0.237222,108.0,2,2,1,2021-05-19,1290000.0,1,0,0,Ravenscourt Park,246,28
2261,2261,Hammersmith,2021-05-19,Featherstone Leigh - Fulham,0,"Faulkner House, Tierney Lane, London, UK W6",0,0,pre-owned,1270000.0,flat,0,leasehold,2 bed flat for sale,51.491856,-0.237222,108.0,2,2,1,2021-05-19,1270000.0,1,0,0,Ravenscourt Park,246,28
2262,2262,Hammersmith,2021-05-18,Winkworth - Shepherd's Bush & Acton,0,"Macfarlane Road, London W12",0,0,pre-owned,1750000.0,Other,0,freehold,5 bed property for sale,51.507019,-0.225397,223.0,5,2,2,2021-05-18,1750000.0,0,0,1,Shepherd's Bush (H),227,69
2263,2263,Hammersmith,2021-05-18,UK Property Sellers,0,"Owen Mansions, Queens Club Garden, Kensington W14",0,0,pre-owned,1100000.0,flat,0,leasehold,3 bed flat for sale,51.486334,-0.210757,88.0,3,2,1,2021-05-18,1100000.0,0,0,1,Barons Court,554,10
2264,2264,Hammersmith,2021-05-18,Hamptons - London Residential Development,1,"Lillie Road, London SW6",0,0,new,695000.0,flat,0,leasehold,2 bed flat for sale,51.484696,-0.203377,63.0,2,1,1,2021-05-18,695000.0,1,1,0,Chesham,534,42
2265,2265,Hammersmith,2021-05-18,Chatterton Rees,0,"Toy Makers Yard, Fulham, London SW6",0,0,pre-owned,475000.0,flat,0,leasehold,1 bed flat for sale,51.484771,-0.203465,38.0,1,1,1,2021-05-18,475000.0,1,0,0,Chesham,468,41
2266,2266,Hammersmith,2021-05-18,Knight Frank - Fulham Sales,0,"Comeragh Road, West Kensington W14",0,0,pre-owned,550000.0,flat,0,Other,1 bed flat for sale,51.488563,-0.211527,49.0,1,1,1,2021-05-18,550000.0,0,0,0,Barons Court,212,10
2267,2267,Hammersmith,2021-05-18,Aspire - Fulham South,0,"Wandsworth Bridge Road, Fulham, London SW6",0,0,pre-owned,875000.0,flat,0,leasehold,3 bed flat for sale,51.471729,-0.191653,114.0,3,2,1,2021-05-18,875000.0,0,0,0,Chesham,784,14
2268,2268,Hammersmith,2021-05-17,Savills - Earl's Court,1,"Lillie Square, London SW6",0,0,new,1550000.0,flat,0,leasehold,3 bed flat for sale,51.486096,-0.195472,91.0,3,2,1,2021-05-17,1550000.0,1,1,0,West Brompton,233,31
2269,2269,Hammersmith,2021-05-17,Savills - Bishops Park,1,"Elswick Street, London SW6",0,0,pre-owned,1500000.0,terraced,0,freehold,4 bed terraced house for sale,51.473451,-0.186669,158.0,4,3,1,2021-05-17,1500000.0,0,0,1,Fulham Broadway,949,21
2270,2270,Hammersmith,2021-05-17,Barnard Marcus - Bedford Park,1,"Fitzneal Street, London W12",0,0,pre-owned,660000.0,terraced,0,freehold,4 bed terraced house for sale,51.517388,-0.24879,93.0,4,2,2,2021-05-17,675000.0,1,1,1,East Acton,137,0
2271,2271,Hammersmith,2021-05-17,Marsh & Parsons - Askew Road,0,"Wendell Road, London W12",0,0,pre-owned,750000.0,flat,0,share_of_freehold,2 bed flat for sale,51.502197,-0.245712,87.0,2,2,1,2021-05-17,750000.0,1,0,1,Stamford Brook,837,15
2272,2272,Hammersmith,2021-05-17,John D Wood & Co. - Parsons Green Sales,0,"Wandsworth Bridge Road, Fulham, London SW6",0,0,pre-owned,875000.0,flat,0,leasehold,3 bed flat for sale,51.471596,-0.191725,111.0,3,2,2,2021-05-17,875000.0,0,0,0,Chesham,794,14
2273,2273,Hammersmith,2021-05-17,Savills - Shepherds Bush & Brook Green,0,"Television Centre, 101 Wood Lane, London W12",0,0,pre-owned,1125000.0,flat,0,leasehold,2 bed flat for sale,51.51035,-0.226261,85.0,2,2,1,2021-05-17,1195000.0,1,1,1,White City,235,41
2274,2274,Hammersmith,2021-05-17,Strutt & Parker - Fulham,0,"Parsons Green Lane, London SW6",0,0,pre-owned,1900000.0,terraced,0,freehold,5 bed terraced house for sale,51.472199,-0.201674,203.0,5,2,2,2021-05-17,1900000.0,0,0,1,Parsons Green,319,19
2275,2275,Hammersmith,2021-05-17,Chestertons - Munster Road Sales,0,"Munster Road, Munster Village, London SW6",0,0,pre-owned,550000.0,flat,0,leasehold,2 bed flat for sale,51.480477,-0.21263,63.0,2,1,1,2021-05-17,550000.0,0,0,0,Barons Court,990,7
2276,2276,Hammersmith,2021-05-17,Amber & Co Ltd,1,"White City Living, White City, London W12",0,0,new,868950.0,flat,0,leasehold,1 bed flat for sale,51.511999,-0.222277,58.0,1,1,1,2021-05-17,868950.0,1,0,0,White City,327,13
2277,2277,Hammersmith,2021-05-17,Amber & Co Ltd,1,"White City Living, White City W12",0,0,new,749950.0,flat,0,leasehold,1 bed flat for sale,51.511999,-0.222277,58.0,1,1,1,2021-05-17,749950.0,1,0,0,White City,327,13
2278,2278,Hammersmith,2021-05-17,Brik,0,"Harwood Road, London SW6",0,0,pre-owned,875000.0,flat,0,freehold,2 bed flat for sale,51.477901,-0.192709,79.0,2,2,1,2021-05-17,875000.0,0,0,1,Fulham Broadway,431,47
2279,2279,Hammersmith,2021-05-15,Horton and Garton - Hammersmith and Shepherd's Bush,0,"Brackenbury Road, Brackenbury Village, Hammersmith, London W6",0,0,pre-owned,875000.0,flat,0,share_of_freehold,3 bed flat for sale,51.499839,-0.232274,9.0,3,1,1,2021-05-15,875000.0,0,0,0,Goldhawk Road,438,24
2280,2280,Hammersmith,2021-05-15,Horton and Garton - Hammersmith and Shepherd's Bush,0,"Ravilious House, Ravenscourt Park, Hammersmith, London W6",0,0,pre-owned,800000.0,flat,0,leasehold,2 bed flat for sale,51.493206,-0.239042,7.0,2,2,1,2021-05-15,800000.0,1,0,0,Ravenscourt Park,240,25
2281,2281,Hammersmith,2021-05-15,Property Inside London,0,"Belvedere Building, White City Living, 54 Wood Lane, London W12",0,0,pre-owned,1300000.0,flat,0,leasehold,2 bed flat for sale,51.511374,-0.22195,83.0,2,2,1,2021-05-15,1300000.0,1,0,1,White City,272,15
2282,2282,Hammersmith,2021-05-15,Chestertons - Munster Road Sales,0,"Cundall Court, Mablethorpe Road, London SW6",0,0,pre-owned,450000.0,flat,0,leasehold,1 bed flat for sale,51.480449,-0.213697,47.0,1,1,1,2021-05-15,450000.0,1,0,1,Barons Court,1039,7
2283,2283,Hammersmith,2021-05-15,Just Us Global,1,"10 Jaeger House, London SW6",0,0,new,784800.0,flat,0,leasehold,1 bed flat for sale,51.474838,-0.185678,6.0,1,1,1,2021-05-15,784800.0,1,0,1,Fulham Broadway,828,25
2284,2284,Hammersmith,2021-05-14,Chestertons - Parsons Green,0,"Walham Grove, West Brompton, London SW6",0,0,pre-owned,2500000.0,terraced,0,freehold,4 bed terraced house for sale,51.482111,-0.197732,212.0,4,3,3,2021-05-14,2500000.0,1,0,1,Fulham Broadway,592,49
2285,2285,Hammersmith,2021-05-14,Brik,0,"Parsons Green Lane, London SW6",0,0,pre-owned,1900000.0,terraced,0,Other,5 bed terraced house for sale,51.476745,-0.201423,199.0,5,2,1,2021-05-14,1900000.0,1,0,1,Parsons Green,140,37
2286,2286,Hammersmith,2021-05-14,Knight Frank - Battersea and Riverside Sales,0,"The Boulevard, London SW6",0,0,pre-owned,1150000.0,flat,0,Other,2 bed flat for sale,51.473167,-0.18226,103.0,2,2,1,2021-05-14,1150000.0,1,0,0,Fulham Broadway,1046,10
2287,2287,Hammersmith,2021-05-14,Barnard Marcus - West Kensington,0,"Devonport Road, London W12",0,0,pre-owned,950000.0,maisonette,0,leasehold,3 bed maisonette for sale,51.50506,-0.230833,121.0,3,3,1,2021-05-14,950000.0,0,0,1,Shepherd's Bush (H),356,50
2288,2288,Hammersmith,2021-05-13,Savills - Bishops Park,0,"Kenyon Street, London SW6",0,0,pre-owned,1750000.0,terraced,0,freehold,3 bed terraced house for sale,51.47886,-0.219217,174.0,3,3,1,2021-05-13,1750000.0,0,0,1,Upminster,1103,3
2289,2289,Hammersmith,2021-05-13,Knight Frank - Fulham Sales,0,"Querrin Street, Fulham SW6",0,0,pre-owned,1400000.0,terraced,0,Other,4 bed terraced house for sale,51.47022,-0.186282,143.0,4,4,1,2021-05-13,1400000.0,1,0,1,Chesham,1128,15
2290,2290,Hammersmith,2021-05-13,JLL - Kensington,1,"Beadon Road, London W6",0,0,new,1700000.0,flat,0,freehold,3 bed flat for sale,51.494201,-0.227493,117.0,3,2,1,2021-05-13,1700000.0,1,0,1,Hammersmith,194,44
2291,2291,Hammersmith,2021-05-12,The Modern House,0,"Bovingdon Road, London SW6",0,0,pre-owned,3150000.0,terraced,0,freehold,4 bed terraced house for sale,51.474725,-0.190521,245.0,4,3,0,2021-05-12,3150000.0,1,0,1,Chesham,691,23
2292,2292,Hammersmith,2021-05-12,Chestertons - Munster Road Sales,0,"Wardo Avenue, Fulham, London SW6",0,0,pre-owned,895000.0,maisonette,0,share_of_freehold,3 bed maisonette for sale,51.476427,-0.214128,111.0,3,2,1,2021-05-12,900000.0,1,0,0,Putney Bridge,796,6
2293,2293,Hammersmith,2021-05-12,Aspire - Fulham South,0,"Ferryman's Quay, Fulham, London SW6",0,0,pre-owned,1100000.0,flat,0,leasehold,3 bed flat for sale,51.469764,-0.183134,96.0,3,2,1,2021-05-12,1100000.0,1,1,0,Chesham,1318,8
2294,2294,Hammersmith,2021-05-11,Winkworth - Hammersmith,0,"Hammersmith Grove, Brackenbury Village, London W6",0,0,pre-owned,685000.0,flat,0,leasehold,2 bed flat for sale,51.496409,-0.227235,59.0,2,1,1,2021-05-11,685000.0,0,0,0,Hammersmith,298,38
2295,2295,Hammersmith,2021-05-11,"James Pendleton, Wandsworth Town and Tonsleys Office",0,"Hestercombe Avenue, Fulham, London SW6",0,0,pre-owned,3250000.0,terraced,0,freehold,5 bed terraced house for sale,51.474143,-0.209398,268.0,5,3,1,2021-05-11,3250000.0,0,0,1,Upminster,578,15
2296,2296,Hammersmith,2021-05-11,Chase Apartments,1,"Beadon Road, London W6",0,0,new,900000.0,flat,0,Other,2 bed flat for sale,51.494001,-0.226846,75.0,2,2,1,2021-05-11,900000.0,1,0,0,Hammersmith,128,43
2297,2297,Hammersmith,2021-05-11,Marsh & Parsons - Brook Green,1,"Charleville Road, West Kensington W14",0,0,pre-owned,575000.0,flat,0,leasehold,2 bed flat for sale,51.488714,-0.20731,74.0,2,2,1,2021-05-11,575000.0,0,0,1,West Kensington,224,25
2298,2298,Hammersmith,2021-05-10,"RiverHomes, West London Branch",1,"Queens Wharf, Crisp Road, Hammersmith W6",0,0,pre-owned,1250000.0,flat,0,leasehold,2 bed flat for sale,51.488754,-0.228252,111.0,2,2,1,2021-05-10,1250000.0,1,0,0,Hammersmith,480,39
2299,2299,Hammersmith,2021-05-10,Kerr and Co,0,"Arminger Road, London W12",0,0,pre-owned,699950.0,Other,0,share_of_freehold,2 bed property for sale,51.507661,-0.231657,85.0,2,2,1,2021-05-10,699950.0,1,1,0,Shepherd's Bush (H),401,39
2300,2300,Hammersmith,2021-05-10,Croft International Ltd,1,"Central Avenue, London SW6",0,0,new,1700000.0,flat,0,Other,2 bed flat for sale,51.466682,-0.18627,120.0,2,2,1,2021-05-10,1700000.0,0,1,0,Chesham,1386,11
2301,2301,Hammersmith,2021-05-10,Kerr and Co,1,"Lime Grove, London W12",0,0,pre-owned,475000.0,flat,0,share_of_freehold,2 bed flat for sale,51.502679,-0.22758,52.0,2,1,1,2021-05-10,500000.0,1,1,0,Goldhawk Road,243,69
2302,2302,Hammersmith,2021-05-10,Savills - Shepherds Bush & Brook Green,0,"Kilmarsh Road, London W6",0,0,pre-owned,720000.0,flat,0,leasehold,2 bed flat for sale,51.495652,-0.228302,71.0,2,1,1,2021-05-10,720000.0,0,0,1,Hammersmith,303,40
2303,2303,Hammersmith,2021-05-10,Chestertons - Chiswick,0,"Lancaster House, 47 Beadon Road, London W6",0,0,pre-owned,1700000.0,flat,0,Other,3 bed flat for sale,51.494201,-0.227493,111.0,3,3,1,2021-05-10,1700000.0,1,0,1,Hammersmith,194,44
2304,2304,Hammersmith,2021-05-08,Kerr and Co,1,"Pennard Road, London W12",0,0,pre-owned,475000.0,flat,0,leasehold,1 bed flat for sale,51.504388,-0.225563,59.0,1,1,1,2021-05-08,475000.0,0,1,0,Shepherd's Bush (H),155,72
2305,2305,Hammersmith,2021-05-07,Benham and Reeves - Kensington,0,"Queens Wharf, 2 Crisp Road, London W6",0,0,pre-owned,1549999.0,flat,0,leasehold,2 bed flat for sale,51.488754,-0.228252,97.0,2,2,0,2021-05-07,1549950.0,1,0,1,Hammersmith,480,39
2306,2306,Hammersmith,2021-05-07,Horton and Garton - Hammersmith and Shepherd's Bush,0,"Askew Road, Askew Village, Shepherd's Bush, London W12",0,0,pre-owned,1000000.0,terraced,0,freehold,5 bed terraced house for sale,51.500857,-0.239583,12.0,5,2,2,2021-05-07,1050000.0,1,1,1,Ravenscourt Park,670,20
2307,2307,Hammersmith,2021-05-07,Barnard Marcus - Earl's Court,0,"Anselm Road, London SW6",0,0,pre-owned,1450000.0,Other,0,freehold,5 bed property for sale,51.483701,-0.199412,149.0,5,2,1,2021-05-07,1450000.0,1,0,1,West Brompton,486,54
2308,2308,Hammersmith,2021-05-07,Douglas & Gordon - Fulham,0,"Fulham Road, London SW6",0,0,pre-owned,500000.0,flat,0,leasehold,1 bed flat for sale,51.47646,-0.203917,47.0,1,1,1,2021-05-07,500000.0,0,0,0,Parsons Green,261,30
2309,2309,Hammersmith,2021-05-07,Lucie White & Company,1,"108-112 Hammersmith Grove, London W6",0,0,pre-owned,300000.0,studio,0,leasehold,Studio for sale,51.497276,-0.226927,29.0,0,1,1,2021-05-07,300000.0,1,0,1,Hammersmith,362,37
2310,2310,Hammersmith,2021-05-07,JLL - Kensington,1,"Queens Wharf, London W6",0,0,new,690000.0,flat,0,leasehold,1 bed flat for sale,51.488754,-0.228252,53.0,1,1,1,2021-05-07,690000.0,1,0,0,Hammersmith,480,39
2311,2311,Hammersmith,2021-05-06,Chestertons - New Homes UK,1,London SW6,0,0,new,1700000.0,flat,0,Other,3 bed flat for sale,51.486096,-0.195472,1.0,3,3,1,2021-05-06,1900000.0,0,1,1,West Brompton,233,31
2312,2312,Hammersmith,2021-05-06,Martin & Co - London Riverside,0,"Lensbury Avenue, London SW6",0,0,pre-owned,1300000.0,flat,0,Other,3 bed flat for sale,51.472122,-0.182613,122.0,3,2,1,2021-05-06,1300000.0,1,1,1,Fulham Broadway,1108,9
2313,2313,Hammersmith,2021-05-06,"James Pendleton, Land, New Homes & Investments Office",1,"Greyhound Road, London W6",0,0,new,825000.0,flat,0,leasehold,2 bed flat for sale,51.485162,-0.21827,19.0,2,2,0,2021-05-06,900000.0,0,0,1,Barons Court,668,15
2314,2314,Hammersmith,2021-05-05,Winkworth - Shepherd's Bush & Acton,0,"Percy Road, London W12",0,0,pre-owned,1250000.0,Other,0,freehold,4 bed property for sale,51.504072,-0.239272,163.0,4,1,2,2021-05-05,1250000.0,0,0,1,Ravenscourt Park,952,33
2315,2315,Hammersmith,2021-05-05,Knight Frank - Fulham Sales,0,"Waterford Road, London SW6",0,0,pre-owned,2375000.0,detached,0,Other,5 bed detached house for sale,51.4778,-0.1909,208.0,5,4,1,2021-05-05,2375000.0,0,0,1,Fulham Broadway,419,36
2316,2316,Hammersmith,2021-05-05,Barnard Marcus - Earl's Court,1,"Hannell House, Dawes Road, Munster Village, Fulham, London SW6",0,0,new,800000.0,flat,0,leasehold,2 bed flat for sale,51.481169,-0.21197,78.0,2,2,1,2021-05-05,825000.0,1,1,0,Barons Court,1002,4
2317,2317,Hammersmith,2021-05-05,Barnard Marcus - Earl's Court,1,"Hannell House, Dawes Road, Munster Village, Fulham, London SW6",0,0,new,775000.0,flat,0,leasehold,2 bed flat for sale,51.481169,-0.21197,76.0,2,2,1,2021-05-05,800000.0,1,1,0,Barons Court,1002,4
2318,2318,Hammersmith,2021-05-05,Savills - Shepherds Bush & Brook Green,0,"Digby Mansions, Hammersmith Bridge Road, London W6",0,0,pre-owned,775000.0,flat,0,share_of_freehold,2 bed flat for sale,51.489901,-0.229216,76.0,2,1,1,2021-05-05,775000.0,0,0,1,Hammersmith,460,50
2319,2319,Hammersmith,2021-05-05,Savills - Shepherds Bush & Brook Green,0,"Norfolk House, Sulgrave Road, Hammersmith W6",0,0,pre-owned,500000.0,flat,0,leasehold,1 bed flat for sale,51.49978,-0.226009,52.0,1,0,0,2021-05-05,500000.0,0,0,0,Goldhawk Road,522,41
2320,2320,Hammersmith,2021-05-05,Chestertons - Munster Road Sales,0,"Kilmaine Road, Fulham, London SW6",0,0,pre-owned,1500000.0,terraced,0,freehold,4 bed terraced house for sale,51.479079,-0.209977,150.0,4,2,2,2021-05-05,1575000.0,0,0,1,Parsons Green,705,9
2321,2321,Hammersmith,2021-05-05,Kinleigh Folkard & Hayward - Brook Green Sales,0,"Greyhound Road, London W6",0,0,pre-owned,750000.0,flat,0,Other,2 bed flat for sale,51.486271,-0.212821,92.0,2,2,0,2021-05-05,750000.0,0,0,0,Barons Court,425,11
2322,2322,Hammersmith,2021-05-05,Kinleigh Folkard & Hayward - Brook Green Sales,0,"Sinclair Gardens, London W14",0,0,pre-owned,895000.0,flat,0,Other,2 bed flat for sale,51.502191,-0.216564,111.0,2,1,0,2021-05-05,895000.0,0,0,1,Shepherd's Bush (C),446,42
2323,2323,Hammersmith,2021-05-05,Savills - Waterfront,0,"Lockside House, 3 Thurstan Street, London SW6",0,0,pre-owned,2650000.0,flat,0,leasehold,4 bed flat for sale,51.475094,-0.18587,166.0,4,3,1,2021-05-05,2650000.0,1,1,1,Fulham Broadway,841,26
2324,2324,Hammersmith,2021-05-05,Kinleigh Folkard & Hayward - Fulham Sales,0,"Danehurst Street, London SW6",0,0,pre-owned,800000.0,maisonette,0,Other,2 bed maisonette for sale,51.477534,-0.212457,93.0,2,1,0,2021-05-05,800000.0,1,0,1,Upminster,849,8
2325,2325,Hammersmith,2021-05-05,Kinleigh Folkard & Hayward - Fulham Sales,0,"Munster Road, London SW6",0,0,pre-owned,1250000.0,end_terrace,0,freehold,4 bed end terrace house for sale,51.481206,-0.212631,167.0,4,3,0,2021-05-05,1350000.0,1,0,0,Barons Court,935,6
2326,2326,Hammersmith,2021-05-05,Kinleigh Folkard & Hayward - Fulham Sales,0,"Munster Mews, Lillie Road, London SW6",0,0,pre-owned,600000.0,flat,0,Other,2 bed flat for sale,51.481887,-0.213684,84.0,2,2,0,2021-05-05,600000.0,0,0,0,Barons Court,865,6
2327,2327,Hammersmith,2021-05-05,Kinleigh Folkard & Hayward - Fulham Sales,1,"Filmer Road, London SW6",0,0,pre-owned,350000.0,studio,0,Other,Studio for sale,51.479768,-0.207373,35.0,0,1,0,2021-05-05,350000.0,0,0,0,Parsons Green,626,11
2328,2328,Hammersmith,2021-05-05,Kinleigh Folkard & Hayward - Fulham and Chelsea Sales,0,"Delaford Street, London SW6",0,0,pre-owned,515000.0,flat,0,Other,2 bed flat for sale,51.482796,-0.208392,83.0,2,1,0,2021-05-05,575000.0,0,0,0,Upminster,898,22
2329,2329,Hammersmith,2021-05-04,Jorgensen Turner,1,"Keith Grove, Shepherds Bush, London W12",0,0,pre-owned,375000.0,flat,0,leasehold,2 bed flat for sale,51.506259,-0.239432,49.0,2,0,0,2021-05-04,385000.0,1,0,0,Upminster,726,24
2330,2330,Hammersmith,2021-05-04,Winkworth - Shepherd's Bush & Acton,1,"Lanark Mansions, Pennard Road, London W12",0,0,pre-owned,675000.0,flat,0,leasehold,2 bed flat for sale,51.503054,-0.224859,70.0,2,2,1,2021-05-04,675000.0,0,0,0,Goldhawk Road,228,72
2331,2331,Hammersmith,2021-05-04,Aston Rowe,1,"Elgin Avenue, London W12",0,0,pre-owned,475000.0,flat,0,leasehold,2 bed flat for sale,51.501368,-0.236906,71.0,2,1,1,2021-05-04,500000.0,0,1,1,Upminster,600,23
2332,2332,Hammersmith,2021-05-04,Marsh & Parsons - Fulham,0,"Wandsworth Bridge Road, London SW6",0,0,pre-owned,1200000.0,maisonette,0,share_of_freehold,3 bed maisonette for sale,51.468691,-0.191091,37.0,3,3,2,2021-05-04,1200000.0,0,1,1,Parsons Green,1020,10
2333,2333,Hammersmith,2021-05-04,Finlay Brewer,0,"Cromwell Grove, London W6",0,0,pre-owned,895000.0,flat,0,Other,3 bed flat for sale,51.500564,-0.222886,97.0,3,1,1,2021-05-04,895000.0,1,0,0,Goldhawk Road,552,42
2334,2334,Hammersmith,2021-05-04,Brik,1,"Parkville Road, London SW6",0,0,pre-owned,1495000.0,terraced,0,Other,4 bed terraced house for sale,51.480365,-0.206357,148.0,4,0,0,2021-05-04,1550000.0,1,0,1,Parsons Green,551,14
2335,2335,Hammersmith,2021-05-04,Aston Rowe,0,"Poplar Grove, London W6",0,0,pre-owned,850000.0,flat,0,share_of_freehold,2 bed flat for sale,51.501396,-0.224693,106.0,2,2,1,2021-05-04,900000.0,0,0,0,Upminster,556,51
2336,2336,Hammersmith,2021-05-03,Magben,1,"White City Close, Off Wood Lane, London W12",0,0,pre-owned,825000.0,town_house,0,freehold,4 bed town house for sale,51.511445,-0.22668,102.0,4,2,1,2021-05-03,825000.0,0,0,1,White City,152,14
2337,2337,Hammersmith,2021-05-03,Barnard Marcus - Earl's Court,0,"Beaumont Crescent, London W14",0,0,pre-owned,465000.0,flat,0,leasehold,1 bed flat for sale,51.489234,-0.204841,46.0,1,1,1,2021-05-03,465000.0,0,0,0,West Kensington,190,26
2338,2338,Hammersmith,2021-05-01,Benham and Reeves - Kensington,0,"Faulkner House, Tierney Lane, London W6",0,0,pre-owned,1270000.0,flat,0,leasehold,2 bed flat for sale,51.487032,-0.226201,108.0,2,2,1,2021-05-01,1300000.0,1,0,1,Hammersmith,652,27
2339,2339,Hammersmith,2021-05-01,Benham and Reeves - Kensington,0,"Faulkner House, Tierney Lane, Fulham Reach, London W6",0,0,pre-owned,1290000.0,flat,0,leasehold,2 bed flat for sale,51.487032,-0.226201,108.0,2,2,0,2021-05-01,1340000.0,1,0,1,Hammersmith,652,27
2340,2340,Hammersmith,2021-04-30,Regent Letting & Property Management Ltd,1,"Albion Court, Albion Place W6",0,0,new,565000.0,flat,0,leasehold,1 bed flat for sale,51.493263,-0.232125,38.0,1,1,1,2021-04-30,585000.0,0,0,0,Ravenscourt Park,312,35
2341,2341,Hammersmith,2021-04-30,Property Inside London,0,"Firthville Gardens, London W12",0,0,pre-owned,2200000.0,semi_detached,0,freehold,4 bed semi-detached house for sale,51.508454,-0.227502,217.0,4,3,1,2021-04-30,2200000.0,0,1,1,Shepherd's Bush (H),269,51
2342,2342,Hammersmith,2021-04-30,Brik,0,"Whittingstall Road, London SW6",0,0,pre-owned,1665000.0,terraced,0,Other,3 bed terraced house for sale,51.47459,-0.203223,142.0,3,2,1,2021-04-30,1665000.0,1,1,1,Parsons Green,178,21
2343,2343,Hammersmith,2021-04-30,Knight Frank - Fulham Sales,0,"Chesilton Road, Fulham SW6",0,0,pre-owned,2600000.0,terraced,0,Other,5 bed terraced house for sale,51.47738,-0.208283,230.0,5,3,3,2021-04-30,2600000.0,0,0,1,Parsons Green,586,9
2344,2344,Hammersmith,2021-04-30,Knight Frank - Fulham Sales,0,"Fulham Palace Road, Fulham SW6",0,0,pre-owned,699995.0,flat,0,leasehold,2 bed flat for sale,51.475549,-0.214525,74.0,2,1,1,2021-04-30,699995.0,1,0,0,Putney Bridge,704,5
2345,2345,Hammersmith,2021-04-30,Lawson Rutter,0,"Marley House, Greyhound Road, London W6",0,0,pre-owned,849950.0,flat,0,Other,2 bed flat for sale,51.485268,-0.21842,87.0,2,2,1,2021-04-30,925000.0,1,0,0,Barons Court,673,15
2346,2346,Hammersmith,2021-04-30,Dexters - Fulham,0,"Burnthwaite Road, London SW6",0,0,pre-owned,575000.0,flat,0,Other,2 bed flat for sale,51.474724,-0.206382,68.0,2,1,1,2021-04-30,695000.0,0,0,0,Parsons Green,402,21
2347,2347,Hammersmith,2021-04-30,Pioneer Property Group,1,"Distillery Wharf, Parrs Wy, Hammersmith London W6",0,0,new,980000.0,flat,0,leasehold,2 bed flat for sale,51.487277,-0.226365,62.0,2,2,1,2021-04-30,980000.0,0,0,0,Hammersmith,649,29
2348,2348,Hammersmith,2021-04-30,Pioneer Property Group,1,"Distillery Wharf, Parrs Wy, Hammersmith London W6",0,0,new,774000.0,flat,0,leasehold,1 bed flat for sale,51.487277,-0.226365,51.0,1,1,1,2021-04-30,774000.0,0,0,0,Hammersmith,649,29
2349,2349,Hammersmith,2021-04-29,Agent & Homes,0,"Oxford House, 70-72 Hammersmith Bridge Road, London W6",0,0,pre-owned,698000.0,flat,0,leasehold,2 bed flat for sale,51.490295,-0.228524,71.0,2,2,1,2021-04-29,700000.0,1,0,0,Hammersmith,382,47
2350,2350,Hammersmith,2021-04-29,Kerr and Co,0,"Devonport Road, London W12",0,0,pre-owned,600000.0,Other,0,share_of_freehold,3 bed property for sale,51.503454,-0.230842,94.0,3,1,1,2021-04-29,600000.0,1,1,0,Goldhawk Road,331,51
2351,2351,Hammersmith,2021-04-29,Savills - Fulham,0,"Radipole Road, Parsons Green, Fulham, London SW6",0,0,pre-owned,2300000.0,terraced,0,freehold,6 bed terraced house for sale,51.477135,-0.205733,236.0,6,3,2,2021-04-29,2500000.0,1,0,1,Parsons Green,404,22
2352,2352,Hammersmith,2021-04-29,Knight Frank - Battersea and Riverside Sales,0,"Townmead Road, London SW6",0,0,pre-owned,530000.0,flat,0,Other,1 bed flat for sale,51.473911,-0.183128,56.0,1,1,1,2021-04-29,530000.0,1,1,1,Fulham Broadway,967,12
2353,2353,Hammersmith,2021-04-29,Dexters - Fulham,0,"Clem Attlee Court, London SW6",0,0,pre-owned,435000.0,flat,0,leasehold,2 bed flat for sale,51.483831,-0.205256,65.0,2,1,1,2021-04-29,465000.0,0,0,0,West Kensington,693,39
2354,2354,Hammersmith,2021-04-29,Chatterton Rees,0,"New Kings Road, London SW6",0,0,pre-owned,1250000.0,Other,0,Other,5 bed property for sale,51.470417,-0.207718,200.0,5,4,2,2021-04-29,1250000.0,1,0,1,Putney Bridge,198,19
2355,2355,Hammersmith,2021-04-29,Knight Frank - Fulham Sales,0,"Dancer Road, Fulham SW6",0,0,pre-owned,495000.0,flat,0,Other,1 bed flat for sale,51.474524,-0.206156,44.0,1,1,1,2021-04-29,495000.0,0,0,0,Parsons Green,380,21
2356,2356,Hammersmith,2021-04-29,Northfields - Shepherds Bush,0,"Starfield Road, London W12",0,0,pre-owned,1000000.0,terraced,0,leasehold,3 bed terraced house for sale,51.502878,-0.241143,111.0,3,1,1,2021-04-29,1050000.0,1,0,1,Upminster,889,28
2357,2357,Hammersmith,2021-04-29,Horton and Garton - Hammersmith and Shepherd's Bush,0,"Melina Road, Cathnor Park, Shepherd's Bush, London W12",0,0,pre-owned,775000.0,flat,0,leasehold,3 bed flat for sale,51.503135,-0.236181,10.0,3,1,2,2021-04-29,800000.0,0,0,1,Upminster,624,40
2358,2358,Hammersmith,2021-04-28,Barnard Marcus - West Kensington,0,"Shepherds Bush Green, London W12",0,0,pre-owned,600000.0,flat,0,leasehold,2 bed flat for sale,51.503022,-0.222756,84.0,2,1,2,2021-04-28,650000.0,0,0,1,Goldhawk Road,320,64
2359,2359,Hammersmith,2021-04-28,Maskells,0,"Crabtree Lane, Fulham, London SW6",0,0,pre-owned,995000.0,block_of_flats,0,Other,2 bed block of flats for sale,51.481464,-0.222969,116.0,2,2,2,2021-04-28,995000.0,0,0,0,Hammersmith,1161,5
2360,2360,Hammersmith,2021-04-28,Knight Frank - Fulham Sales,0,"Mimosa Street, Fulham SW6",0,0,pre-owned,1700000.0,terraced,0,Other,4 bed terraced house for sale,51.474982,-0.204925,164.0,4,2,1,2021-04-28,1800000.0,1,0,1,Parsons Green,295,21
2361,2361,Hammersmith,2021-04-28,Kerr and Co,0,"Brackenbury Gardens, London W6",0,0,pre-owned,460000.0,flat,0,share_of_freehold,1 bed flat for sale,51.500588,-0.231893,46.0,1,1,1,2021-04-28,460000.0,1,1,0,Goldhawk Road,412,26
2362,2362,Hammersmith,2021-04-28,Benham and Reeves - Kensington,0,"Brunswick House, Parr's Way, Fulham Reach, London W6",0,0,pre-owned,1190000.0,flat,0,leasehold,2 bed flat for sale,51.487484,-0.225766,99.0,2,2,1,2021-04-28,1190000.0,1,0,0,Hammersmith,611,28
2363,2363,Hammersmith,2021-04-28,Orchards of London,0,"Hemlock Road, Shepherds Bush, London W12",0,0,pre-owned,1050000.0,semi_detached,0,leasehold,6 bed semi-detached house for sale,51.51333,-0.243815,177.0,6,4,1,2021-04-28,1050000.0,1,1,1,East Acton,887,0
2364,2364,Hammersmith,2021-04-27,Winkworth - Shepherd's Bush & Acton,1,"Abdale Road, London W12",0,0,pre-owned,1100000.0,terraced,0,freehold,3 bed terraced house for sale,51.507599,-0.22987,126.0,3,1,1,2021-04-27,1150000.0,1,0,1,Shepherd's Bush (H),308,42
2365,2365,Hammersmith,2021-04-27,Savills - Fulham,0,"Peterborough Road, South Park, Fulham, London SW6",0,0,pre-owned,1700000.0,maisonette,0,share_of_freehold,3 bed maisonette for sale,51.468137,-0.195461,161.0,3,3,2,2021-04-27,1700000.0,0,0,1,Parsons Green,692,11
2366,2366,Hammersmith,2021-04-27,Kerr and Co,0,"Jeddo Mews, Jeddo Road, London W12",0,0,pre-owned,565000.0,flat,0,share_of_freehold,2 bed flat for sale,51.504175,-0.249553,66.0,2,1,1,2021-04-27,565000.0,0,1,1,Stamford Brook,894,18
2367,2367,Hammersmith,2021-04-27,Knight Frank - Fulham Sales,0,"New Kings Road, Fulham SW6",0,0,pre-owned,775000.0,flat,0,Other,3 bed flat for sale,51.472382,-0.202707,85.0,3,2,1,2021-04-27,800000.0,1,0,0,Parsons Green,350,20
2368,2368,Hammersmith,2021-04-26,Lawson Rutter,0,"Lanfrey Place, West Kensington, London W14",0,0,pre-owned,1150000.0,Other,0,freehold,4 bed property for sale,51.488388,-0.205378,135.0,4,3,1,2021-04-26,1150000.0,1,0,1,West Kensington,249,26
2369,2369,Hammersmith,2021-04-26,Kerr and Co,0,"Nascot Street, London W12",0,0,pre-owned,390000.0,flat,0,leasehold,1 bed flat for sale,51.517062,-0.226979,38.0,1,1,1,2021-04-26,390000.0,0,1,0,White City,466,3
2370,2370,Hammersmith,2021-04-26,"Doorsteps.co.uk, National",0,"Riverside Gardens, London W6",0,0,pre-owned,450000.0,flat,0,Other,2 bed flat for sale,51.491585,-0.233487,49.0,2,1,1,2021-04-26,460000.0,0,1,0,Ravenscourt Park,307,28
2371,2371,Hammersmith,2021-04-26,Kerr and Co,0,"Godolphin Road, London W12",0,0,pre-owned,1475000.0,terraced,0,freehold,4 bed terraced house for sale,51.504779,-0.232548,231.0,4,2,2,2021-04-26,1495000.0,1,1,1,Shepherd's Bush (H),481,41
2372,2372,Hammersmith,2021-04-26,London Property Zone,1,"Beadon Road, Hammersmith W6",0,0,new,749950.0,flat,0,leasehold,1 bed flat for sale,51.494201,-0.227493,62.0,1,1,0,2021-04-26,750000.0,1,0,1,Hammersmith,194,44
2373,2373,Hammersmith,2021-04-24,Pioneer Property Group,1,"Distillery Wharf, Parrs Wy, Hammersmith London W6",0,0,new,980000.0,flat,0,leasehold,2 bed flat for sale,51.487277,-0.226365,62.0,2,2,1,2021-04-24,980000.0,0,0,0,Hammersmith,649,29
2374,2374,Hammersmith,2021-04-24,John D Wood & Co. - Fulham Broadway Sales,0,"Wyfold Road, Fulham, London SW6",0,0,pre-owned,450000.0,Other,0,leasehold,2 bed property for sale,51.478562,-0.213171,62.0,2,1,1,2021-04-24,530000.0,0,0,0,Putney Bridge,1157,8
2375,2375,Hammersmith,2021-04-24,Pioneer Property Group,1,"Distillery Wharf, Parrs Wy, Hammersmith London W6",0,0,new,775000.0,flat,0,leasehold,1 bed flat for sale,51.487277,-0.226365,51.0,1,1,1,2021-04-24,775000.0,0,0,0,Hammersmith,649,29
2376,2376,Hammersmith,2021-04-23,Winkworth - Hammersmith,0,"Holkham House, Sulgrave Road, Brook Green, London W6",0,0,pre-owned,500000.0,flat,0,leasehold,1 bed flat for sale,51.500222,-0.226093,52.0,1,1,1,2021-04-23,525000.0,0,0,1,Goldhawk Road,557,41
2377,2377,Hammersmith,2021-04-23,Savills - Bishops Park,0,"Kings Court Mansions, 721 Fulham Road, London SW6",0,0,pre-owned,755000.0,flat,0,leasehold,2 bed flat for sale,51.476965,-0.20227,79.0,2,1,1,2021-04-23,765000.0,0,0,0,Parsons Green,223,37
2378,2378,Hammersmith,2021-04-23,Savills - Shepherds Bush & Brook Green,0,"Overstone Road, London W6",0,0,pre-owned,700000.0,flat,0,share_of_freehold,2 bed flat for sale,51.496337,-0.227814,70.0,2,2,1,2021-04-23,700000.0,0,0,1,Hammersmith,327,41
2379,2379,Hammersmith,2021-04-23,Chestertons - Munster Road Sales,0,"Fabian Road, Fulham, London SW6",0,0,pre-owned,1400000.0,terraced,0,freehold,4 bed terraced house for sale,51.481525,-0.20353,164.0,4,2,1,2021-04-23,1500000.0,1,0,1,Parsons Green,652,35
2380,2380,Hammersmith,2021-04-23,Latymers,0,"Latymer Court, Hammersmith Road, London W6",0,0,pre-owned,820000.0,flat,0,share_of_freehold,4 bed flat for sale,51.493423,-0.217898,116.0,4,2,2,2021-04-23,850000.0,0,1,0,Upminster,386,31
2381,2381,Hammersmith,2021-04-23,Maskells,0,"Musard Road, Barons Court W6",0,0,pre-owned,600000.0,flat,0,Other,2 bed flat for sale,51.485256,-0.210755,71.0,2,2,2,2021-04-23,600000.0,0,0,1,Barons Court,590,11
2382,2382,Hammersmith,2021-04-23,Knight Frank - Fulham Sales,0,"Parsons Green Lane, Fulham SW6",0,0,pre-owned,2300000.0,Other,0,Other,5 bed property for sale,51.4765,-0.2014,225.0,5,3,2,2021-04-23,2300000.0,0,0,1,Parsons Green,122,39
2383,2383,Hammersmith,2021-04-23,Savills - Bishops Park,1,"Distillery Wharf, London W6",0,0,new,1225000.0,flat,0,leasehold,2 bed flat for sale,51.487557,-0.226412,87.0,2,2,1,2021-04-23,1225000.0,1,1,0,Hammersmith,590,29
2384,2384,Hammersmith,2021-04-23,Chestertons - Munster Road Sales,1,"Mackenzie House, 363 Lillie Road, London SW6",0,0,new,650000.0,flat,0,leasehold,2 bed flat for sale,51.483112,-0.216142,64.0,2,1,1,2021-04-23,650000.0,1,0,0,Barons Court,776,9
2385,2385,Hammersmith,2021-04-22,Latymers,0,"Hammersmith Road, Hammersmith W6",0,0,pre-owned,500000.0,flat,0,share_of_freehold,2 bed flat for sale,51.493613,-0.217326,64.0,2,1,1,2021-04-22,525000.0,0,1,0,Upminster,454,29
2386,2386,Hammersmith,2021-04-22,Winkworth - Shepherd's Bush & Acton,1,"Godolphin Road, London W12",0,0,pre-owned,1375000.0,Other,0,freehold,5 bed property for sale,51.505275,-0.233159,186.0,5,2,1,2021-04-22,1500000.0,0,0,1,Shepherd's Bush (H),509,38
2387,2387,Hammersmith,2021-04-22,Savills - Fulham,0,"Broomhouse Road, Parsons Green, London SW6",0,0,pre-owned,2100000.0,end_terrace,0,freehold,5 bed end terrace house for sale,51.471637,-0.200838,181.0,5,3,1,2021-04-22,2200000.0,1,0,1,Parsons Green,326,18
2388,2388,Hammersmith,2021-04-22,Knight Frank - Battersea and Riverside Sales,0,"Thurstan Street, Chelsea Creek, London SW6",0,0,pre-owned,700000.0,flat,0,Other,1 bed flat for sale,51.4749,-0.18566,59.0,1,1,1,2021-04-22,700000.0,0,1,1,Fulham Broadway,833,26
2389,2389,Hammersmith,2021-04-22,Hamptons - Parsons Green & Fulham Sales,1,"Lillie Road, London SW6",0,0,new,475000.0,flat,0,leasehold,1 bed flat for sale,51.484696,-0.203377,38.0,1,1,1,2021-04-22,475000.0,1,1,0,Chesham,534,42
2390,2390,Hammersmith,2021-04-22,London Private Listings,0,"Watermans Quay, Fulham SW6",0,0,pre-owned,925000.0,flat,0,share_of_freehold,2 bed flat for sale,51.469125,-0.183731,91.0,2,2,1,2021-04-22,925000.0,0,1,1,Chesham,1348,10
2391,2391,Hammersmith,2021-04-22,Churchill & Mathesons â€“ Acton,1,"Fitzneal Street, London W12",0,0,pre-owned,625000.0,terraced,0,leasehold,3 bed terraced house for sale,51.515815,-0.24724,9.0,3,1,2,2021-04-22,650000.0,1,0,1,East Acton,449,0
2392,2392,Hammersmith,2021-04-22,Finlay Brewer,0,"Melrose Gardens, Brook Green, London W6",0,0,pre-owned,2350000.0,Other,0,Other,5 bed property for sale,51.500026,-0.222957,223.0,5,3,1,2021-04-22,2350000.0,1,0,1,Goldhawk Road,601,40
2393,2393,Hammersmith,2021-04-22,Sandersons London,1,"Faulkner House, London W6",0,0,new,950000.0,flat,0,leasehold,1 bed flat for sale,51.487032,-0.226201,58.0,1,1,1,2021-04-22,950000.0,1,0,0,Hammersmith,652,27
2394,2394,Hammersmith,2021-04-22,Kerr and Co,1,"Sun Quarter, Askew Road, Shepherd's Bush W12",0,0,pre-owned,499950.0,flat,0,leasehold,2 bed flat for sale,51.502559,-0.243126,60.0,2,2,1,2021-04-22,520000.0,0,0,0,Stamford Brook,863,23
2395,2395,Hammersmith,2021-04-21,Brik,0,"London House, 100 New Kings Road SW6",0,0,pre-owned,1100000.0,flat,0,Other,2 bed flat for sale,51.472278,-0.203539,96.0,2,2,1,2021-04-21,1100000.0,0,0,0,Parsons Green,406,28
2396,2396,Hammersmith,2021-04-21,Barnard Marcus - West Kensington,1,"Old Oak Road, London W3",0,0,pre-owned,800000.0,semi_detached,0,freehold,3 bed semi-detached house for sale,51.51274,-0.247642,118.0,3,1,2,2021-04-21,835000.0,0,1,1,East Acton,671,0
2397,2397,Hammersmith,2021-04-21,Finlay Brewer,0,"Beauclerc Road, Brackenbury Village, London W6",0,0,pre-owned,2495000.0,terraced,0,Other,6 bed terraced house for sale,51.499683,-0.22959,241.0,6,3,1,2021-04-21,2495000.0,0,0,1,Goldhawk Road,340,32
2398,2398,Hammersmith,2021-04-21,Lawson Rutter,1,"Gwendwr Road, West Kensington, London W14",0,0,pre-owned,700000.0,flat,0,freehold,2 bed flat for sale,51.49124,-0.210178,77.0,2,2,1,2021-04-21,750000.0,0,0,1,West Kensington,223,22
2399,2399,Hammersmith,2021-04-21,Vesta Property,0,"Ancill Close, London W6",0,0,pre-owned,675000.0,terraced,0,freehold,5 bed terraced house for sale,51.483884,-0.215464,110.0,5,2,0,2021-04-21,735000.0,0,0,1,Barons Court,698,11
2400,2400,Hammersmith,2021-04-21,Amber & Co Ltd,0,"Oaklands Grove, Shepherds Bush W12",0,0,pre-owned,799950.0,maisonette,0,freehold,3 bed maisonette for sale,51.507484,-0.236517,124.0,3,1,1,2021-04-21,825000.0,0,0,0,Shepherd's Bush (H),604,28
2401,2401,Hammersmith,2021-04-21,Amber & Co Ltd,0,"William Gattie House, Fulham SW6",0,0,pre-owned,599950.0,flat,0,leasehold,2 bed flat for sale,51.485262,-0.203158,71.0,2,1,1,2021-04-21,599950.0,1,0,0,Chesham,432,40
2402,2402,Hammersmith,2021-04-20,Latymers,0,"Hammersmith Road, Hammersmith W6",0,0,pre-owned,799950.0,flat,0,share_of_freehold,3 bed flat for sale,51.493654,-0.217541,82.0,3,2,1,2021-04-20,799950.0,0,1,0,Upminster,483,30
2403,2403,Hammersmith,2021-04-20,Champions,0,"Cromwell Grove, London W6",0,0,pre-owned,750000.0,flat,0,share_of_freehold,2 bed flat for sale,51.500805,-0.223606,107.0,2,1,0,2021-04-20,795000.0,0,0,1,Upminster,580,42
2404,2404,Hammersmith,2021-04-20,Barnard Marcus - Earl's Court,0,"Farm Lane, London SW6",0,0,pre-owned,625000.0,flat,0,leasehold,2 bed flat for sale,51.482274,-0.195508,67.0,2,2,1,2021-04-20,650000.0,0,1,1,Chesham,539,49
2405,2405,Hammersmith,2021-04-20,Horton and Garton - Hammersmith and Shepherd's Bush,1,"Hopgood Street, Shepherd's Bush, London W12",0,0,pre-owned,400000.0,flat,0,share_of_freehold,1 bed flat for sale,51.505644,-0.225479,4.0,1,1,1,2021-04-20,475000.0,0,0,1,Shepherd's Bush (H),101,71
2406,2406,Hammersmith,2021-04-19,Finlay Brewer,0,"Melrose Gardens, Brook Green, London W6",0,0,pre-owned,2500000.0,Other,0,Other,6 bed property for sale,51.500167,-0.224396,232.0,6,2,1,2021-04-19,2595000.0,1,0,1,Upminster,664,40
2407,2407,Hammersmith,2021-04-19,Aspire - Fulham South,0,"Townmead Road, Fulham, London SW6",0,0,pre-owned,1350000.0,Other,0,Other,5 bed property for sale,51.47008,-0.18546,177.0,5,3,1,2021-04-19,1350000.0,0,0,1,Chesham,1157,15
2408,2408,Hammersmith,2021-04-17,Knight Frank - Fulham Sales,0,"Rainsborough Square, London SW6",0,0,pre-owned,3590000.0,terraced,0,Other,4 bed terraced house for sale,51.483344,-0.197105,236.0,4,3,1,2021-04-17,3750000.0,0,1,1,Chesham,514,55
2409,2409,Hammersmith,2021-04-17,Horton and Garton - Hammersmith and Shepherd's Bush,1,"Westcroft Square, Ravenscourt Park, Hammersmith, London W6",0,0,pre-owned,425000.0,flat,0,leasehold,1 bed flat for sale,51.494121,-0.243112,4.0,1,1,1,2021-04-17,425000.0,0,1,1,Stamford Brook,381,16
2410,2410,Hammersmith,2021-04-16,Winkworth - Shepherd's Bush & Acton,0,"Clematis Street, London W12",0,0,pre-owned,725000.0,terraced,0,freehold,4 bed terraced house for sale,51.512568,-0.242792,94.0,4,2,2,2021-04-16,725000.0,0,0,1,East Acton,963,0
2411,2411,Hammersmith,2021-04-16,Winkworth - Shepherd's Bush & Acton,1,"Adelaide Grove, Shepherds Bush, London W12",0,0,pre-owned,685000.0,maisonette,0,leasehold,2 bed maisonette for sale,51.508815,-0.237763,67.0,2,1,1,2021-04-16,685000.0,1,0,0,Shepherd's Bush (H),742,24
2412,2412,Hammersmith,2021-04-16,Harding Green,0,"Poplar Grove, London W6",0,0,pre-owned,3200000.0,terraced,0,freehold,6 bed terraced house for sale,51.501408,-0.223924,299.0,6,4,3,2021-04-16,3200000.0,1,0,1,Upminster,545,49
2413,2413,Hammersmith,2021-04-16,Century 21 Prestige,0,"Hemlock Road, London W12",0,0,pre-owned,1050000.0,end_terrace,0,freehold,5 bed end terrace house for sale,51.51305,-0.244068,177.0,5,0,0,2021-04-16,1050000.0,1,1,1,East Acton,862,0
2414,2414,Hammersmith,2021-04-16,Northfields - Shepherds Bush,0,"Davis Road, London W3",0,0,pre-owned,750000.0,flat,0,leasehold,3 bed flat for sale,51.505793,-0.246665,101.0,3,2,1,2021-04-16,750000.0,0,0,0,Stamford Brook,1172,14
2415,2415,Hammersmith,2021-04-16,Yopa,1,"Lillie Road, London SW6",0,0,pre-owned,400000.0,flat,0,leasehold,1 bed flat for sale,51.483822,-0.208452,46.0,1,1,1,2021-04-16,425000.0,0,1,1,West Kensington,820,23
2416,2416,Hammersmith,2021-04-15,Horton and Garton - Hammersmith and Shepherd's Bush,0,"Hamlet Gardens, Ravenscourt Park, Hammersmith, London W6",0,0,pre-owned,635000.0,flat,0,share_of_freehold,2 bed flat for sale,51.494628,-0.240932,7.0,2,1,1,2021-04-15,650000.0,0,0,1,Upminster,355,21
2417,2417,Hammersmith,2021-04-15,Horton and Garton - Hammersmith and Shepherd's Bush,1,"Brackenbury Road, Brackenbury Village, London W6",0,0,pre-owned,400000.0,flat,0,leasehold,1 bed flat for sale,51.499839,-0.232274,5.0,1,1,1,2021-04-15,425000.0,0,0,0,Goldhawk Road,438,24
