,index,Borough,date_listed,agency_name,chain_free,address,isRetirementHome,isSharedOwnership,listingCondition,price,propertyType,isAuction,tenure,title,latitude,longitude,floor_area_msq,numBedrooms,numBathrooms,numLivingRooms,firstPublishedDate,firstPublishedPrice,balcony_terrace,parking,garden,closest_station_name,closest_station_distance_sec,pub_restaurant
17000,17000,Newham,2021-07-02,LiFE Residential - Royal Wharf,0,"John Cabot House, 4 Clipper Street E16",0,0,pre-owned,600000.0,flat,0,leasehold,2 bed flat for sale,51.50004,0.025666,74.0,2,2,1,2021-07-02,600000.0,1,0,0,Chesham,1104,2
17001,17001,Newham,2021-07-02,Bellway - Beckton Parkside,1,"Newham Way, Beckton, London E6",0,0,new,391995.0,flat,0,leasehold,2 bed flat for sale,51.519412,0.047194,70.0,2,2,0,2021-07-02,391995.0,1,1,1,Royal Albert,1065,0
17002,17002,Newham,2021-07-02,Bellway - Beckton Parkside,1,"Newham Way, Beckton, London E6",0,0,new,315995.0,flat,0,leasehold,1 bed flat for sale,51.519412,0.047194,64.0,1,1,0,2021-07-02,315995.0,1,1,1,Royal Albert,1065,0
17003,17003,Newham,2021-07-02,Bellway - Beckton Parkside,1,"Newham Way, Beckton, London E6",0,0,new,303995.0,flat,0,leasehold,1 bed flat for sale,51.519412,0.047194,59.0,1,1,0,2021-07-02,303995.0,1,1,1,Royal Albert,1065,0
17004,17004,Newham,2021-07-02,Bellway - Beckton Parkside,1,"Newham Way, Beckton, London E6",0,0,new,288995.0,flat,0,leasehold,1 bed flat for sale,51.519412,0.047194,54.0,1,1,0,2021-07-02,288995.0,1,1,1,Royal Albert,1065,0
17005,17005,Newham,2021-07-02,Bellway - Beckton Parkside,1,"Newham Way, Beckton, London E6",0,0,new,270995.0,studio,0,leasehold,Studio for sale,51.519412,0.047194,49.0,0,1,0,2021-07-02,270995.0,1,1,1,Royal Albert,1065,0
17006,17006,Newham,2021-07-02,MAK Property Services,0,"Durham Road, Manor Park E12",0,0,pre-owned,649999.0,terraced,0,freehold,4 bed terraced house for sale,51.551136,0.042675,84.0,4,1,2,2021-07-02,649999.0,1,1,0,East Ham,1176,7
17007,17007,Newham,2021-07-02,Goldstone Letting and Management LTD,1,"Royal Eden Docks, 12 Western Gateway, Royal Dock E16",0,0,new,660000.0,flat,0,leasehold,2 bed flat for sale,51.508408,0.022145,73.0,2,2,1,2021-07-02,660000.0,0,0,1,Royal Victoria,274,14
17008,17008,Newham,2021-07-01,Keatons - Stratford,0,"Church Street, Stratford, London E15",0,0,pre-owned,350000.0,flat,0,leasehold,1 bed flat for sale,51.535868,0.010817,46.0,1,1,1,2021-07-01,350000.0,1,0,0,Plaistow,807,16
17009,17009,Newham,2021-07-01,Keatons - Stratford,0,"Church Street, Stratford, London E15",0,0,pre-owned,520000.0,flat,0,leasehold,3 bed flat for sale,51.535868,0.010817,74.0,3,2,1,2021-07-01,520000.0,1,0,0,Plaistow,807,16
17010,17010,Newham,2021-07-01,Outlook Property - Stratford,0,"Flint Close, Stratford, London E15",0,0,pre-owned,450000.0,flat,0,leasehold,2 bed flat for sale,51.541694,0.011029,84.0,2,0,1,2021-07-01,450000.0,1,0,0,Chesham,1386,18
17011,17011,Newham,2021-07-01,JLL - Stratford,0,"Alden Avenue, London E15",0,0,pre-owned,830000.0,semi_detached,0,freehold,5 bed semi-detached house for sale,51.524439,0.009765,133.0,5,2,1,2021-07-01,830000.0,1,0,1,West Ham,714,3
17012,17012,Newham,2021-06-30,Mercier Gray,0,"Western Gateway, London E16",0,0,pre-owned,745000.0,flat,0,leasehold,3 bed flat for sale,51.508573,0.022268,104.0,3,3,1,2021-06-30,745000.0,1,0,0,Royal Victoria,288,14
17013,17013,Newham,2021-06-30,Pioneer Property Group,1,"East Ham, London E6",0,0,new,420995.0,flat,0,leasehold,2 bed flat for sale,51.531873,0.05662,77.0,2,2,1,2021-06-30,420995.0,1,0,1,East Ham,738,7
17014,17014,Newham,2021-06-30,Pioneer Property Group,1,"East Ham, London E6",0,0,new,333995.0,flat,0,leasehold,1 bed flat for sale,51.531873,0.05662,51.0,1,1,1,2021-06-30,333995.0,1,0,1,East Ham,738,7
17015,17015,Newham,2021-06-30,Keatons - Royal Docks,0,"Munnings House, 1 Portsmouth Mews, London E16",0,0,pre-owned,375000.0,flat,0,leasehold,2 bed flat for sale,51.50491,0.026803,66.0,2,1,1,2021-06-30,375000.0,0,1,0,Chesham,1055,11
17016,17016,Newham,2021-06-30,Pioneer Property Group,1,"Manor Road, London E15",0,0,new,915000.0,flat,0,leasehold,3 bed flat for sale,51.5328985460123,0.0092343558282208,95.0,3,2,1,2021-06-30,915000.0,0,0,1,West Ham,582,12
17017,17017,Newham,2021-06-30,Pioneer Property Group,1,"Manor Road, London E15",0,0,new,750000.0,flat,0,leasehold,2 bed flat for sale,51.5328985460123,0.0092343558282208,80.0,2,2,1,2021-06-30,750000.0,0,0,1,West Ham,582,12
17018,17018,Newham,2021-06-30,Pioneer Property Group,1,"Manor Road, London E15",0,0,new,552000.0,flat,0,leasehold,1 bed flat for sale,51.5328985460123,0.0092343558282208,57.0,1,1,1,2021-06-30,552000.0,0,0,1,West Ham,582,12
17019,17019,Newham,2021-06-30,Pioneer Property Group,1,"Manor Road, London E15",0,0,new,500000.0,studio,0,leasehold,Studio for sale,51.5328985460123,0.0092343558282208,44.0,0,1,1,2021-06-30,500000.0,0,0,1,West Ham,582,12
17020,17020,Newham,2021-06-30,"Purplebricks, Head Office",1,"Monmouth Road, London E6",0,0,pre-owned,425000.0,terraced,0,freehold,2 bed terraced house for sale,51.523954,0.055384,92.0,2,1,2,2021-06-30,425000.0,1,0,1,Beckton,927,1
17021,17021,Newham,2021-06-30,JOHNS&CO - Royal Wharf,0,"Fairwater House, Royal Wharf, London E16",0,0,pre-owned,600000.0,flat,0,Other,2 bed flat for sale,51.49931,0.026151,1858.0,2,2,1,2021-06-30,600000.0,1,1,0,Chesham,1536,2
17022,17022,Newham,2021-06-30,Direct Property Services,0,"Mitcham Road, East Ham E6",0,0,pre-owned,500000.0,end_terrace,0,freehold,3 bed end terrace house for sale,51.526936,0.05463,137.0,3,2,1,2021-06-30,500000.0,0,1,1,East Ham,1127,2
17023,17023,Newham,2021-06-30,Barratt London - Upton Gardens,1,"""St Pier Court"" at 1 Academy House, Thunderer Street, London E13",0,0,new,553000.0,flat,0,leasehold,3 bed flat for sale,51.53246,0.037413,85.0,3,2,1,2021-06-30,553000.0,1,0,1,Upton Park,308,5
17024,17024,Newham,2021-06-29,"Purplebricks, Head Office",0,"Vicars Close, London E15",0,0,pre-owned,500000.0,terraced,0,freehold,3 bed terraced house for sale,51.536362,0.021336,127.0,3,1,1,2021-06-29,500000.0,1,0,1,Plaistow,791,2
17025,17025,Newham,2021-06-29,Strike,1,"Lyell Street, London E14",0,0,pre-owned,740000.0,flat,0,leasehold,2 bed flat for sale,51.512555,0.005926,73.0,2,2,1,2021-06-29,740000.0,1,1,0,Canning Town,284,11
17026,17026,Newham,2021-06-29,Stonebridge,1,"Henniker Gardens, East Ham E6",0,0,pre-owned,475000.0,terraced,0,freehold,3 bed terraced house for sale,51.527691,0.047364,86.0,3,1,1,2021-06-29,475000.0,1,0,0,Chesham,1108,2
17027,17027,Newham,2021-06-29,Empire Lettings & Property Management,1,"Tidal Basin Road, London E16",0,0,new,635000.0,flat,0,leasehold,2 bed flat for sale,51.511144880597,0.0179285783582089,86.0,2,2,2,2021-06-29,635000.0,1,0,1,Royal Victoria,301,10
17028,17028,Newham,2021-06-28,Keatons - Stratford,1,"Meath Road, London E15",0,0,pre-owned,500000.0,end_terrace,0,freehold,3 bed end terrace house for sale,51.532047,0.010778,79.0,3,1,2,2021-06-28,500000.0,1,0,1,West Ham,555,10
17029,17029,Newham,2021-06-26,Yopa,0,"Claremont Close, London E16",0,0,pre-owned,275000.0,flat,0,Other,3 bed flat for sale,51.501715,0.064122,78.0,3,1,1,2021-06-26,275000.0,1,0,0,Chesham,1051,3
17030,17030,Newham,2021-06-26,Barratt London - Upton Gardens,1,"""St Pier Court"" at 1 Academy House, Thunderer Street, London E13",0,0,new,528000.0,flat,0,leasehold,3 bed flat for sale,51.53246,0.037413,87.0,3,2,1,2021-06-26,528000.0,1,0,1,Upton Park,308,5
17031,17031,Newham,2021-06-25,Yopa,0,"Richmond Road, London E7",0,0,pre-owned,350000.0,flat,0,leasehold,2 bed flat for sale,51.548698,0.030321,56.0,2,1,1,2021-06-25,350000.0,0,1,0,Upton Park,1170,15
17032,17032,Newham,2021-06-25,"Purplebricks, Head Office",0,"Bethell Avenue, London E16",0,0,pre-owned,520000.0,terraced,0,freehold,3 bed terraced house for sale,51.522718,0.013639,120.0,3,1,1,2021-06-25,520000.0,1,0,1,Plaistow,842,7
17033,17033,Newham,2021-06-25,Kings Group - Hackney,0,"Grant Street, London E13",0,0,pre-owned,325000.0,flat,0,leasehold,2 bed flat for sale,51.524768,0.019098,6.0,2,2,1,2021-06-25,325000.0,0,0,0,Plaistow,571,7
17034,17034,Newham,2021-06-25,Keatons - Royal Docks,0,"Cumberland House, 5 Wesley Avenue, London E16",0,0,pre-owned,385000.0,flat,0,leasehold,2 bed flat for sale,51.504927,0.022149,58.0,2,1,1,2021-06-25,385000.0,1,1,0,Royal Victoria,621,13
17035,17035,Newham,2021-06-25,Keatons - Stratford,0,"River Heights, 90 High Street, London E15",0,0,pre-owned,500000.0,flat,0,leasehold,2 bed flat for sale,51.534024,-0.007605,73.0,2,2,1,2021-06-25,500000.0,0,0,1,Pudding Mill Lane,413,3
17036,17036,Newham,2021-06-25,Cornerstone Realty,0,"Royal Wharf, N Woolwich Road, Canary Wharf, London E16",0,0,pre-owned,820000.0,flat,0,leasehold,3 bed flat for sale,51.501543,0.031696,113.0,3,2,1,2021-06-25,820000.0,0,0,1,Prince Regent,1546,3
17037,17037,Newham,2021-06-25,Keatons - Stratford,1,"Warwick Road, Stratford, London E15",0,0,pre-owned,675000.0,terraced,0,freehold,5 bed terraced house for sale,51.54308,0.016629,141.0,5,1,2,2021-06-25,675000.0,1,0,1,Plaistow,1455,4
17038,17038,Newham,2021-06-25,JLL - Stratford,0,"High Street, London E15",0,0,pre-owned,515000.0,flat,0,leasehold,2 bed flat for sale,51.534024,-0.007605,70.0,2,2,2,2021-06-25,515000.0,1,0,0,Pudding Mill Lane,413,3
17039,17039,Newham,2021-06-25,"Purplebricks, Head Office",0,"Seaton Close, London E13",0,0,pre-owned,425000.0,end_terrace,0,freehold,3 bed end terrace house for sale,51.520745,0.023758,112.0,3,1,2,2021-06-25,425000.0,1,0,1,Chesham,1050,8
17040,17040,Newham,2021-06-25,Franklyn James,0,"Kingfisher Heights, Silvertown E16",0,0,pre-owned,375000.0,flat,0,Other,1 bed flat for sale,51.502616,0.034856,51.0,1,1,1,2021-06-25,375000.0,1,0,0,Prince Regent,1012,2
17041,17041,Newham,2021-06-24,Keatons - Royal Docks,0,"Jane Austen Hall, 21 Wesley Avenue, London E16",0,0,pre-owned,375000.0,flat,0,leasehold,2 bed flat for sale,51.504892,0.02735,62.0,2,2,1,2021-06-24,375000.0,0,1,0,Chesham,1045,11
17042,17042,Newham,2021-06-24,The Stow Brothers,0,"Wanstead Park Avenue, London E12",0,0,pre-owned,975000.0,terraced,0,leasehold,4 bed terraced house for sale,51.564304,0.040555,149.0,4,2,3,2021-06-24,975000.0,0,0,1,Chesham,1648,0
17043,17043,Newham,2021-06-24,JLL - Stratford,0,"High Street, London E15",0,0,pre-owned,390000.0,flat,0,leasehold,1 bed flat for sale,51.534024,-0.007605,50.0,1,1,1,2021-06-24,390000.0,1,0,0,Pudding Mill Lane,413,3
17044,17044,Newham,2021-06-24,JOHNS&CO - Royal Wharf,0,"James Cook Building, Royal Wharf E16",0,0,pre-owned,650000.0,flat,0,Other,2 bed flat for sale,51.5022758906883,0.0501222591093117,79.0,2,2,1,2021-06-24,650000.0,1,0,0,Royal Albert,1246,4
17045,17045,Newham,2021-06-24,Ernest-Brooks International,0,"Legacy Tower, 88, Great Eastern Road, Stratford E15",0,0,pre-owned,775000.0,flat,0,leasehold,3 bed flat for sale,51.542627,-0.001357,98.0,3,2,1,2021-06-24,775000.0,0,0,1,Stratford,693,64
17046,17046,Newham,2021-06-24,Idasons,0,"Western Gateway, London E16",0,0,pre-owned,772000.0,flat,0,leasehold,2 bed flat for sale,51.507611,0.020855,93.0,2,2,1,2021-06-24,772000.0,1,1,0,Royal Victoria,276,14
17047,17047,Newham,2021-06-23,Barratt London - New Market Place,1,"""Raine House"" at Pilgrims Way, London E6",0,0,new,323995.0,flat,0,leasehold,Flat for sale,51.535022,0.051874,42.0,0,1,1,2021-06-23,323995.0,1,0,1,East Ham,440,9
17048,17048,Newham,2021-06-23,Barratt London - New Market Place,1,"""Raine House"" at Pilgrims Way, London E6",0,0,new,320995.0,flat,0,leasehold,Flat for sale,51.535022,0.051874,42.0,0,1,1,2021-06-23,320995.0,1,0,1,East Ham,440,9
17049,17049,Newham,2021-06-23,Barratt London - New Market Place,1,"""Raine House"" at Pilgrims Way, London E6",0,0,new,475995.0,flat,0,leasehold,2 bed flat for sale,51.535022,0.051874,78.0,2,2,1,2021-06-23,475995.0,1,0,1,East Ham,440,9
17050,17050,Newham,2021-06-23,Barratt London - New Market Place,1,"""Raine House"" at Pilgrims Way, London E6",0,0,new,425995.0,flat,0,leasehold,2 bed flat for sale,51.535022,0.051874,64.0,2,1,1,2021-06-23,425995.0,1,0,1,East Ham,440,9
17051,17051,Newham,2021-06-22,Grand Estates,0,"Royal Crest, Royal Wharf, London E16",0,0,pre-owned,450000.0,flat,0,leasehold,1 bed flat for sale,51.5022758906883,0.0501222591093117,8.0,1,0,0,2021-06-22,450000.0,1,0,0,Royal Albert,1246,4
17052,17052,Newham,2021-06-22,Keatons - Stratford,1,"Germander Way, Stratford, London E15",0,0,pre-owned,325000.0,flat,0,leasehold,3 bed flat for sale,51.526409,0.006032,68.0,3,1,1,2021-06-22,325000.0,0,0,0,West Ham,486,1
17053,17053,Newham,2021-06-22,Empire Lettings & Property Management,1,"Tidal Basin Road, London E16",0,0,new,729000.0,flat,0,leasehold,3 bed flat for sale,51.511144880597,0.0179285783582089,122.0,3,2,1,2021-06-22,729000.0,1,0,0,Royal Victoria,301,10
17054,17054,Newham,2021-06-22,Stonebridge,0,"Garnet Walk, Beckton E6",0,0,pre-owned,525000.0,town_house,0,freehold,5 bed town house for sale,51.516934,0.05039,110.0,5,2,2,2021-06-22,550000.0,0,0,0,Royal Albert,784,0
17055,17055,Newham,2021-06-22,KHB Associates Limited,0,"Shakespeare Crescent, Manor Park E12",0,0,pre-owned,580000.0,end_terrace,0,freehold,4 bed end terrace house for sale,51.543618,0.05914,153.0,4,1,1,2021-06-22,595000.0,0,0,1,East Ham,531,1
17056,17056,Newham,2021-06-21,Keatons - Stratford,0,"Neville Road, Forest Gate, London E7",0,0,pre-owned,400000.0,flat,0,leasehold,2 bed flat for sale,51.53762,0.024535,82.0,2,1,1,2021-06-21,400000.0,0,0,1,Chesham,785,2
17057,17057,Newham,2021-06-19,Victor Michael,1,"Pandora Court, Robertson Road, London. E16",0,0,new,349999.0,flat,0,leasehold,2 bed flat for sale,51.516194,0.020674,5.0,2,1,1,2021-06-19,349999.0,1,0,0,Royal Victoria,805,6
17058,17058,Newham,2021-06-18,Outlook Property - Docklands/Excel,0,"Hammersley Road, Canning Town, London E16",0,0,pre-owned,410000.0,flat,0,leasehold,2 bed flat for sale,51.516974,0.019224,67.0,2,1,1,2021-06-18,410000.0,1,1,0,Royal Victoria,908,10
17059,17059,Newham,2021-06-18,JOHNS&CO - New Providence Wharf,0,"Grantham House, London City Island, London E14",0,0,pre-owned,468000.0,flat,0,Other,1 bed flat for sale,51.511608,0.006011,53.0,1,1,1,2021-06-18,468000.0,1,0,1,Canning Town,383,7
17060,17060,Newham,2021-06-18,Barratt London - Upton Gardens,1,"""St Pier Court"" at 1 Academy House, Thunderer Street, London E13",0,0,new,503000.0,flat,0,leasehold,2 bed flat for sale,51.53246,0.037413,84.0,2,2,1,2021-06-18,503000.0,1,0,1,Upton Park,308,5
17061,17061,Newham,2021-06-17,L&Q - Brunel Street Works,1,"Silvertown Way, Canning Town E16",0,1,new,415000.0,flat,0,leasehold,1 bed flat for sale,51.512486,0.010882,55.0,1,1,0,2021-06-17,415000.0,1,0,0,Canning Town,235,10
17062,17062,Newham,2021-06-17,L&Q - Brunel Street Works,1,"Silvertown Way, Canning Town E16",0,1,new,410000.0,flat,0,leasehold,1 bed flat for sale,51.512486,0.010882,55.0,1,1,0,2021-06-17,410000.0,1,0,0,Canning Town,235,10
17063,17063,Newham,2021-06-17,Notting Hill Genesis - Royal Albert Wharf Shared Ownership,1,"Shackleton Way, Royal Albert Wharf, London E16",0,1,new,435000.0,flat,0,leasehold,2 bed flat for sale,51.506343,0.076005,77.0,2,2,1,2021-06-17,435000.0,1,0,1,Gallions Reach,416,0
17064,17064,Newham,2021-06-17,Notting Hill Genesis - Royal Albert Wharf Shared Ownership,1,"3 Shackleton Way, Newham E16",0,1,new,315000.0,flat,0,leasehold,1 bed flat for sale,51.5022758906883,0.0501222591093117,51.0,1,1,0,2021-06-17,315000.0,1,0,0,Royal Albert,1246,4
17065,17065,Newham,2021-06-17,CBRE,0,"Western Gateway, Royal Docks E16",0,0,pre-owned,475000.0,flat,0,leasehold,1 bed flat for sale,51.508645,0.016245,59.0,1,1,1,2021-06-17,475000.0,1,0,0,Royal Victoria,140,8
17066,17066,Newham,2021-06-17,Barratt London - New Market Place,1,"""Gordon House"" at Pilgrims Way, London E6",0,0,new,505995.0,flat,0,leasehold,3 bed flat for sale,51.535022,0.051874,91.0,3,2,1,2021-06-17,505995.0,1,0,1,East Ham,440,9
17067,17067,Newham,2021-06-16,Yopa,0,"Aldersbrook Road, London E12",0,0,pre-owned,2000000.0,detached,0,leasehold,8 bed detached house for sale,51.562314,0.033885,354.0,8,6,3,2021-06-16,2000000.0,0,1,1,Wanstead,1785,0
17068,17068,Newham,2021-06-16,Urban Moves,0,"Exeter Road London, London E16",0,1,pre-owned,136500.0,flat,0,Other,2 bed flat for sale,51.515223,0.021149,71.0,2,0,0,2021-06-16,136500.0,1,1,0,Royal Victoria,700,2
17069,17069,Newham,2021-06-16,JLL - Stratford,0,"Granite Apartments, Stratford E15",0,0,pre-owned,300000.0,flat,0,leasehold,1 bed flat for sale,51.545579,0.003024,39.0,1,1,1,2021-06-16,300000.0,1,0,0,Stratford,750,25
17070,17070,Newham,2021-06-15,Moving City,0,"City West Tower, 6 High Street, Stratford E15",0,0,pre-owned,470000.0,flat,0,Other,2 bed flat for sale,51.530181,-0.013728,71.0,2,2,1,2021-06-15,480000.0,0,0,1,Pudding Mill Lane,516,2
17071,17071,Newham,2021-06-15,JOHNS&CO - Royal Wharf,0,"Pinnacle House, Royal Wharf E16",0,0,pre-owned,600000.0,flat,0,Other,2 bed flat for sale,51.500969,0.030547,74.0,2,2,1,2021-06-15,600000.0,1,0,1,Prince Regent,1319,3
17072,17072,Newham,2021-06-15,JOHNS&CO - Royal Wharf,0,"Liner House, Royal Wharf, London E16",0,0,pre-owned,585000.0,flat,0,Other,2 bed flat for sale,51.504394,0.059011,71.0,2,2,1,2021-06-15,585000.0,1,1,0,Beckton Park,2099,5
17073,17073,Newham,2021-06-15,Pioneer Property Group,1,"North Woolwich, London E16",0,0,new,585000.0,flat,0,leasehold,3 bed flat for sale,51.499689,0.063211,86.0,3,2,1,2021-06-15,585000.0,1,0,0,Cyprus,1389,3
17074,17074,Newham,2021-06-15,Pioneer Property Group,1,"North Woolwich, London E16",0,0,new,495000.0,flat,0,leasehold,2 bed flat for sale,51.499689,0.063211,68.0,2,2,1,2021-06-15,495000.0,1,0,0,Cyprus,1389,3
17075,17075,Newham,2021-06-15,Pioneer Property Group,1,"North Woolwich, London E16",0,0,new,372000.0,flat,0,leasehold,1 bed flat for sale,51.499689,0.063211,51.0,1,1,1,2021-06-15,372000.0,1,0,0,Cyprus,1389,3
17076,17076,Newham,2021-06-15,Pioneer Property Group,1,"North Woolwich, London E16",0,0,new,357000.0,studio,0,leasehold,Studio for sale,51.499689,0.063211,43.0,0,1,1,2021-06-15,357000.0,1,0,0,Cyprus,1389,3
17077,17077,Newham,2021-06-15,Keatons - Stratford,0,"Pacific Building, 154 Leyton Road, London E15",0,0,pre-owned,550000.0,flat,0,leasehold,2 bed flat for sale,51.548535,-0.003178,71.0,2,1,1,2021-06-15,550000.0,1,0,0,Stratford,690,10
17078,17078,Newham,2021-06-15,Fraser & Co - City,0,"Masthead House, Rope Terrace E16",0,0,pre-owned,580000.0,flat,0,Other,2 bed flat for sale,51.501026,0.028233,125.0,2,1,0,2021-06-15,580000.0,0,0,0,Chesham,1439,3
17079,17079,Newham,2021-06-15,Redrow - Pontoon Reach,1,"Thames Road, London E16",0,0,new,362500.0,flat,0,leasehold,1 bed flat for sale,51.502282,0.038343,43.0,1,1,0,2021-06-15,362500.0,1,0,1,Chesham,862,0
17080,17080,Newham,2021-06-15,Sparemove,0,"Glenepark Road, London E7",0,0,pre-owned,600000.0,terraced,0,freehold,3 bed terraced house for sale,51.544717,0.029076,101.0,3,1,2,2021-06-15,600000.0,1,1,1,Upton Park,993,13
17081,17081,Newham,2021-06-14,Outlook Property - Docklands/Excel,0,"Sheerness Mews, Royal Docks, London E16",0,0,pre-owned,280000.0,flat,0,leasehold,1 bed flat for sale,51.500036,0.071065,59.0,1,1,1,2021-06-14,280000.0,1,1,1,Gallions Reach,818,0
17082,17082,Newham,2021-06-14,Pioneer Property Group,1,"East Ham, London E6",0,0,new,447025.0,flat,0,leasehold,2 bed flat for sale,51.531873,0.05662,77.0,2,2,1,2021-06-14,447025.0,1,0,1,East Ham,738,7
17083,17083,Newham,2021-06-14,Pioneer Property Group,1,"East Ham, London E6",0,0,new,336000.0,flat,0,leasehold,1 bed flat for sale,51.531873,0.05662,51.0,1,1,1,2021-06-14,336000.0,1,0,1,East Ham,738,7
17084,17084,Newham,2021-06-14,"Purplebricks, Head Office",0,"23 Maud Street, London E16",0,0,pre-owned,600000.0,flat,0,leasehold,3 bed flat for sale,51.516593,0.01213,145.0,3,2,1,2021-06-14,610000.0,1,1,0,Canning Town,391,18
17085,17085,Newham,2021-06-14,Buy London Flat,0,"Shipwright Street, Royal Wharf E16",0,0,pre-owned,450000.0,flat,0,leasehold,1 bed flat for sale,51.500274,0.026051,2323.0,1,1,1,2021-06-14,450000.0,0,0,1,Chesham,1434,2
17086,17086,Newham,2021-06-14,Stonebridge,0,"Sheringham Avenue, Manor Park E12",0,0,pre-owned,460000.0,end_terrace,0,freehold,3 bed end terrace house for sale,51.553428,0.060247,108.0,3,1,2,2021-06-14,460000.0,0,0,1,East Ham,1622,0
17087,17087,Newham,2021-06-14,Fraser & Co - City,1,"Discovery Tower, Canning Town E16",0,0,new,660000.0,flat,0,leasehold,3 bed flat for sale,51.51518,0.009139,92.0,3,2,1,2021-06-14,660000.0,1,0,1,Canning Town,144,14
17088,17088,Newham,2021-06-11,LRC - London Sales and Letting Agency,1,"Penge Road, Upton Park, London E13",0,0,new,370000.0,flat,0,leasehold,1 bed flat for sale,51.536494,0.032445,50.0,1,1,1,2021-06-11,370000.0,1,0,1,Upton Park,309,8
17089,17089,Newham,2021-06-11,LRC - London Sales and Letting Agency,1,"Penge Road, Upton Park, London E13",0,0,new,490000.0,flat,0,leasehold,2 bed flat for sale,51.536494,0.032445,70.0,2,2,1,2021-06-11,490000.0,1,0,1,Upton Park,309,8
17090,17090,Newham,2021-06-11,LRC - London Sales and Letting Agency,1,"Penge Road, Upton Park, London E13",0,0,new,520000.0,flat,0,leasehold,3 bed flat for sale,51.536494,0.032445,85.0,3,2,1,2021-06-11,520000.0,1,0,1,Upton Park,309,8
17091,17091,Newham,2021-06-11,JLL - Stratford,0,"Devenay Road, London E15",0,0,pre-owned,599995.0,town_house,0,freehold,4 bed town house for sale,51.540081,0.013223,111.0,4,2,1,2021-06-11,620000.0,0,0,1,Plaistow,1134,10
17092,17092,Newham,2021-06-11,Madley Property,0,"Marmara Apartments, Western Gateway, London E16",0,0,pre-owned,385000.0,flat,0,leasehold,1 bed flat for sale,51.507885,0.021156,55.0,1,1,1,2021-06-11,385000.0,1,0,0,Royal Victoria,236,14
17093,17093,Newham,2021-06-11,EweMove Sales & Lettings - Stratford,0,"Chandos Road, London E15",0,0,pre-owned,575000.0,terraced,0,freehold,3 bed terraced house for sale,51.5502,-0.000958,130.0,3,2,2,2021-06-11,575000.0,1,0,1,Leyton,667,20
17094,17094,Newham,2021-06-10,Stonebridge,0,"Katherine Rd, East Ham E6",0,0,pre-owned,640000.0,terraced,0,freehold,Terraced house for sale,51.534289,0.046524,9.0,0,0,0,2021-06-10,640000.0,0,0,0,East Ham,627,5
17095,17095,Newham,2021-06-10,Notting Hill Genesis - Royal Albert Wharf Shared Ownership,1,"3 Shackleton Way, Newham E16",0,1,new,78750.0,flat,0,leasehold,1 bed flat for sale,51.5022758906883,0.0501222591093117,50.0,1,1,0,2021-06-10,78750.0,1,0,0,Royal Albert,1246,4
17096,17096,Newham,2021-06-10,Notting Hill Genesis - Royal Albert Wharf Shared Ownership,1,"Hudson Way, Royal Albert Wharf, London E16",0,1,new,123750.0,flat,0,leasehold,3 bed flat for sale,51.506343,0.076005,98.0,3,2,1,2021-06-10,123750.0,1,1,1,Gallions Reach,416,0
17097,17097,Newham,2021-06-10,Notting Hill Genesis - Royal Albert Wharf Shared Ownership,1,"Shackleton Way, Royal Albert Wharf, London E16",0,1,new,130000.0,flat,0,leasehold,3 bed flat for sale,51.506343,0.076005,94.0,3,2,1,2021-06-10,130000.0,1,1,1,Gallions Reach,416,0
17098,17098,Newham,2021-06-10,Notting Hill Genesis - Royal Albert Wharf Shared Ownership,1,"Shackleton Way, Royal Albert Wharf, London E16",0,1,new,131250.0,flat,0,leasehold,3 bed flat for sale,51.506343,0.076005,94.0,3,2,1,2021-06-10,131250.0,1,1,1,Gallions Reach,416,0
17099,17099,Newham,2021-06-10,Strike,1,"Seagull Lane, London E16",0,0,pre-owned,320000.0,flat,0,leasehold,1 bed flat for sale,51.509028,0.023777,43.0,1,1,1,2021-06-10,320000.0,0,0,0,Custom House,190,13
17100,17100,Newham,2021-06-10,McKenzie Homes,1,"Pontoon Docks, London E16",0,0,new,485000.0,flat,0,Other,2 bed flat for sale,51.501639,0.030851,70.0,2,2,1,2021-06-10,485000.0,1,0,0,Prince Regent,1257,3
17101,17101,Newham,2021-06-10,McKenzie Homes,1,"Pontoon Docks, London E16",0,0,new,350000.0,flat,0,Other,1 bed flat for sale,51.501639,0.030851,70.0,1,1,1,2021-06-10,350000.0,1,0,0,Prince Regent,1257,3
17102,17102,Newham,2021-06-09,Strike,0,"Stopford Road, London E13",0,0,pre-owned,325000.0,flat,0,leasehold,2 bed flat for sale,51.534235,0.022235,20.0,2,1,1,2021-06-09,350000.0,0,0,0,Plaistow,537,4
17103,17103,Newham,2021-06-08,Property Inside London,0,"Liner House, 30 Schooner Road, Royal Wharf, London E16",0,0,pre-owned,595000.0,flat,0,leasehold,2 bed flat for sale,51.499702,0.02985,95.0,2,2,1,2021-06-08,620000.0,1,0,1,Chesham,1465,2
17104,17104,Newham,2021-06-08,LiFE Residential - Royal Wharf,0,"Royal Eden Docks, Western Gateway E16",0,0,pre-owned,660000.0,flat,0,Other,2 bed flat for sale,51.508238,0.021575,73.0,2,2,1,2021-06-08,660000.0,0,0,1,Royal Victoria,229,14
17105,17105,Newham,2021-06-08,Hertford Property,0,"Western Gateway, London E16",0,0,pre-owned,480000.0,flat,0,freehold,2 bed flat for sale,51.508331,0.019274,73.0,2,2,1,2021-06-08,480000.0,1,0,0,Royal Victoria,93,14
17106,17106,Newham,2021-06-08,Hector Godwin Homes,0,"Victoria Road, London E13",0,0,pre-owned,525000.0,flat,0,leasehold,3 bed flat for sale,51.530395,0.019529,86.0,3,2,1,2021-06-08,525000.0,1,0,0,Plaistow,257,6
17107,17107,Newham,2021-06-08,Hector Godwin Homes,0,"Victoria Road, London E13",0,0,pre-owned,475000.0,flat,0,leasehold,2 bed flat for sale,51.530395,0.019529,74.0,2,2,1,2021-06-08,475000.0,1,0,0,Plaistow,257,6
17108,17108,Newham,2021-06-08,MyLondonHome - Canary Wharf,0,"Pendant Court, 4 Shipwright Street, Royal Wharf E16",0,0,pre-owned,440000.0,flat,0,leasehold,1 bed flat for sale,51.500276,0.026052,56.0,1,1,1,2021-06-08,440000.0,0,0,1,Chesham,1434,2
17109,17109,Newham,2021-06-08,Hector Godwin Homes,0,"Victoria Road, London E13",0,0,pre-owned,375000.0,flat,0,leasehold,1 bed flat for sale,51.530395,0.019529,51.0,1,1,1,2021-06-08,375000.0,1,0,0,Plaistow,257,6
17110,17110,Newham,2021-06-07,Keatons - Stratford,0,"Lonsdale Avenue, East Ham, London E6",0,0,pre-owned,435000.0,terraced,0,freehold,3 bed terraced house for sale,51.521827,0.05255,93.0,3,1,1,2021-06-07,435000.0,1,0,1,Beckton,870,1
17111,17111,Newham,2021-06-07,Keatons - Stratford,1,"Bridgepoint Lofts, 6 Shaftesbury Road, London E7",0,0,pre-owned,350000.0,flat,0,leasehold,2 bed flat for sale,51.540385,0.0383,75.0,2,1,1,2021-06-07,375000.0,0,0,0,Upton Park,647,6
17112,17112,Newham,2021-06-07,Keystones Properties,0,"Barrier Point Road, London E16",0,0,pre-owned,425000.0,flat,0,leasehold,1 bed flat for sale,51.499459,0.032094,102.0,1,0,0,2021-06-07,425000.0,1,0,0,Prince Regent,1373,2
17113,17113,Newham,2021-06-07,McKenzie Homes,1,"Canning Town, London E16",0,0,new,450000.0,flat,0,Other,2 bed flat for sale,51.515359,0.009596,74.0,2,1,1,2021-06-07,450000.0,1,0,0,Canning Town,252,14
17114,17114,Newham,2021-06-07,JLL - Stratford,0,"High Street, London E15",0,0,pre-owned,545000.0,flat,0,leasehold,2 bed flat for sale,51.534024,-0.007605,70.0,2,2,1,2021-06-07,559950.0,1,0,0,Pudding Mill Lane,413,3
17115,17115,Newham,2021-06-06,Barratt London - Upton Gardens,1,"""St Pier Court"" at 1 Academy House, Thunderer Street, London E13",0,0,new,523000.0,flat,0,leasehold,3 bed flat for sale,51.53246,0.037413,86.0,3,2,1,2021-06-06,523000.0,1,1,1,Upton Park,308,5
17116,17116,Newham,2021-06-05,Madison Brook International E16,0,"Caxton Street North, Canning Town E16",0,0,pre-owned,650000.0,flat,0,Other,2 bed flat for sale,51.51065,0.012658,84.0,2,2,1,2021-06-05,650000.0,1,1,0,Chesham,406,9
17117,17117,Newham,2021-06-04,LiFE Residential - Royal Wharf,0,"Sovereign Tower, 1 Emily Street E16",0,0,pre-owned,350000.0,flat,0,leasehold,1 bed flat for sale,51.511402,0.012232,52.0,1,1,1,2021-06-04,350000.0,1,0,0,Canning Town,358,8
17118,17118,Newham,2021-06-04,LiFE Residential - Royal Wharf,1,"Sky View Tower, 12 High Street, London E15",0,0,pre-owned,370000.0,flat,0,leasehold,1 bed flat for sale,51.53045,-0.013182,56.0,1,1,1,2021-06-04,370000.0,0,0,1,Pudding Mill Lane,455,2
17119,17119,Newham,2021-06-04,Dockley's,1,"Amelia House, London City Island E14",0,0,new,850000.0,maisonette,0,Other,2 bed maisonette for sale,51.513165,0.005892,94.0,2,2,1,2021-06-04,850000.0,0,0,1,Canning Town,237,11
17120,17120,Newham,2021-06-04,Dockley's,0,"Amelia House, London City Island E14",0,0,pre-owned,370000.0,studio,0,Other,Studio for sale,51.513165,0.005892,41.0,0,1,1,2021-06-04,370000.0,1,0,1,Canning Town,237,11
17121,17121,Newham,2021-06-04,JOHNS&CO - Royal Wharf,1,"John Cabot House, Royal Wharf E16",0,0,new,338000.0,studio,0,Other,Studio for sale,51.5022758906883,0.0501222591093117,47.0,0,1,0,2021-06-04,338000.0,0,0,0,Royal Albert,1246,4
17122,17122,Newham,2021-06-04,EBL Investment,1,"41 Lyeel Street, London, Canary Wharf E14",0,0,new,410000.0,flat,0,leasehold,1 bed flat for sale,51.512554,0.005899,48.0,1,1,1,2021-06-04,410000.0,1,1,1,Canning Town,283,11
17123,17123,Newham,2021-06-04,JOHNS&CO - Royal Wharf,0,"16.H.07 Townhouse, Royal Wharf, London E16",0,0,pre-owned,1150000.0,Other,0,Other,4 bed property for sale,51.500969,0.030547,46.0,4,4,1,2021-06-04,1253250.0,1,0,1,Prince Regent,1319,3
17124,17124,Newham,2021-06-04,"Doorsteps.co.uk, National",1,"Jutland Road, London E13",0,0,pre-owned,500000.0,terraced,0,freehold,5 bed terraced house for sale,51.521152,0.022551,112.0,5,2,1,2021-06-04,500000.0,0,1,1,Plaistow,981,9
17125,17125,Newham,2021-06-04,Dockley's,1,"Amelia House, London City Island E14",0,0,new,800000.0,flat,0,Other,2 bed flat for sale,51.513165,0.005892,78.0,2,2,1,2021-06-04,800000.0,1,1,1,Canning Town,237,11
17126,17126,Newham,2021-06-03,LiFE Residential - Royal Wharf,1,"Pinnacle House, 4 Schooner Road, Royal Wharf E16",0,0,new,425000.0,flat,0,leasehold,1 bed flat for sale,51.499583,0.027672,61.0,1,1,1,2021-06-03,425000.0,0,0,0,Chesham,1521,2
17127,17127,Newham,2021-06-03,Urban Moves,0,"Burford Wharf Apartments, 3 Cam Road, London E15",0,1,pre-owned,210000.0,flat,0,leasehold,1 bed flat for sale,51.536702,-0.001115,53.0,1,0,0,2021-06-03,210000.0,1,1,0,Stratford,988,13
17128,17128,Newham,2021-06-03,Ernest-Brooks International,0,"Waterman House, New Garden Quarter, Stratford E15",0,0,pre-owned,710000.0,flat,0,Other,3 bed flat for sale,51.545271,-0.000377,102.0,3,2,1,2021-06-03,710000.0,1,1,1,Stratford,573,45
17129,17129,Newham,2021-06-03,JOHNS&CO - Royal Wharf,0,"Flotilla House, Royal Wharf, London E16",0,0,pre-owned,665000.0,flat,0,Other,2 bed flat for sale,51.498841,0.026721,13.0,2,2,1,2021-06-03,665000.0,1,0,0,Chesham,1610,2
17130,17130,Newham,2021-06-03,Pioneer Property Group,1,"Manor Road, London E15",0,0,new,930000.0,flat,0,leasehold,3 bed flat for sale,51.5328985460123,0.0092343558282208,95.0,3,2,1,2021-06-03,930000.0,0,0,1,West Ham,582,12
17131,17131,Newham,2021-06-03,Pioneer Property Group,1,"Manor Road, London E15",0,0,new,750000.0,flat,0,leasehold,2 bed flat for sale,51.5328985460123,0.0092343558282208,80.0,2,2,1,2021-06-03,750000.0,0,0,1,West Ham,582,12
17132,17132,Newham,2021-06-03,Pioneer Property Group,1,"Manor Road, London E15",0,0,new,532000.0,flat,0,leasehold,1 bed flat for sale,51.5328985460123,0.0092343558282208,57.0,1,1,1,2021-06-03,532000.0,0,0,1,West Ham,582,12
17133,17133,Newham,2021-06-03,Pioneer Property Group,1,"Manor Road, London E15",0,0,new,475000.0,studio,0,leasehold,Studio for sale,51.5328985460123,0.0092343558282208,44.0,0,1,1,2021-06-03,475000.0,0,0,1,West Ham,582,12
17134,17134,Newham,2021-06-03,Pioneer Property Group,1,"North Woolwich, London E16",0,0,new,585000.0,flat,0,leasehold,3 bed flat for sale,51.499689,0.063211,86.0,3,2,1,2021-06-03,585000.0,1,0,0,Cyprus,1389,3
17135,17135,Newham,2021-06-03,Pioneer Property Group,1,"North Woolwich, London E16",0,0,new,495000.0,flat,0,leasehold,2 bed flat for sale,51.499689,0.063211,68.0,2,2,1,2021-06-03,495000.0,1,0,0,Cyprus,1389,3
17136,17136,Newham,2021-06-03,Pioneer Property Group,1,"North Woolwich, London E16",0,0,new,372000.0,flat,0,leasehold,1 bed flat for sale,51.499689,0.063211,51.0,1,1,1,2021-06-03,372000.0,1,0,0,Cyprus,1389,3
17137,17137,Newham,2021-06-03,Pioneer Property Group,1,"North Woolwich, London E16",0,0,new,357500.0,studio,0,leasehold,Studio for sale,51.499689,0.063211,43.0,0,1,1,2021-06-03,357500.0,1,0,0,Cyprus,1389,3
17138,17138,Newham,2021-06-03,Chase Evans Docklands,0,"Royal Wharf, Royal Docks, London E16",0,0,pre-owned,749999.0,flat,0,leasehold,3 bed flat for sale,51.500119,0.028766,122.0,3,2,1,2021-06-03,749999.0,1,1,1,Chesham,1479,2
17139,17139,Newham,2021-06-03,Bellway - Beckton Parkside,1,"Newham Way, Beckton, London E6",0,0,new,525000.0,flat,0,leasehold,3 bed flat for sale,51.519412,0.047194,110.0,3,2,0,2021-06-03,525000.0,1,1,1,Royal Albert,1065,0
17140,17140,Newham,2021-06-03,MyLondonHome - Canary Wharf,1,"Fairwater House, Royal Wharf, Royal Docks E16",0,0,new,435000.0,flat,0,leasehold,1 bed flat for sale,51.500613,0.026194,54.0,1,1,1,2021-06-03,450000.0,1,0,1,Chesham,1413,2
17141,17141,Newham,2021-06-02,Hunter Realty,0,"Bramwell Way, London E16",0,0,pre-owned,350000.0,flat,0,leasehold,1 bed flat for sale,51.502683,0.03537,41.0,1,1,1,2021-06-02,350000.0,1,1,0,Prince Regent,984,2
17142,17142,Newham,2021-06-02,Hunter Realty,0,"Myrtle Road, East Ham, London E6",0,0,pre-owned,448000.0,flat,0,leasehold,2 bed flat for sale,51.533869,0.052024,77.0,2,2,1,2021-06-02,448000.0,1,0,1,East Ham,515,8
17143,17143,Newham,2021-06-02,Hunter Realty,0,"Myrtle Road, East Ham, London E6",0,0,pre-owned,341000.0,flat,0,leasehold,1 bed flat for sale,51.533869,0.052024,52.0,1,1,1,2021-06-02,341000.0,1,0,1,East Ham,515,8
17144,17144,Newham,2021-06-02,Hunter Realty,0,"Myrtle Road, East Ham, London E6",0,0,pre-owned,305000.0,studio,0,leasehold,Studio for sale,51.533869,0.052024,42.0,0,1,1,2021-06-02,305000.0,1,0,1,East Ham,515,8
17145,17145,Newham,2021-06-02,JOHNS&CO - Royal Wharf,0,"Flagship House, Royal Wharf, London E16",0,0,pre-owned,500000.0,flat,0,Other,1 bed flat for sale,51.503394,0.06473,87.0,1,2,1,2021-06-02,525000.0,0,0,1,Chesham,1049,4
17146,17146,Newham,2021-06-02,Fisks London,1,"4 Western Gateway, London E16",0,0,pre-owned,450000.0,flat,0,leasehold,2 bed flat for sale,51.508883,0.023765,64.0,2,1,1,2021-06-02,450000.0,1,1,0,Custom House,192,13
17147,17147,Newham,2021-06-02,One Move Property Group Ltd,1,"Upton Gardens, Upton Park, London E13",0,0,new,531000.0,flat,0,leasehold,3 bed flat for sale,51.533109,0.036822,87.0,3,2,1,2021-06-02,531000.0,1,0,0,Upton Park,258,5
17148,17148,Newham,2021-06-02,JOHNS&CO - Royal Wharf,0,"Barrier Point Road, Royal Docks, London E16",0,0,pre-owned,375000.0,flat,0,Other,1 bed flat for sale,51.500552,0.031793,54.0,1,1,1,2021-06-02,375000.0,1,1,1,Prince Regent,1468,2
17149,17149,Newham,2021-06-01,LiFE Residential - Royal Wharf,0,"Masthead House, 14 Rope Terrace E16",0,0,pre-owned,600000.0,flat,0,leasehold,2 bed flat for sale,51.500632,0.029777,94.0,2,2,1,2021-06-01,600000.0,1,0,1,Chesham,1363,2
17150,17150,Newham,2021-06-01,JLL - Stratford,1,"North Crescent, London E16",0,0,new,730000.0,flat,0,leasehold,2 bed flat for sale,51.523922,-0.001055,23226.0,2,2,1,2021-06-01,730000.0,0,0,1,Chesham,964,0
17151,17151,Newham,2021-06-01,Keatons - Stratford,1,"Glenparke Road, Forest Gate, London E7",0,0,pre-owned,330000.0,flat,0,leasehold,2 bed flat for sale,51.544964,0.028885,42.0,2,1,1,2021-06-01,340000.0,0,0,1,Upton Park,1014,13
17152,17152,Newham,2021-06-01,Peabody,1,"Cooks Road, London E15",0,1,new,108000.0,flat,0,leasehold,1 bed flat for sale,51.531107,-0.014306,79.0,1,1,0,2021-06-01,148500.0,1,0,1,Pudding Mill Lane,454,3
17153,17153,Newham,2021-06-01,Maxwell Properties,1,"Major Road, Stratford, London E15",0,0,pre-owned,290000.0,flat,0,leasehold,1 bed flat for sale,51.548823,-0.002127,49.0,1,1,1,2021-06-01,290000.0,0,1,0,Chesham,678,14
17154,17154,Newham,2021-05-29,Bairstow Eves - Stratford Sales,1,"North Woolwich, London, England E16",0,0,pre-owned,275000.0,flat,0,leasehold,2 bed flat for sale,51.499929,0.062833,56.0,2,1,1,2021-05-29,290000.0,0,1,0,Cyprus,1391,3
17155,17155,Newham,2021-05-28,JLL - Stratford,1,"North Crescent, London E16",0,0,new,920000.0,flat,0,leasehold,3 bed flat for sale,51.523922,-0.001055,23226.0,3,3,1,2021-05-28,995000.0,1,0,1,Chesham,964,0
17156,17156,Newham,2021-05-28,JLL - Stratford,1,"North Crescent, London E16",0,0,new,800000.0,flat,0,leasehold,2 bed flat for sale,51.523922,-0.001055,23226.0,2,2,1,2021-05-28,855000.0,0,0,1,Chesham,964,0
17157,17157,Newham,2021-05-28,JLL - Stratford,1,"North Crescent, London E16",0,0,new,795000.0,flat,0,leasehold,2 bed flat for sale,51.523922,-0.001055,23226.0,2,2,1,2021-05-28,810000.0,0,0,1,Chesham,964,0
17158,17158,Newham,2021-05-28,JLL - Stratford,1,"North Crescent, London E16",0,0,new,600000.0,flat,0,leasehold,1 bed flat for sale,51.523922,-0.001055,23226.0,1,1,1,2021-05-28,607500.0,0,0,1,Chesham,964,0
17159,17159,Newham,2021-05-28,JLL - Stratford,1,"North Crescent, London E16",0,0,new,547500.0,flat,0,leasehold,1 bed flat for sale,51.523922,-0.001055,23226.0,1,1,1,2021-05-28,557500.0,0,0,1,Chesham,964,0
17160,17160,Newham,2021-05-28,JLL - Stratford,1,"North Crescent, London E16",0,0,new,502500.0,flat,0,leasehold,1 bed flat for sale,51.523922,-0.001055,23226.0,1,1,1,2021-05-28,505000.0,0,0,1,Chesham,964,0
17161,17161,Newham,2021-05-28,MyLondonHome - Canary Wharf,0,"Flotilla House, 12 Cable Street, Royal Wharf E16",0,0,pre-owned,445000.0,flat,0,leasehold,1 bed flat for sale,51.498828,0.02691,54.0,1,1,1,2021-05-28,445000.0,1,0,1,Chesham,1616,2
17162,17162,Newham,2021-05-28,"Purplebricks, Head Office",0,"12 Rathbone Market, London E16",0,0,pre-owned,375000.0,flat,0,leasehold,2 bed flat for sale,51.516453,0.01136,70.0,2,1,1,2021-05-28,375000.0,1,0,1,Canning Town,369,17
17163,17163,Newham,2021-05-28,MyLondonHome - Canary Wharf,0,"Cutter House, Royal Wharf, Royal Docks E16",0,0,pre-owned,550000.0,flat,0,leasehold,2 bed flat for sale,51.500274,0.029675,86.0,2,2,1,2021-05-28,550000.0,0,0,0,Chesham,1395,2
17164,17164,Newham,2021-05-28,Douglas Pryce,0,"Barking Road, London E16",0,0,pre-owned,360000.0,flat,0,Other,1 bed flat for sale,51.515998,0.007703,60.0,1,1,1,2021-05-28,370000.0,0,0,0,Canning Town,168,15
17165,17165,Newham,2021-05-27,Outlook Property - Stratford,0,"Gerry Raffles Square, Stratford, London E15",0,0,pre-owned,295000.0,flat,0,leasehold,1 bed flat for sale,51.542589,0.000252,48.0,1,1,1,2021-05-27,295000.0,1,0,0,Stratford,851,46
17166,17166,Newham,2021-05-27,Keith Ashton,0,"Wanlip Road, London E13",0,0,pre-owned,920000.0,end_terrace,0,leasehold,6 bed end terrace house for sale,51.522258,0.02708,168.0,6,2,2,2021-05-27,939950.0,1,1,1,Chesham,957,5
17167,17167,Newham,2021-05-27,JOHNS&CO - Royal Wharf,1,"Royal Eden Docks, London E16",0,0,new,555000.0,flat,0,Other,2 bed flat for sale,51.50827,0.020251,68.0,2,1,2,2021-05-27,555000.0,1,0,0,Royal Victoria,222,14
17168,17168,Newham,2021-05-27,Clipper Residential,0,"Marco Polo Building, Bonnet Street, Beckton Royal Wharf E16",0,0,pre-owned,515000.0,flat,0,Other,1 bed flat for sale,51.499337,0.025132,2323.0,1,1,1,2021-05-27,515000.0,1,0,0,Chesham,1164,2
17169,17169,Newham,2021-05-26,Anthology - Stratford Mill,1,"Marshgate Lane, London E15",0,0,new,665000.0,flat,0,leasehold,2 bed flat for sale,51.533185,-0.010896,94.0,2,1,0,2021-05-26,665000.0,1,0,1,Pudding Mill Lane,225,1
17170,17170,Newham,2021-05-26,Anthology - Stratford Mill,1,"Marshgate Lane, London E15",0,0,new,630000.0,flat,0,leasehold,2 bed flat for sale,51.533185,-0.010896,76.0,2,1,0,2021-05-26,630000.0,1,0,1,Pudding Mill Lane,225,1
17171,17171,Newham,2021-05-26,Anthology - Stratford Mill,1,"Marshgate Lane, London E15",0,0,new,600000.0,flat,0,leasehold,2 bed flat for sale,51.533185,-0.010896,90.0,2,1,0,2021-05-26,600000.0,1,0,1,Pudding Mill Lane,225,1
17172,17172,Newham,2021-05-26,Anthology - Stratford Mill,1,"Marshgate Lane, London E15",0,0,new,540000.0,flat,0,leasehold,2 bed flat for sale,51.533185,-0.010896,76.0,2,1,0,2021-05-26,540000.0,1,0,1,Pudding Mill Lane,225,1
17173,17173,Newham,2021-05-26,Anthology - Stratford Mill,1,"Marshgate Lane, London E15",0,0,new,440000.0,flat,0,leasehold,1 bed flat for sale,51.533185,-0.010896,58.0,1,1,0,2021-05-26,440000.0,1,0,1,Pudding Mill Lane,225,1
17174,17174,Newham,2021-05-26,LiFE Residential - Royal Wharf,1,"Wards Wharf Approach, London E16",0,0,pre-owned,700000.0,flat,0,leasehold,3 bed flat for sale,51.501003,0.037996,96.0,3,2,1,2021-05-26,700000.0,1,0,0,Chesham,996,1
17175,17175,Newham,2021-05-26,LiFE Residential - Royal Wharf,0,"Liner House, 3 Royal Wharf Walk E16",0,0,pre-owned,500000.0,flat,0,leasehold,1 bed flat for sale,51.499506,0.030528,67.0,1,1,1,2021-05-26,500000.0,1,1,1,Prince Regent,1438,2
17176,17176,Newham,2021-05-26,CBRE,1,"Grain Apartments, Gallions Place, Royal Albert Wharf E16",0,0,new,440000.0,flat,0,Other,2 bed flat for sale,51.507626,0.071872,61.0,2,1,1,2021-05-26,440000.0,1,0,0,Gallions Reach,248,0
17177,17177,Newham,2021-05-26,CBRE,1,"Grain Apartments, Gallions Place, Royal Albert Wharf E16",0,0,new,430000.0,flat,0,Other,2 bed flat for sale,51.507626,0.071872,61.0,2,1,1,2021-05-26,430000.0,1,0,0,Gallions Reach,248,0
17178,17178,Newham,2021-05-26,JOHNS&CO - Royal Wharf,0,"John Cabot House, Royal Wharf, London E16",0,0,pre-owned,475000.0,flat,0,Other,1 bed flat for sale,51.5022758906883,0.0501222591093117,55.0,1,1,1,2021-05-26,475000.0,1,0,0,Royal Albert,1246,4
17179,17179,Newham,2021-05-26,CBRE,0,"Edwin Street, London E16",0,0,pre-owned,495000.0,flat,0,leasehold,2 bed flat for sale,51.516121,0.018709,56.0,2,1,1,2021-05-26,495000.0,0,0,0,Chesham,695,10
17180,17180,Newham,2021-05-25,Lifestyle Property,0,"Barrier Point Road, Royal Docks, London E16",0,0,pre-owned,599995.0,flat,0,Other,2 bed flat for sale,51.501543,0.031696,82.0,2,0,0,2021-05-25,619995.0,1,1,0,Prince Regent,1546,3
17181,17181,Newham,2021-05-25,Bairstow Eves - Stratford Sales,0,"6 Connaught Road, London, England E16",0,0,pre-owned,250000.0,flat,0,leasehold,2 bed flat for sale,51.502678,0.044528,63.0,2,1,1,2021-05-25,275000.0,0,1,0,Royal Albert,898,2
17182,17182,Newham,2021-05-25,Property Inside London,0,"Stratophere, Great Eastern Street, Stratford, London E15",0,0,pre-owned,465000.0,flat,0,leasehold,1 bed flat for sale,51.540153,-0.000965,53.0,1,1,1,2021-05-25,465000.0,1,0,0,Stratford,777,48
17183,17183,Newham,2021-05-25,Ernest-Brooks International,0,"Pitchford Street, Stratford E15",0,0,pre-owned,370000.0,flat,0,leasehold,2 bed flat for sale,51.538362,0.003323,65.0,2,1,1,2021-05-25,370000.0,0,0,0,Chesham,1045,25
17184,17184,Newham,2021-05-25,Ernest-Brooks International,0,"Pitchford Street, London E15",0,0,pre-owned,315000.0,flat,0,share_of_freehold,2 bed flat for sale,51.538173,0.002385,51.0,2,1,1,2021-05-25,325000.0,0,0,0,Stratford,1139,21
17185,17185,Newham,2021-05-25,Redrow - Pontoon Reach,1,"Thames Road, London E16",0,0,new,402500.0,flat,0,leasehold,1 bed flat for sale,51.502282,0.038343,50.0,1,1,0,2021-05-25,402500.0,1,0,1,Chesham,862,0
17186,17186,Newham,2021-05-25,JOHNS&CO - Royal Wharf,0,"Marco Polo, Royal Wharf, London E16",0,0,pre-owned,1150000.0,flat,0,Other,3 bed flat for sale,51.5022758906883,0.0501222591093117,40.0,3,2,1,2021-05-25,1150000.0,1,1,0,Royal Albert,1246,4
17187,17187,Newham,2021-05-24,Savills - Canary Wharf,0,"Fife Road, Newham, London E16",0,0,pre-owned,675000.0,flat,0,leasehold,3 bed flat for sale,51.515995,0.019166,102.0,3,2,1,2021-05-24,675000.0,1,0,0,Royal Victoria,782,9
17188,17188,Newham,2021-05-24,Keatons - Stratford,1,"Gazelle House, 8 Manbey Park Road, London E15",0,0,pre-owned,375000.0,flat,0,leasehold,2 bed flat for sale,51.545523,0.005791,73.0,2,1,1,2021-05-24,395000.0,0,0,0,Stratford,922,26
17189,17189,Newham,2021-05-24,LiFE Residential - Royal Wharf,0,"Adriatic Apartments, 20 Western Gateway E16",0,0,pre-owned,325000.0,flat,0,leasehold,1 bed flat for sale,51.508279,0.018637,42.0,1,1,1,2021-05-24,350000.0,0,1,0,Royal Victoria,111,11
17190,17190,Newham,2021-05-24,Spencer James Residential,0,"Felixstowe Court, Galleons Lock E16",0,0,pre-owned,310000.0,flat,0,leasehold,2 bed flat for sale,51.501785,0.071331,59.0,2,2,1,2021-05-24,310000.0,1,1,0,Gallions Reach,823,0
17191,17191,Newham,2021-05-24,Spencer James Residential,0,"Ferndale Street, Beckton E6",0,0,pre-owned,240000.0,flat,0,leasehold,1 bed flat for sale,51.509247,0.066957,52.0,1,1,1,2021-05-24,250000.0,1,1,0,Cyprus,215,2
17192,17192,Newham,2021-05-24,Estates 7,0,"Derby Road, Forest Gate, London E7",0,0,pre-owned,325000.0,flat,0,leasehold,1 bed flat for sale,51.54095,0.039423,61.0,1,1,1,2021-05-24,325000.0,0,0,1,Upton Park,761,6
17193,17193,Newham,2021-05-24,CBRE,0,"High Street, Stratford E15",0,0,pre-owned,600000.0,flat,0,leasehold,3 bed flat for sale,51.530452,-0.013155,87.0,3,2,1,2021-05-24,630000.0,0,1,1,Pudding Mill Lane,455,2
17194,17194,Newham,2021-05-23,CBRE,0,"Bonnet Street, Royal Wharf E16",0,0,pre-owned,600000.0,flat,0,leasehold,2 bed flat for sale,51.498993,0.029755,74.0,2,2,1,2021-05-23,575000.0,1,1,1,Chesham,1472,2
17195,17195,Newham,2021-05-23,Nest Seekers International,0,"Cable Street, London E16",0,0,pre-owned,410000.0,flat,0,leasehold,1 bed flat for sale,51.498828,0.026909,1301.0,1,1,0,2021-05-23,420000.0,1,0,1,Chesham,1616,2
17196,17196,Newham,2021-05-21,One Move Property Group Ltd,1,"Upton Gardens, Upton Park, London E13",0,0,new,499000.0,flat,0,leasehold,2 bed flat for sale,51.533109,0.036822,75.0,2,2,1,2021-05-21,499000.0,1,0,0,Upton Park,258,5
17197,17197,Newham,2021-05-21,Notting Hill Genesis - Royal Albert Wharf,1,"Royal Albert Wharf, The Royal Docks, London E16",0,0,new,752500.0,flat,0,leasehold,3 bed flat for sale,51.506343,0.076005,126.0,3,2,1,2021-05-21,752500.0,1,0,1,Gallions Reach,416,0
17198,17198,Newham,2021-05-21,One Move Property Group Ltd,1,"Upton Gardens, Upton Park, London E13",0,0,new,374000.0,flat,0,leasehold,1 bed flat for sale,51.533109,0.036822,50.0,1,1,1,2021-05-21,399000.0,1,0,0,Upton Park,258,5
17199,17199,Newham,2021-05-21,Notting Hill Genesis - Royal Albert Wharf,1,"Royal Albert Wharf, The Royal Docks, London E16",0,0,new,590000.0,flat,0,leasehold,3 bed flat for sale,51.506343,0.076005,92.0,3,2,0,2021-05-21,590000.0,1,1,0,Gallions Reach,416,0
17200,17200,Newham,2021-05-21,JOHNS&CO - Royal Wharf,0,"Fairwater House, Royal Wharf, London E16",0,0,pre-owned,435000.0,flat,0,Other,1 bed flat for sale,51.49931,0.026151,53.0,1,1,1,2021-05-21,435000.0,1,0,0,Chesham,1536,2
17201,17201,Newham,2021-05-21,JOHNS&CO - Royal Wharf,0,"Windlass House, Royal Wharf, London E16",0,0,pre-owned,500000.0,flat,0,Other,2 bed flat for sale,51.499554,0.027094,1858.0,2,2,1,2021-05-21,500000.0,1,0,1,Chesham,1550,2
17202,17202,Newham,2021-05-21,Ballymore - London City Island,1,"City Island Way, London E14",0,0,new,1250000.0,flat,0,leasehold,4 bed flat for sale,51.513044,0.00699,112.0,4,2,1,2021-05-21,1250000.0,1,0,1,Canning Town,235,11
17203,17203,Newham,2021-05-21,Ballymore - London City Island,1,"Lookout Lane, London E14",0,0,new,600000.0,flat,0,leasehold,1 bed flat for sale,51.513616,0.006903,52.0,1,1,1,2021-05-21,600000.0,0,0,1,Canning Town,189,12
17204,17204,Newham,2021-05-21,Ballymore - London City Island,1,"19 Lyell Street, London E14",0,0,new,661000.0,flat,0,leasehold,2 bed flat for sale,51.512573,0.005948,84.0,2,2,1,2021-05-21,661000.0,1,0,1,Canning Town,283,11
17205,17205,Newham,2021-05-21,Ballymore - London City Island,1,"City Island Way, London E14",0,0,new,780000.0,flat,0,leasehold,2 bed flat for sale,51.513013,0.006989,77.0,2,2,1,2021-05-21,780000.0,1,0,1,Canning Town,237,11
17206,17206,Newham,2021-05-21,Ballymore - London City Island,1,"89 City Island Way, London E14",0,0,new,954000.0,flat,0,leasehold,4 bed flat for sale,51.513605,0.006861,127.0,4,2,1,2021-05-21,954000.0,1,0,1,Canning Town,182,12
17207,17207,Newham,2021-05-21,Ballymore - London City Island,1,"City Island Way, London E14",0,0,new,1050000.0,flat,0,leasehold,3 bed flat for sale,51.513543,0.006973,93.0,3,2,1,2021-05-21,1050000.0,1,0,1,Canning Town,195,12
17208,17208,Newham,2021-05-21,Ballymore - London City Island,1,"City Island Way, London E14",0,0,new,1675000.0,town_house,0,leasehold,3 bed town house for sale,51.512989,0.007043,234.0,3,3,1,2021-05-21,1675000.0,1,0,1,Canning Town,240,11
17209,17209,Newham,2021-05-21,Leaders - Shared Ownership,1,"Atelier Point, 32 Jupp Road West, London E15",0,1,new,117500.0,flat,0,leasehold,2 bed flat for sale,51.537795,-0.003404,6.0,2,1,1,2021-05-21,122500.0,1,0,0,Stratford,712,16
17210,17210,Newham,2021-05-21,Leaders - Shared Ownership,1,"Atelier Point, 32 Jupp Road West, London E15",0,1,new,116250.0,flat,0,leasehold,2 bed flat for sale,51.537795,-0.003404,6.0,2,1,1,2021-05-21,121250.0,1,0,0,Stratford,712,16
17211,17211,Newham,2021-05-20,Property Inside London,0,"Legacy Tower, 88 Great Eastern Road, Stratford, London E15",0,0,pre-owned,625000.0,flat,0,leasehold,2 bed flat for sale,51.542618,-0.001253,86.0,2,2,1,2021-05-20,625000.0,0,0,0,Stratford,700,64
17212,17212,Newham,2021-05-20,CHAMPS UK Property Asset Management,0,"Pendant Court, 4 Shipwright Street E16",0,0,pre-owned,455000.0,flat,0,Other,1 bed flat for sale,51.499719,0.026704,2323.0,1,1,1,2021-05-20,455000.0,0,0,1,Chesham,1500,2
17213,17213,Newham,2021-05-20,MyLondonHome - Canary Wharf,1,"Bridgewater House, London City Island, London E14",0,0,pre-owned,400000.0,studio,0,leasehold,Studio for sale,51.513277,0.006259,39.0,0,1,1,2021-05-20,410000.0,1,0,1,Canning Town,231,11
17214,17214,Newham,2021-05-19,Knight Frank - City & East New Homes,1,"204 St Pier Court, Upton Gardens, Green Street, Upton Park, London E13",0,0,new,540000.0,flat,0,leasehold,3 bed flat for sale,51.532,0.039475,89.0,3,2,1,2021-05-19,540000.0,0,1,1,Upton Park,454,6
17215,17215,Newham,2021-05-19,Knight Frank - City & East New Homes,1,"214 St Pier Court, Upton Gardens, Green Street, Upton Park, London E13",0,0,new,499000.0,flat,0,leasehold,2 bed flat for sale,51.532,0.039475,75.0,2,2,1,2021-05-19,499000.0,0,1,1,Upton Park,454,6
17216,17216,Newham,2021-05-19,Knight Frank - City & East New Homes,1,"205 St Pier Court, Upton Gardens, Green Street, Upton Park, London E13",0,0,new,486000.0,flat,0,leasehold,2 bed flat for sale,51.532,0.039475,69.0,2,2,1,2021-05-19,486000.0,0,1,1,Upton Park,454,6
17217,17217,Newham,2021-05-19,Knight Frank - City & East New Homes,1,"201 St Pier Court, Upton Gardens, Green Street, Upton Park, London E13",0,0,new,399000.0,flat,0,leasehold,1 bed flat for sale,51.532,0.039475,59.0,1,1,1,2021-05-19,399000.0,0,1,1,Upton Park,454,6
17218,17218,Newham,2021-05-19,Knight Frank - City & East New Homes,1,"186 St Pier Court, Upton Gardens, Green Street, Upton Park, London E13",0,0,new,374000.0,flat,0,leasehold,1 bed flat for sale,51.532,0.039475,50.0,1,1,1,2021-05-19,374000.0,0,1,1,Upton Park,454,6
17219,17219,Newham,2021-05-19,JOHNS&CO - Royal Wharf,0,"Fairwater House, Royal Wharf, London E16",0,0,pre-owned,630000.0,flat,0,Other,2 bed flat for sale,51.498681,0.025615,81.0,2,2,1,2021-05-19,650000.0,1,0,0,Chesham,1246,2
17220,17220,Newham,2021-05-19,Savills - Canary Wharf,0,"Morton Apartments, 17 Lock Side Way, Newham, London E16",0,0,pre-owned,500000.0,flat,0,leasehold,2 bed flat for sale,51.505442,0.076094,80.0,2,2,1,2021-05-19,500000.0,1,1,0,Gallions Reach,504,0
17221,17221,Newham,2021-05-19,Estates 7,1,"Essex Street, Forest Gate, London E7",0,0,pre-owned,300000.0,flat,0,leasehold,2 bed flat for sale,51.550247,0.020583,50.0,2,1,1,2021-05-19,300000.0,0,0,1,Chesham,1846,13
17222,17222,Newham,2021-05-19,MyLondonHome - Canary Wharf,1,"Bridgewater House, 96 Lookout Lane, City Island E14",0,0,pre-owned,385000.0,studio,0,leasehold,Studio for sale,51.513586,0.0062,39.0,0,1,1,2021-05-19,390000.0,1,0,1,Canning Town,202,11
17223,17223,Newham,2021-05-19,Barratt London - New Market Place,1,"""Raine House"" at Pilgrims Way, London E6",0,0,new,381995.0,flat,0,leasehold,1 bed flat for sale,51.535022,0.051874,52.0,1,1,1,2021-05-19,381995.0,1,0,1,East Ham,440,9
17224,17224,Newham,2021-05-19,Barratt London - New Market Place,1,"""Raine House"" at Pilgrims Way, London E6",0,0,new,359995.0,flat,0,leasehold,1 bed flat for sale,51.535022,0.051874,57.0,1,1,1,2021-05-19,359995.0,1,0,1,East Ham,440,9
17225,17225,Newham,2021-05-18,Ernest-Brooks International,0,"Liner House, 16 Admiralty Avenue, Royal Wharf E16",0,0,pre-owned,475000.0,flat,0,leasehold,1 bed flat for sale,51.499139,0.030378,1301.0,1,1,1,2021-05-18,475000.0,1,0,0,Prince Regent,1439,2
17226,17226,Newham,2021-05-18,Ernest-Brooks International,0,"Summerston House, Royal Wharf E16",0,0,pre-owned,449000.0,flat,0,Other,2 bed flat for sale,51.500613,0.026194,1301.0,2,1,1,2021-05-18,465000.0,0,0,0,Chesham,1413,2
17227,17227,Newham,2021-05-18,Yopa,0,"Dames Road, London E7",0,0,pre-owned,425000.0,flat,0,leasehold,2 bed flat for sale,51.552863,0.024,70.0,2,1,1,2021-05-18,450000.0,0,0,0,Chesham,1634,12
17228,17228,Newham,2021-05-18,Ernest-Brooks International,1,"Raine House, New Market Place, East Ham E6",0,0,new,355000.0,flat,0,Other,1 bed flat for sale,51.525507,0.058708,57.0,1,1,1,2021-05-18,355000.0,1,0,0,Beckton,966,1
17229,17229,Newham,2021-05-18,JOHNS&CO - Royal Wharf,1,"Corsair House, Royal Wharf, London E16",0,0,new,655000.0,flat,0,Other,2 bed flat for sale,51.501639,0.030851,76.0,2,2,1,2021-05-18,655000.0,1,0,0,Prince Regent,1257,3
17230,17230,Newham,2021-05-18,Tyron Ash,0,"Stopford Road, Plaistow E13",0,0,pre-owned,750000.0,semi_detached,0,Other,6 bed semi-detached house for sale,51.535892,0.021992,213.0,6,2,3,2021-05-18,750000.0,0,1,0,Plaistow,667,3
17231,17231,Newham,2021-05-18,"Purplebricks, Head Office",0,"Sandford Road, London E6",0,0,pre-owned,550000.0,terraced,0,freehold,5 bed terraced house for sale,51.525029,0.053054,124.0,5,1,2,2021-05-18,575000.0,0,0,1,Beckton,1106,1
17232,17232,Newham,2021-05-18,JOHNS&CO - Royal Wharf,0,"Barrier Point Road, Royal Docks, London E16",0,0,pre-owned,600000.0,flat,0,Other,2 bed flat for sale,51.499922,0.031837,80.0,2,2,1,2021-05-18,625000.0,1,1,1,Prince Regent,1418,2
17233,17233,Newham,2021-05-17,CBRE,1,"Galyon Point, Gallions Place, Royal Albert Wharf E16",0,0,new,515000.0,flat,0,Other,2 bed flat for sale,51.507586,0.07185,74.0,2,2,1,2021-05-17,510000.0,1,0,0,Gallions Reach,248,0
17234,17234,Newham,2021-05-17,CBRE,1,"Galyon Point, Gallions Place, Royal Albert Wharf E16",0,0,new,505000.0,flat,0,Other,2 bed flat for sale,51.50768,0.071893,72.0,2,2,1,2021-05-17,510000.0,1,0,0,Gallions Reach,120,0
17235,17235,Newham,2021-05-17,CBRE,1,"Galyon Point, Gallions Place, Royal Albert Wharf E16",0,0,new,372500.0,flat,0,Other,1 bed flat for sale,51.50768,0.071893,51.0,1,1,1,2021-05-17,372500.0,1,0,0,Gallions Reach,120,0
17236,17236,Newham,2021-05-17,CBRE,1,"Galyon Point, Gallions Place, Royal Albert Wharf E16",0,0,new,605000.0,flat,0,Other,3 bed flat for sale,51.507693,0.071958,88.0,3,2,1,2021-05-17,605000.0,1,0,0,Gallions Reach,244,0
17237,17237,Newham,2021-05-17,CBRE,1,"Galyon Point, Gallions Place, Royal Albert Wharf E16",0,0,new,360000.0,flat,0,Other,1 bed flat for sale,51.50764,0.071893,50.0,1,1,1,2021-05-17,360000.0,1,0,0,Gallions Reach,247,0
17238,17238,Newham,2021-05-17,CBRE,1,"Galyon Point, Gallions Place, Royal Albert Wharf E16",0,0,new,400000.0,flat,0,Other,1 bed flat for sale,51.507613,0.071936,53.0,1,1,1,2021-05-17,400000.0,1,0,0,Gallions Reach,244,0
17239,17239,Newham,2021-05-17,Madison Brook International E16,0,"Balearic Apartments, London E16",0,0,pre-owned,585000.0,flat,0,Other,2 bed flat for sale,51.507701,0.020307,97.0,2,2,1,2021-05-17,585000.0,0,1,1,Royal Victoria,201,14
17240,17240,Newham,2021-05-17,Keller Williams Prime Properties,1,"Evan House Canning Town, London E16",0,0,pre-owned,425000.0,flat,0,leasehold,2 bed flat for sale,51.515259,0.021236,38.0,2,2,1,2021-05-17,439995.0,1,0,0,Royal Victoria,703,2
17241,17241,Newham,2021-05-17,Vesper Group,0,"Esk Road, Plaistow, London E13",0,0,pre-owned,910000.0,land,0,freehold,Land for sale,51.521999,0.023824,122.0,0,0,0,2021-05-17,910000.0,0,1,0,Plaistow,978,8
17242,17242,Newham,2021-05-14,JLL - Stratford,0,"Great Eastern Road, London E15",0,0,pre-owned,450000.0,flat,0,leasehold,1 bed flat for sale,51.542733,-0.001485,44.0,1,1,1,2021-05-14,450000.0,0,0,0,Stratford,745,62
17243,17243,Newham,2021-05-14,LRC - London Sales and Letting Agency,1,"Penge Road, Upton Park, London E13",0,0,new,482000.0,flat,0,leasehold,2 bed flat for sale,51.536494,0.032445,78.0,2,2,1,2021-05-14,482000.0,1,0,1,Upton Park,309,8
17244,17244,Newham,2021-05-14,JOHNS&CO - Royal Wharf,0,"Mercier Court, Royal Wharf, London E16",0,0,pre-owned,550000.0,flat,0,Other,2 bed flat for sale,51.501748,0.03025,79.0,2,2,1,2021-05-14,550000.0,1,0,0,Chesham,1291,3
17245,17245,Newham,2021-05-14,Vesta Property,0,"Grange Road, London E13",0,0,pre-owned,265000.0,flat,0,leasehold,1 bed flat for sale,51.524906,0.022832,43.0,1,1,1,2021-05-14,265000.0,1,0,0,Plaistow,656,6
17246,17246,Newham,2021-05-13,LiFE Residential - Royal Wharf,1,"Barrier Point Road, Royal Docks, London E16",0,0,pre-owned,475000.0,flat,0,Other,2 bed flat for sale,51.501217,0.031931,73.0,2,2,1,2021-05-13,500000.0,1,1,0,Prince Regent,1251,3
17247,17247,Newham,2021-05-13,Savills - Canary Wharf,0,"Flotilla House, 12 Cable Street, London E16",0,0,pre-owned,425000.0,flat,0,leasehold,1 bed flat for sale,51.498841,0.026721,56.0,1,1,1,2021-05-13,425000.0,1,0,1,Chesham,1610,2
17248,17248,Newham,2021-05-13,Madison Brook International E16,0,"The Oxygen Apartments, Royal Victoria Dock E16",0,0,pre-owned,480000.0,flat,0,Other,2 bed flat for sale,51.508445,0.019408,73.0,2,2,1,2021-05-13,500000.0,0,0,0,Royal Victoria,131,15
17249,17249,Newham,2021-05-13,JLL - Canary Wharf,0,"Lyell Street, London E14",0,0,pre-owned,385000.0,studio,0,leasehold,Studio for sale,51.512554,0.005899,39.0,0,1,1,2021-05-13,385000.0,1,0,0,Canning Town,283,11
17250,17250,Newham,2021-05-12,Strawberry Star - Nine Elms,0,"Hoola, 3 Tidal Basin, London E16",0,0,pre-owned,675000.0,flat,0,leasehold,2 bed flat for sale,51.508381,0.015412,7.0,2,0,0,2021-05-12,675000.0,1,0,0,Royal Victoria,221,8
17251,17251,Newham,2021-05-12,Ernest-Brooks International,0,"Stratosphere Tower, Stratford E15",0,0,pre-owned,459000.0,flat,0,leasehold,1 bed flat for sale,51.541693,-0.003737,52.0,1,1,1,2021-05-12,459000.0,0,0,1,Stratford,160,54
17252,17252,Newham,2021-05-12,Keatons - Stratford,0,"Spectacle Works, 1A Jedburgh Road, London E13",0,0,pre-owned,325000.0,flat,0,leasehold,1 bed flat for sale,51.527057,0.032126,72.0,1,1,1,2021-05-12,340000.0,0,1,0,Upton Park,840,3
17253,17253,Newham,2021-05-12,Outlook Property - Docklands/Excel,0,"Western Gateway, Royal Docks, London E16",0,0,pre-owned,750000.0,flat,0,Other,2 bed flat for sale,51.507565,0.021502,114.0,2,1,1,2021-05-12,750000.0,1,1,0,Royal Victoria,256,14
17254,17254,Newham,2021-05-11,Savills - Canary Wharf RDS,1,"Royal Albert Wharf, Docklands, London E16",0,0,new,735000.0,flat,0,Other,3 bed flat for sale,51.503943,0.073864,123.0,3,1,1,2021-05-11,735000.0,1,0,1,Gallions Reach,661,0
17255,17255,Newham,2021-05-11,Keatons - Royal Docks,0,"Montague House, 10 Wesley Avenue, London E16",0,0,pre-owned,360000.0,flat,0,leasehold,2 bed flat for sale,51.504611,0.024311,61.0,2,1,1,2021-05-11,360000.0,0,1,0,Chesham,761,12
17256,17256,Newham,2021-05-11,JOHNS&CO - Royal Wharf,1,"Marco Polo Tower, Royal Wharf, London E16",0,0,new,670000.0,flat,0,Other,2 bed flat for sale,51.5022758906883,0.0501222591093117,72.0,2,2,1,2021-05-11,670000.0,1,0,0,Royal Albert,1246,4
17257,17257,Newham,2021-05-10,CBRE,1,"Defoe House, London City Island, Docklands E14",0,0,new,925000.0,flat,0,leasehold,3 bed flat for sale,51.513093,0.006477,90.0,3,2,1,2021-05-10,925000.0,1,0,1,Canning Town,242,11
17258,17258,Newham,2021-05-10,Hamptons - Canary Wharf Sales,1,"Rathbone Market, Barking Road, London E16",0,0,pre-owned,430000.0,flat,0,leasehold,2 bed flat for sale,51.516454,0.011387,73.0,2,2,1,2021-05-10,450000.0,1,0,0,Canning Town,369,17
17259,17259,Newham,2021-05-07,Chestertons - Canary Wharf,0,"Hastings Road, London E16",0,0,pre-owned,400000.0,maisonette,0,leasehold,2 bed maisonette for sale,51.515601,0.020604,69.0,2,1,1,2021-05-07,400000.0,1,1,1,Royal Victoria,741,4
17260,17260,Newham,2021-05-07,Keatons - Stratford,1,"Church Street, Stratford, London E15",0,0,new,345000.0,flat,0,leasehold,1 bed flat for sale,51.535868,0.010817,49.0,1,1,1,2021-05-07,345000.0,0,0,0,Plaistow,807,16
17261,17261,Newham,2021-05-07,"Purplebricks, Head Office",0,"1A Jedburgh Road, London E13",0,0,pre-owned,310000.0,flat,0,leasehold,1 bed flat for sale,51.527057,0.032126,61.0,1,1,1,2021-05-07,310000.0,0,1,0,Upton Park,840,3
17262,17262,Newham,2021-05-06,CBRE,1,"Brunel Street Works, Canning Town E16",0,0,new,495000.0,flat,0,leasehold,1 bed flat for sale,51.51205,0.01063,54.0,1,0,0,2021-05-06,495000.0,0,0,0,Canning Town,259,10
17263,17263,Newham,2021-05-06,Advanced Investment Management,0,"Buckingham Road, London E15",0,0,pre-owned,375000.0,maisonette,0,leasehold,3 bed maisonette for sale,51.550443,0.011474,87.0,3,2,1,2021-05-06,400000.0,0,1,1,Chesham,1395,17
17264,17264,Newham,2021-05-05,Madison Brook International E16,0,"The Grainstore, Royal Victoria Dock E16",0,1,pre-owned,159916.0,flat,0,Other,3 bed flat for sale,51.508869,0.023129,99.0,3,1,1,2021-05-05,160000.0,0,0,0,Custom House,223,14
17265,17265,Newham,2021-05-05,Notting Hill Genesis - Royal Albert Wharf,1,"Royal Albert Wharf, The Royal Docks, London E16",0,0,new,735000.0,flat,0,leasehold,3 bed flat for sale,51.506343,0.076005,123.0,3,2,1,2021-05-05,735000.0,1,0,0,Gallions Reach,416,0
17266,17266,Newham,2021-05-05,Urban Moves,0,"Katie Court, 7 Edwin Street, London E16",0,1,pre-owned,166250.0,flat,0,Other,2 bed flat for sale,51.51612,0.018681,70.0,2,0,0,2021-05-05,166250.0,1,1,0,Chesham,695,10
17267,17267,Newham,2021-05-05,JOHNS&CO - Royal Wharf,0,"Rope Terrace, Royal Wharf, London E16",0,0,pre-owned,875000.0,terraced,0,Other,3 bed terraced house for sale,51.500375,0.030088,118.0,3,3,1,2021-05-05,875000.0,1,1,1,Chesham,1386,2
17268,17268,Newham,2021-05-05,The Stow Brothers,1,"Harcourt Avenue, London E12",0,0,pre-owned,485000.0,semi_detached,0,leasehold,3 bed semi-detached house for sale,51.550727,0.056393,11.0,3,1,1,2021-05-05,485000.0,0,0,1,East Ham,1293,3
17269,17269,Newham,2021-05-04,Ludlow Thompson - Docklands,1,"High Street, London E15",0,0,pre-owned,465000.0,flat,0,leasehold,2 bed flat for sale,51.530181,-0.013728,87.0,2,2,1,2021-05-04,475000.0,1,0,0,Pudding Mill Lane,516,2
17270,17270,Newham,2021-05-04,LiFE Residential - Royal Wharf,0,"The Oxygen, 18 Western Gateway, London E16",0,0,pre-owned,550000.0,flat,0,leasehold,2 bed flat for sale,51.508332,0.019301,81.0,2,2,1,2021-05-04,550000.0,1,0,0,Royal Victoria,93,14
17271,17271,Newham,2021-05-04,Charles Henry Peppiatt Ltd,0,"Skelley Road, Stratford E15",0,0,pre-owned,675000.0,town_house,0,freehold,4 bed town house for sale,51.539721,0.012674,115.0,4,2,1,2021-05-04,700000.0,0,0,0,Plaistow,1122,11
17272,17272,Newham,2021-05-04,Elliot Leigh Residential,1,"Mercier Court, Royal Wharf, London E16",0,0,pre-owned,425000.0,flat,0,freehold,1 bed flat for sale,51.501831,0.030384,56.0,1,1,1,2021-05-04,425000.0,0,0,0,Prince Regent,1269,3
17273,17273,Newham,2021-05-04,Filtons,0,"Romford Road, London E15",0,0,pre-owned,325000.0,flat,0,leasehold,1 bed flat for sale,51.542094,0.006433,50.0,1,1,1,2021-05-04,325000.0,0,0,1,Stratford,1102,33
17274,17274,Newham,2021-05-01,"Purplebricks, Head Office",0,"Buckingham Road, London E15",0,0,pre-owned,375000.0,maisonette,0,leasehold,3 bed maisonette for sale,51.550443,0.011474,87.0,3,1,1,2021-05-01,375000.0,0,1,1,Chesham,1395,17
17275,17275,Newham,2021-04-30,LiFE Residential - Royal Wharf,0,"The Oxygen, 18 Western Gateway E16",0,0,pre-owned,360000.0,flat,0,leasehold,1 bed flat for sale,51.508332,0.019301,53.0,1,1,1,2021-04-30,360000.0,1,0,0,Royal Victoria,93,14
17276,17276,Newham,2021-04-30,LRC - London Sales and Letting Agency,1,"Penge Road, Upton Park, London E13",0,0,new,485000.0,flat,0,leasehold,2 bed flat for sale,51.536494,0.032445,78.0,2,2,1,2021-04-30,485000.0,1,0,1,Upton Park,309,8
17277,17277,Newham,2021-04-30,Keatons - Royal Docks,0,"Lancaster Hall, 4 Wesley Avenue, London E16",0,0,pre-owned,365000.0,flat,0,leasehold,2 bed flat for sale,51.50466,0.020999,55.0,2,1,1,2021-04-30,375000.0,0,1,0,Royal Victoria,598,12
17278,17278,Newham,2021-04-30,LiFE Residential - Royal Wharf,0,"Sovereign Tower, 1 Emily Street, London E16",0,0,pre-owned,295000.0,studio,0,leasehold,Studio for sale,51.511525,0.012193,37.0,0,1,1,2021-04-30,300000.0,1,0,1,Canning Town,354,8
17279,17279,Newham,2021-04-29,Savills - Canary Wharf RDS,1,"Royal Albert Wharf, Docklands, London E16",0,0,new,390000.0,flat,0,leasehold,1 bed flat for sale,51.5062,0.075422,52.0,1,1,1,2021-04-29,390000.0,1,0,0,Gallions Reach,415,0
17280,17280,Newham,2021-04-29,Vanquish Real Estate,1,"Western Gateway, Royal Docks West E16",0,0,new,558000.0,flat,0,leasehold,2 bed flat for sale,51.50807,0.021976,70.0,2,2,1,2021-04-29,588000.0,1,0,0,Royal Victoria,250,14
17281,17281,Newham,2021-04-29,JLL - Canary Wharf,1,"Western Gateway, London E16",0,0,new,550000.0,flat,0,leasehold,2 bed flat for sale,51.508408,0.022145,70.0,2,2,1,2021-04-29,550000.0,1,0,1,Royal Victoria,274,14
17282,17282,Newham,2021-04-29,Wilkinson Estate Agents,0,"Clova Road, London E7",0,0,pre-owned,860000.0,Other,0,Other,4 bed property for sale,51.546169,0.017239,121.0,4,2,3,2021-04-29,890000.0,0,1,1,Chesham,1711,5
17283,17283,Newham,2021-04-29,Barratt London - Upton Gardens,1,"""St Pier Court"" at 1 Academy House, Thunderer Street, London E13",0,0,new,486000.0,flat,0,leasehold,2 bed flat for sale,51.53246,0.037413,69.0,2,1,1,2021-04-29,486000.0,1,0,1,Upton Park,308,5
17284,17284,Newham,2021-04-29,Barratt London - Upton Gardens,1,"""St Pier Court"" at 1 Academy House, Thunderer Street, London E13",0,0,new,399000.0,flat,0,leasehold,1 bed flat for sale,51.53246,0.037413,58.0,1,1,1,2021-04-29,399000.0,1,0,1,Upton Park,308,5
17285,17285,Newham,2021-04-28,Keatons - Stratford,0,"Azure Building, 59 Great Eastern Road, London E15",0,0,pre-owned,425000.0,flat,0,leasehold,1 bed flat for sale,51.539961,-0.00028,52.0,1,1,1,2021-04-28,450000.0,1,0,1,Stratford,842,44
17286,17286,Newham,2021-04-28,JOHNS&CO - Royal Wharf,0,"Mercier Court, Royal Wharf, London E16",0,0,pre-owned,625000.0,flat,0,Other,2 bed flat for sale,51.501652,0.030852,86.0,2,2,1,2021-04-28,625000.0,0,0,0,Prince Regent,1256,3
17287,17287,Newham,2021-04-27,LiFE Residential - Royal Wharf,0,"Barking Road, Plaistow, London E13",0,0,pre-owned,475000.0,flat,0,leasehold,2 bed flat for sale,51.517377,0.011897,96.0,2,2,1,2021-04-27,475000.0,1,0,1,Canning Town,368,17
17288,17288,Newham,2021-04-27,Ernest-Brooks International,0,"Liner House, 2 Royal Wharf Walk E16",0,0,pre-owned,975000.0,flat,0,leasehold,3 bed flat for sale,51.499234,0.030597,126.0,3,2,1,2021-04-27,995000.0,1,1,1,Prince Regent,1427,2
17289,17289,Newham,2021-04-26,Madison Brook International E16,0,"Commodore House, Royal Wharf E16",0,0,pre-owned,575000.0,flat,0,Other,2 bed flat for sale,51.501205,0.028955,74.0,2,2,1,2021-04-26,575000.0,1,0,0,Chesham,1389,3
17290,17290,Newham,2021-04-25,Pioneer Property Group,1,"Manor Road, London E15",0,0,new,855000.0,flat,0,leasehold,3 bed flat for sale,51.5328985460123,0.0092343558282208,95.0,3,2,1,2021-04-25,855000.0,0,0,1,West Ham,582,12
17291,17291,Newham,2021-04-25,Pioneer Property Group,1,"Manor Road, London E15",0,0,new,680000.0,flat,0,leasehold,2 bed flat for sale,51.5328985460123,0.0092343558282208,80.0,2,2,1,2021-04-25,680000.0,0,0,1,West Ham,582,12
17292,17292,Newham,2021-04-25,Pioneer Property Group,1,"Manor Road, London E15",0,0,new,485000.0,flat,0,leasehold,1 bed flat for sale,51.5328985460123,0.0092343558282208,60.0,1,1,1,2021-04-25,485000.0,0,0,1,West Ham,582,12
17293,17293,Newham,2021-04-25,Pioneer Property Group,1,"Manor Road, London E15",0,0,new,440000.0,studio,0,leasehold,Studio for sale,51.5328985460123,0.0092343558282208,44.0,0,1,1,2021-04-25,440000.0,0,0,1,West Ham,582,12
17294,17294,Newham,2021-04-25,Pioneer Property Group,1,"North Woolwich, London E16",0,0,new,600000.0,flat,0,leasehold,3 bed flat for sale,51.499689,0.063211,86.0,3,2,1,2021-04-25,600000.0,1,0,0,Cyprus,1389,3
17295,17295,Newham,2021-04-25,Pioneer Property Group,1,"Thames Rd, Royal Docks, London E16",0,0,new,495000.0,flat,0,leasehold,2 bed flat for sale,51.502282,0.038343,70.0,2,2,1,2021-04-25,495000.0,1,0,0,Chesham,862,0
17296,17296,Newham,2021-04-25,Pioneer Property Group,1,"North Woolwich, London E16",0,0,new,377000.0,flat,0,leasehold,1 bed flat for sale,51.499689,0.063211,51.0,1,1,1,2021-04-25,377000.0,1,0,0,Cyprus,1389,3
17297,17297,Newham,2021-04-25,Pioneer Property Group,1,"North Woolwich, Royal Docks, London E16",0,0,new,365000.0,studio,0,leasehold,Studio for sale,51.499689,0.063211,46.0,0,1,1,2021-04-25,365000.0,1,0,0,Cyprus,1389,3
17298,17298,Newham,2021-04-23,CBRE,1,"The Wellspring, Royal Eden Docks, Royal Docks E16",0,0,new,497500.0,flat,0,Other,1 bed flat for sale,51.508763,0.026027,57.0,1,1,1,2021-04-23,497500.0,1,0,1,Custom House,127,13
17299,17299,Newham,2021-04-23,Wisdom Estates,0,"West Tower, 1 Tidal Basin Road, Silverton, London E16",0,0,pre-owned,610000.0,flat,0,leasehold,2 bed flat for sale,51.508461,0.015275,7.0,2,2,1,2021-04-23,605000.0,1,1,1,Royal Victoria,239,9
17300,17300,Newham,2021-04-23,Spencer James Residential,0,"Lowestoft Mews, Galleons Lock E16",0,0,pre-owned,284995.0,flat,0,share_of_freehold,1 bed flat for sale,51.499866,0.070164,50.0,1,1,1,2021-04-23,285000.0,1,1,0,Gallions Reach,819,2
17301,17301,Newham,2021-04-23,Winkworth - Bow,1,"Western Gateway, London E16",0,0,pre-owned,360000.0,flat,0,leasehold,1 bed flat for sale,51.508331,0.019274,53.0,1,1,1,2021-04-23,360000.0,1,0,0,Royal Victoria,93,14
17302,17302,Newham,2021-04-23,Winkworth - Bow,1,"Western Gateway, London E16",0,0,pre-owned,550000.0,flat,0,leasehold,2 bed flat for sale,51.508331,0.019274,81.0,2,1,1,2021-04-23,550000.0,1,0,0,Royal Victoria,93,14
17303,17303,Newham,2021-04-23,Winkworth - Bow,1,"Western Gateway, London E16",0,0,new,360000.0,flat,0,leasehold,1 bed flat for sale,51.508331,0.019274,53.0,1,1,1,2021-04-23,360000.0,1,0,0,Royal Victoria,93,14
17304,17304,Newham,2021-04-23,Winkworth - Bow,1,"Western Gateway, London E16",0,0,new,550000.0,flat,0,leasehold,2 bed flat for sale,51.508331,0.019274,81.0,2,1,1,2021-04-23,550000.0,1,0,0,Royal Victoria,93,14
17305,17305,Newham,2021-04-21,Fraser & Co - City,1,"Discovery Tower, Canning Town E16",0,0,new,640000.0,flat,0,leasehold,2 bed flat for sale,51.514432,0.011456,74.0,2,2,1,2021-04-21,640000.0,1,0,1,Canning Town,375,13
17306,17306,Newham,2021-04-21,Prime London (Central and Riverside),1,"Townhouse, Starboard Way, Royal Wharf E16",0,0,pre-owned,820000.0,terraced,0,leasehold,4 bed terraced house for sale,51.5005,0.03081,164.0,4,2,1,2021-04-21,820000.0,1,1,1,Prince Regent,1351,2
17307,17307,Newham,2021-04-21,Vesper Group,0,"Bawley Court, Atlantis Avenue, London E16",0,0,pre-owned,425000.0,flat,0,Other,2 bed flat for sale,51.507758,0.078021,70.0,2,2,1,2021-04-21,375000.0,1,0,0,Gallions Reach,420,0
17308,17308,Newham,2021-04-20,Redrow - Pontoon Reach,1,"Thames Road, London E16",0,0,new,590000.0,flat,0,leasehold,3 bed flat for sale,51.502282,0.038343,86.0,3,2,0,2021-04-20,590000.0,1,0,1,Chesham,862,0
17309,17309,Newham,2021-04-20,Redrow - Pontoon Reach,1,"Thames Road, London E16",0,0,new,500000.0,flat,0,leasehold,2 bed flat for sale,51.502282,0.038343,68.0,2,2,0,2021-04-20,500000.0,1,0,1,Chesham,862,0
17310,17310,Newham,2021-04-20,Hawks,0,"Balaam Street, London E13",0,0,pre-owned,335000.0,flat,0,Other,1 bed flat for sale,51.528545,0.024157,65.0,1,1,1,2021-04-20,350000.0,0,0,1,Plaistow,511,4
17311,17311,Newham,2021-04-20,Idasons,1,"Apartment, Tidal Basin Road, London E16",0,0,new,1150000.0,flat,0,leasehold,3 bed flat for sale,51.50838,0.015384,110.0,3,2,1,2021-04-20,1150000.0,1,0,0,Royal Victoria,220,8
17312,17312,Newham,2021-04-19,Nested Ltd,0,"Taylor House, Upton Park, London E13",0,0,pre-owned,475000.0,flat,0,leasehold,3 bed flat for sale,51.532622,0.038528,90.0,3,2,1,2021-04-19,500000.0,1,0,0,Upton Park,370,6
17313,17313,Newham,2021-04-19,Ernest-Brooks International,0,"Parkside Court, 15 Booth Road E16",0,0,pre-owned,560000.0,flat,0,leasehold,2 bed flat for sale,51.500984,0.036333,79.0,2,2,1,2021-04-19,560000.0,0,1,0,Prince Regent,1133,2
17314,17314,Newham,2021-04-18,DRE Residential,1,"Pontoon Reach, Thames Rd, Royal Docks E16",0,0,new,500000.0,flat,0,leasehold,2 bed flat for sale,51.501828,0.039214,70.0,2,2,1,2021-04-18,500000.0,1,0,1,Chesham,862,1
17315,17315,Newham,2021-04-17,Hawks,1,"Great Eastern Road, London E15",0,0,new,599500.0,flat,0,Other,2 bed flat for sale,51.540699,-0.001832,72.0,2,2,1,2021-04-17,599500.0,0,0,0,Stratford,743,59
17316,17316,Newham,2021-04-16,Outlook Property - Stratford,0,"Turnstone Close, Plaistow, London E13",0,0,pre-owned,625000.0,end_terrace,0,freehold,4 bed end terrace house for sale,51.526397,0.018356,139.0,4,2,1,2021-04-16,625000.0,0,1,1,Plaistow,583,7
17317,17317,Newham,2021-04-16,Barratt London - New Market Place,1,"""Raine House"" at Pilgrims Way, London E6",0,0,new,338995.0,flat,0,leasehold,1 bed flat for sale,51.535022,0.051874,51.0,1,1,1,2021-04-16,338995.0,1,0,1,East Ham,440,9
17318,17318,Newham,2021-04-15,DRE Residential,1,"Pontoon Reach, Thames Rd, Royal Docks E16",0,0,new,372500.0,flat,0,leasehold,1 bed flat for sale,51.501828,0.039214,51.0,1,1,1,2021-04-15,372500.0,1,0,1,Chesham,862,1
17319,17319,Newham,2021-04-15,Madison Brook International E16,0,"Tidal Basin Road, Royal Victoria Dock E16",0,0,pre-owned,595000.0,flat,0,Other,2 bed flat for sale,51.50838,0.015412,83.0,2,2,1,2021-04-15,595000.0,1,0,0,Royal Victoria,221,8
17320,17320,Newham,2021-04-15,JLL - Canary Wharf,0,"Schooner Road, London E16",0,0,pre-owned,575000.0,flat,0,leasehold,2 bed flat for sale,51.499738,0.028461,74.0,2,2,1,2021-04-15,599000.0,1,0,0,Chesham,1483,2
17321,17321,Newham,2021-04-14,Nested Ltd,0,"Corporation Street, Stratford, London E15",0,0,pre-owned,350000.0,flat,0,leasehold,2 bed flat for sale,51.530445,0.008732,63.0,2,0,0,2021-04-14,350000.0,0,0,1,West Ham,360,6
17322,17322,Newham,2021-04-14,CBRE,0,"Hammersley Road, London E16",0,0,pre-owned,450000.0,flat,0,leasehold,2 bed flat for sale,51.516899,0.019755,66.0,2,1,1,2021-04-14,485000.0,1,0,0,Royal Victoria,923,7
17323,17323,Newham,2021-04-14,"Purplebricks, Head Office",0,"Western Road, London E13",0,0,pre-owned,650000.0,terraced,0,freehold,5 bed terraced house for sale,51.532139,0.032049,170.0,5,2,1,2021-04-14,650000.0,1,0,1,Upton Park,330,6
17324,17324,Newham,2021-04-13,Madison Brook International E16,0,"The Oxygen Apartments, Royal Victoria Dock E16",0,0,pre-owned,360000.0,flat,0,Other,1 bed flat for sale,51.50825,0.019153,55.0,1,1,1,2021-04-13,360000.0,1,0,0,Royal Victoria,98,13
17325,17325,Newham,2021-04-13,Madison Brook International E16,0,"The Oxygen Apartments, Royal Victoria Dock E16",0,0,pre-owned,550000.0,flat,0,Other,2 bed flat for sale,51.508445,0.019408,81.0,2,2,1,2021-04-13,550000.0,1,0,0,Royal Victoria,131,15
17326,17326,Newham,2021-04-13,Nested Ltd,0,"Pendant Court, Royal Wharf, London E16",0,0,pre-owned,695000.0,flat,0,leasehold,3 bed flat for sale,51.499751,0.026687,102.0,3,2,2,2021-04-13,725000.0,1,0,0,Chesham,1497,2
17327,17327,Newham,2021-04-13,London Move,1,"Cranbourne Road, Leyton E15",0,0,pre-owned,500000.0,terraced,0,freehold,3 bed terraced house for sale,51.55342,-0.006455,70.0,3,1,2,2021-04-13,515000.0,0,0,1,Leyton,324,6
17328,17328,Newham,2021-04-12,Keatons - Stratford,1,"Gerry Raffles Square, Stratford, London E15",0,0,pre-owned,295000.0,flat,0,leasehold,1 bed flat for sale,51.542587,0.000225,46.0,1,1,1,2021-04-12,300000.0,1,0,0,Stratford,837,46
17329,17329,Newham,2021-04-12,Capital Stay,0,"130 Barking Road, London E16",0,0,pre-owned,443000.0,flat,0,leasehold,2 bed flat for sale,51.516518,0.011297,74.0,2,2,1,2021-04-12,430000.0,1,1,0,Canning Town,369,17
17330,17330,Newham,2021-04-12,Vantage Properties & Management Ltd,0,"Mercier Court, 3 Starboard Way, Royal Wharf E16",0,0,pre-owned,425000.0,flat,0,leasehold,1 bed flat for sale,51.50183,0.030548,55.0,1,1,1,2021-04-12,450000.0,1,0,0,Prince Regent,1250,3
17331,17331,Newham,2021-04-11,Pioneer Property Group,1,"Manor Road, London E15",0,0,new,857000.0,flat,0,leasehold,3 bed flat for sale,51.5328985460123,0.0092343558282208,95.0,3,2,1,2021-04-11,857000.0,0,0,1,West Ham,582,12
17332,17332,Newham,2021-04-11,Pioneer Property Group,1,"Manor Road, London E15",0,0,new,685000.0,flat,0,leasehold,2 bed flat for sale,51.5328985460123,0.0092343558282208,80.0,2,2,1,2021-04-11,685000.0,0,0,1,West Ham,582,12
17333,17333,Newham,2021-04-11,Pioneer Property Group,1,"North Woolwich, London E16",0,0,new,377500.0,flat,0,leasehold,1 bed flat for sale,51.499689,0.063211,50.0,1,1,1,2021-04-11,377500.0,1,0,0,Cyprus,1389,3
17334,17334,Newham,2021-04-11,Pioneer Property Group,1,"Manor Road, London E15",0,0,new,445000.0,studio,0,leasehold,Studio for sale,51.5328985460123,0.0092343558282208,44.0,0,1,1,2021-04-11,445000.0,0,0,1,West Ham,582,12
17335,17335,Newham,2021-04-11,Pioneer Property Group,1,"North Woolwich, London E16",0,0,new,370000.0,studio,0,leasehold,Studio for sale,51.499689,0.063211,46.0,0,1,1,2021-04-11,370000.0,1,0,0,Cyprus,1389,3
17336,17336,Newham,2021-04-11,Pioneer Property Group,1,"North Woolwich, London E16",0,0,new,605000.0,flat,0,leasehold,3 bed flat for sale,51.499689,0.063211,86.0,3,2,1,2021-04-11,605000.0,1,0,0,Cyprus,1389,3
17337,17337,Newham,2021-04-11,Pioneer Property Group,1,"Manor Road, London E15",0,0,new,485000.0,flat,0,leasehold,1 bed flat for sale,51.5328985460123,0.0092343558282208,60.0,1,1,1,2021-04-11,485000.0,0,0,1,West Ham,582,12
17338,17338,Newham,2021-04-11,Pioneer Property Group,1,"North Woolwich, London E16",0,0,new,500000.0,flat,0,leasehold,2 bed flat for sale,51.499689,0.063211,70.0,2,2,1,2021-04-11,500000.0,1,0,0,Cyprus,1389,3
17339,17339,Newham,2021-04-10,Petty Son & Prestwich,1,"Aldersbrook Road, London E12",0,0,pre-owned,325000.0,flat,0,Other,2 bed flat for sale,51.562614,0.034208,69.0,2,1,1,2021-04-10,400000.0,0,1,1,Wanstead,1772,0
17340,17340,Newham,2021-04-10,Ballymore - London City Island,1,"123 City Island Way, London E14",0,0,new,545000.0,flat,0,leasehold,1 bed flat for sale,51.513041,0.006967,52.0,1,1,1,2021-04-10,545000.0,0,0,1,Canning Town,235,11
17341,17341,Newham,2021-04-10,JLL - Stratford,0,"Great Eastern Road, London E15",0,0,pre-owned,465000.0,flat,0,leasehold,1 bed flat for sale,51.540154,-0.00056,53.0,1,1,1,2021-04-10,465000.0,1,0,1,Stratford,785,48
17342,17342,Newham,2021-04-09,Strike,1,"Becket Avenue, London E6",0,0,pre-owned,475000.0,terraced,0,freehold,4 bed terraced house for sale,51.525765,0.062532,93.0,4,3,2,2021-04-09,495000.0,1,0,1,Beckton,1082,2
17343,17343,Newham,2021-04-09,JOHNS&CO - New Providence Wharf,0,"Amelia House, London City Island, London E14",0,0,pre-owned,465000.0,flat,0,Other,1 bed flat for sale,51.513524,0.006222,52.0,1,1,1,2021-04-09,465000.0,1,0,1,Canning Town,201,11
17344,17344,Newham,2021-04-09,JOHNS&CO - Royal Wharf,0,"Liner House, Royal Wharf, London E16",0,0,pre-owned,550000.0,flat,0,Other,1 bed flat for sale,51.500969,0.030547,76.0,1,1,1,2021-04-09,479950.0,1,0,1,Prince Regent,1319,3
17345,17345,Newham,2021-04-08,Strawberry Star - Nine Elms,0,"Hoola, 3 Tidal Basin Road, Royal Docks, London E16",0,0,pre-owned,435000.0,flat,0,leasehold,1 bed flat for sale,51.508462,0.015275,56.0,1,1,1,2021-04-08,435000.0,1,0,0,Royal Victoria,239,9
17346,17346,Newham,2021-04-08,Strawberry Star - Nine Elms,0,"Hoola, 1 Tidal Basin Road, Royal Docks, London E16",0,0,pre-owned,440000.0,flat,0,leasehold,1 bed flat for sale,51.508329,0.014747,56.0,1,1,1,2021-04-08,440000.0,1,0,0,Royal Victoria,223,8
17347,17347,Newham,2021-04-08,JLL - Stratford,1,"Great Eastern Road, London E15",0,0,pre-owned,500000.0,flat,0,leasehold,1 bed flat for sale,51.542733,-0.001485,50.0,1,1,1,2021-04-08,500000.0,0,0,0,Stratford,745,62
17348,17348,Newham,2021-04-08,Telford Homes - Gallions Point,1,"Atlantis Avenue, Newham E16",0,0,new,348750.0,flat,0,leasehold,1 bed flat for sale,51.509104,0.072027,47.0,1,1,0,2021-04-08,348750.0,0,0,0,Gallions Reach,118,0
17349,17349,Newham,2021-04-08,Keatons - Stratford,0,"Idmiston Road, Stratford, London E15",0,0,pre-owned,290000.0,flat,0,leasehold,2 bed flat for sale,51.550318,0.012492,47.0,2,1,1,2021-04-08,300000.0,0,0,0,Chesham,1358,15
17350,17350,Newham,2021-04-08,Keatons - Stratford,1,"Bridgepoint Lofts, 6 Shaftesbury Road, London E7",0,0,pre-owned,310000.0,flat,0,leasehold,2 bed flat for sale,51.540385,0.0383,83.0,2,1,1,2021-04-08,370000.0,0,0,0,Upton Park,647,6
17351,17351,Newham,2021-04-08,Keatons - Stratford,0,"Decapod Street, Stratford, London E15",0,0,pre-owned,700000.0,flat,0,leasehold,3 bed flat for sale,51.548141,-0.003239,119.0,3,3,1,2021-04-08,725000.0,0,0,1,Stratford,688,13
17352,17352,Newham,2021-04-08,Keatons - Stratford,1,"Ironbridge Mews, Stratford, London E15",0,0,pre-owned,500000.0,bungalow,0,freehold,2 bed bungalow for sale,51.5414016432432,0.0089440108108108,64.0,2,1,1,2021-04-08,500000.0,0,0,1,Chesham,1300,21
17353,17353,Newham,2021-04-07,Madison Brook International E16,0,"Westgate, Royal Victoria Dock E16",0,0,pre-owned,425000.0,flat,0,Other,2 bed flat for sale,51.508239,0.021602,69.0,2,2,1,2021-04-07,425000.0,1,0,0,Royal Victoria,230,14
17354,17354,Newham,2021-04-07,West End Residence,0,"Henniker Gardens, Upton Park E6",0,0,pre-owned,600000.0,terraced,0,freehold,3 bed terraced house for sale,51.527691,0.047364,132.0,3,3,1,2021-04-07,750000.0,0,0,1,Chesham,1108,2
17355,17355,Newham,2021-04-07,Jamie Lester Properties,0,"Kempton Mews, London E62Bf E6",0,0,pre-owned,350000.0,flat,0,leasehold,1 bed flat for sale,51.5358408703704,0.0592230679012345,50.0,1,1,0,2021-04-07,350000.0,1,0,0,East Ham,709,3
17356,17356,Newham,2021-04-06,Tyron Ash,0,"Crescent Road, London E13",0,0,pre-owned,800000.0,semi_detached,0,leasehold,6 bed semi-detached house for sale,51.535316,0.023826,186.0,6,2,2,2021-04-06,800000.0,0,0,1,Plaistow,681,2
17357,17357,Newham,2021-04-02,"Purplebricks, Head Office",1,"Claremont Close, London E16",0,0,new,240000.0,flat,1,leasehold,3 bed flat for sale,51.501715,0.064095,72.0,3,1,1,2021-04-02,300000.0,0,0,0,Chesham,1052,3
17358,17358,Newham,2021-04-01,Hamptons - Canary Wharf Sales,0,"Bywell Place, London E16",0,0,pre-owned,495000.0,flat,0,leasehold,2 bed flat for sale,51.516896,0.011274,73.0,2,2,1,2021-04-01,495000.0,1,0,0,Canning Town,330,17
17359,17359,Newham,2021-04-01,Hamptons - Canary Wharf Sales,0,"Maud Street, London E16",0,0,pre-owned,350000.0,flat,0,leasehold,1 bed flat for sale,51.516485,0.012282,56.0,1,1,1,2021-04-01,365000.0,1,0,0,Canning Town,760,18
17360,17360,Newham,2021-04-01,Madison Brook International E16,0,"Manchester Court, Custom House E16",0,0,pre-owned,325000.0,flat,0,Other,2 bed flat for sale,51.51213,0.028908,47.0,2,1,1,2021-04-01,345000.0,0,1,0,Chesham,903,9
17361,17361,Newham,2021-04-01,Love Your Home Ltd,0,"Maud Street, London E16",0,0,pre-owned,775000.0,flat,0,Other,3 bed flat for sale,51.516983,0.012141,127.0,3,2,1,2021-04-01,775000.0,1,1,1,Canning Town,437,17
17362,17362,Newham,2021-03-31,Benjamin Stevens,0,"Candle Light Court, 124 Romford Road, London E15",0,0,pre-owned,350000.0,flat,0,leasehold,2 bed flat for sale,51.543472,0.012615,58.0,2,1,1,2021-03-31,350000.0,0,1,0,Plaistow,1485,10
17363,17363,Newham,2021-03-31,Your Move - Forest Gate,0,"Earlham Grove, London E7",0,0,pre-owned,1000000.0,semi_detached,0,leasehold,6 bed semi-detached house for sale,51.547299,0.015914,242.0,6,2,2,2021-03-31,1000000.0,0,0,1,Chesham,1466,2
17364,17364,Newham,2021-03-31,Barratt London - Upton Gardens,1,"""St Pier Court"" at 1 Academy House, Thunderer Street, London E13",0,0,new,365000.0,flat,0,leasehold,1 bed flat for sale,51.53246,0.037413,51.0,1,1,1,2021-03-31,365000.0,1,0,1,Upton Park,308,5
17365,17365,Newham,2021-03-30,LiFE Residential - Royal Wharf,0,"Kelson House, 8 Schooner Road, Royal Wharf, London E16",0,0,pre-owned,700000.0,flat,0,leasehold,3 bed flat for sale,51.499073,0.028034,102.0,3,2,1,2021-03-30,720000.0,1,1,0,Chesham,1561,2
17366,17366,Newham,2021-03-30,Madison Brook International E16,0,"The Oxygen Apartments, Royal Victoria Dock E16",0,0,pre-owned,320000.0,flat,0,Other,1 bed flat for sale,51.508716,0.019447,45.0,1,1,1,2021-03-30,325000.0,1,0,0,Royal Victoria,111,15
17367,17367,Newham,2021-03-29,LiFE Residential - Royal Wharf,1,"Pinnacle House, 4 Schooner Road, Royal Wharf, London E16",0,0,pre-owned,325000.0,studio,0,leasehold,Studio for sale,51.499912,0.028181,38.0,0,1,1,2021-03-29,350000.0,1,0,0,Chesham,1470,2
17368,17368,Newham,2021-03-29,Savills - Canary Wharf RDS,1,"Royal Albert Wharf, Docklands, London E16",0,0,new,762500.0,flat,0,leasehold,3 bed flat for sale,51.503943,0.073864,126.0,3,1,1,2021-03-29,762500.0,1,0,0,Gallions Reach,661,0
17369,17369,Newham,2021-03-29,Outlook Property - Stratford,1,"Pitchford Street, Stratford, London E15",0,0,pre-owned,315000.0,flat,0,freehold,2 bed flat for sale,51.538345,0.00324,51.0,2,1,1,2021-03-29,325000.0,0,0,0,Chesham,1049,24
17370,17370,Newham,2021-03-29,Daniel Rose Residential Ltd,0,"Channelsea House, Canning Road, London E15",0,0,pre-owned,275000.0,flat,0,leasehold,1 bed flat for sale,51.53014,0.001856,41.0,1,1,1,2021-03-29,275000.0,0,0,0,West Ham,359,0
17371,17371,Newham,2021-03-29,Southern Home Ownership - The Refinery,1,"Knights Road, Silvertown, London E16",0,1,new,445500.0,flat,0,leasehold,2 bed flat for sale,51.501539,0.020976,84.0,2,2,0,2021-03-29,445500.0,1,0,1,Royal Victoria,1120,2
17372,17372,Newham,2021-03-29,Southern Home Ownership - The Refinery,1,"Knights Road, Silvertown, London E16",0,1,new,155925.0,flat,0,leasehold,2 bed flat for sale,51.501539,0.020976,84.0,2,2,0,2021-03-29,155925.0,1,0,1,Royal Victoria,1120,2
17373,17373,Newham,2021-03-29,Properly,1,"City Island Way, London E14",0,0,pre-owned,475000.0,flat,0,Other,1 bed flat for sale,51.512203,0.006726,52.0,1,1,1,2021-03-29,499999.0,1,0,0,Canning Town,327,10
17374,17374,Newham,2021-03-27,Capital Stay,1,"12 Western Gateway, London E16",0,0,new,445000.0,flat,0,leasehold,1 bed flat for sale,51.508366,0.02229,55.0,1,1,1,2021-03-27,465000.0,0,0,0,Royal Victoria,276,14
17375,17375,Newham,2021-03-26,Keatons - Stratford,1,"Church Street, Stratford, London E15",0,0,new,600000.0,flat,0,leasehold,3 bed flat for sale,51.535868,0.010817,123.0,3,2,1,2021-03-26,600000.0,0,1,0,Plaistow,807,16
17376,17376,Newham,2021-03-26,Nested Ltd,1,"Sky View Tower, Stratford, London E15",0,0,pre-owned,500000.0,flat,0,leasehold,3 bed flat for sale,51.530452,-0.013155,90.0,3,2,0,2021-03-26,500000.0,1,0,0,Pudding Mill Lane,455,2
17377,17377,Newham,2021-03-25,Tyron Ash,0,"Ward Road, Stratford, London E15",0,0,pre-owned,325000.0,flat,0,Other,1 bed flat for sale,51.537624,-0.003488,47.0,1,1,1,2021-03-25,300000.0,1,1,1,Stratford,712,13
17378,17378,Newham,2021-03-25,Keatons - Stratford,1,"Church Street, Stratford, London E15",0,0,new,465000.0,flat,0,leasehold,2 bed flat for sale,51.535868,0.010817,54.0,2,1,1,2021-03-25,465000.0,1,0,0,Plaistow,807,16
17379,17379,Newham,2021-03-25,Keatons - Stratford,1,"Church Street, Stratford, London E15",0,0,new,345000.0,flat,0,leasehold,1 bed flat for sale,51.535868,0.010817,46.0,1,1,1,2021-03-25,345000.0,1,0,0,Plaistow,807,16
17380,17380,Newham,2021-03-25,Keatons - Stratford,1,"Church Street, Stratford, London E15",0,0,new,565000.0,flat,0,leasehold,2 bed flat for sale,51.535868,0.010817,83.0,2,2,1,2021-03-25,565000.0,1,0,0,Plaistow,807,16
17381,17381,Newham,2021-03-25,JLL - Stratford,0,"Great Eastern Road, London E15",0,0,pre-owned,625000.0,flat,0,leasehold,2 bed flat for sale,51.542733,-0.001485,86.0,2,2,1,2021-03-25,650000.0,1,0,0,Stratford,745,62
17382,17382,Newham,2021-03-25,Your Nxt Place,1,"Dames Road, Forest Gate E7",0,0,pre-owned,560000.0,terraced,0,freehold,3 bed terraced house for sale,51.557185,0.018941,109.0,3,1,2,2021-03-25,560000.0,0,1,1,Leytonstone,1209,6
17383,17383,Newham,2021-03-25,eXp World UK,1,"Silver Town, London E16",0,0,new,650000.0,flat,0,Other,2 bed flat for sale,51.5022758906883,0.0501222591093117,77.0,2,2,1,2021-03-25,650000.0,0,0,0,Royal Albert,1246,4
17384,17384,Newham,2021-03-25,Emoov,1,"6 High Street, Stratford, London E15",0,0,new,500000.0,flat,0,leasehold,3 bed flat for sale,51.53019,-0.013624,86.0,3,2,1,2021-03-25,550000.0,1,0,1,Pudding Mill Lane,490,2
17385,17385,Newham,2021-03-25,Benham and Reeves - Kensington,0,"Royal Dock West, 12 Western Gateway, London E16",0,0,pre-owned,475000.0,flat,0,leasehold,1 bed flat for sale,51.508408,0.022145,55.0,1,1,1,2021-03-25,475000.0,0,0,1,Royal Victoria,274,14
17386,17386,Newham,2021-03-24,MyLondonHome - Canary Wharf,1,"Grantham House, City Island E14",0,0,pre-owned,675000.0,flat,0,leasehold,2 bed flat for sale,51.511198,0.006328,82.0,2,2,1,2021-03-24,700000.0,1,0,1,Canning Town,392,7
17387,17387,Newham,2021-03-24,JOHNS&CO - New Providence Wharf,1,"Echo House, London City Island, London E14",0,0,new,465000.0,flat,0,Other,1 bed flat for sale,51.512276,0.006756,52.0,1,1,1,2021-03-24,465000.0,1,0,1,Canning Town,328,10
17388,17388,Newham,2021-03-24,Dexters - Canary Wharf,0,"Barrier Point Road, London E16",0,0,pre-owned,700000.0,flat,0,leasehold,2 bed flat for sale,51.499315,0.031892,93.0,2,2,1,2021-03-24,735000.0,1,1,0,Prince Regent,1363,2
17389,17389,Newham,2021-03-24,"Urban and Campus Nest Ltd, London",0,"2 Bramwell Way, London E16",0,0,pre-owned,1000000.0,flat,0,leasehold,3 bed flat for sale,51.502222,0.035069,115.0,3,2,1,2021-03-24,1000000.0,0,0,0,Prince Regent,1032,2
17390,17390,Newham,2021-03-24,Yopa,0,"Eighth Avenue, London E12",0,0,pre-owned,625000.0,terraced,0,leasehold,5 bed terraced house for sale,51.553367,0.058037,139.0,5,3,2,2021-03-24,650000.0,1,0,1,East Ham,1550,1
17391,17391,Newham,2021-03-24,"Purplebricks, Head Office",0,"Kensington Avenue, London E12",0,0,pre-owned,550000.0,terraced,0,freehold,3 bed terraced house for sale,51.541938,0.052878,160.0,3,2,1,2021-03-24,575000.0,1,0,1,East Ham,325,6
17392,17392,Newham,2021-03-23,Nest Seekers International,1,"Schooner Road, London E16",0,0,pre-owned,599995.0,flat,0,leasehold,2 bed flat for sale,51.499803,0.028677,74.0,2,2,0,2021-03-23,599995.0,1,0,1,Chesham,1499,2
17393,17393,Newham,2021-03-23,Chase Evans Canary Wharf,0,"Legacy Tower, Stratford Central, London E15",0,0,pre-owned,785000.0,flat,0,leasehold,3 bed flat for sale,51.542733,-0.001485,86.0,3,2,1,2021-03-23,785000.0,1,0,0,Stratford,745,62
17394,17394,Newham,2021-03-22,Belvoir,0,"Gerry Raffles Square, London E15",0,0,pre-owned,275000.0,flat,0,leasehold,1 bed flat for sale,51.542587,0.000225,30.0,1,1,1,2021-03-22,275000.0,0,0,0,Stratford,837,46
17395,17395,Newham,2021-03-22,Madison Brook International E16,0,"The Oxygen Apartments, Royal Victoria Dock E16",0,0,pre-owned,325000.0,flat,0,Other,1 bed flat for sale,51.508331,0.0193,52.0,1,1,1,2021-03-22,335000.0,1,0,0,Royal Victoria,93,14
17396,17396,Newham,2021-03-22,Properties Actually Limited,0,"Corsair House, Royal Wharf, Royal Docks / Silvertown, London E16",0,0,pre-owned,420000.0,flat,0,leasehold,1 bed flat for sale,51.501639,0.030851,57.0,1,1,1,2021-03-22,429950.0,0,0,0,Prince Regent,1257,3
17397,17397,Newham,2021-03-22,Property Inside London,0,"Starboard Way, Royal Wharf, London E16",0,0,pre-owned,925000.0,end_terrace,0,leasehold,3 bed end terrace house for sale,51.500825,0.030801,141.0,3,3,1,2021-03-22,925000.0,0,1,1,Prince Regent,1326,2
17398,17398,Newham,2021-03-20,LiFE Residential - Royal Wharf,1,"Heron Place, 4 Bramwell Way E16",0,0,pre-owned,300000.0,flat,0,leasehold,1 bed flat for sale,51.502158,0.036851,49.0,1,1,1,2021-03-20,375000.0,1,1,1,Chesham,924,1
17399,17399,Newham,2021-03-19,LRC - London Sales and Letting Agency,1,"Ferndale Street, Royal Docks, London E6",0,0,new,488000.0,flat,0,leasehold,2 bed flat for sale,51.50946,0.062932,77.0,2,2,1,2021-03-19,488000.0,0,0,1,Cyprus,115,2
17400,17400,Newham,2021-03-19,LRC - London Sales and Letting Agency,1,"Ferndale Street, Royal Docks, London E6",0,0,new,360000.0,flat,0,leasehold,1 bed flat for sale,51.50946,0.062932,50.0,1,1,1,2021-03-19,360000.0,0,0,1,Cyprus,115,2
17401,17401,Newham,2021-03-19,LRC - London Sales and Letting Agency,1,"Ferndale Street, Royal Docks, London E6",0,0,new,593000.0,flat,0,leasehold,3 bed flat for sale,51.50946,0.062932,91.0,3,2,1,2021-03-19,593000.0,0,0,1,Cyprus,115,2
17402,17402,Newham,2021-03-19,Hastings International - London Bridge,0,"Duchess Drive, London E13",0,0,pre-owned,750000.0,terraced,0,freehold,4 bed terraced house for sale,51.523775,0.024829,169.0,4,0,0,2021-03-19,800000.0,1,0,1,Plaistow,723,9
17403,17403,Newham,2021-03-19,Fraser & Co - City,0,"Great Eastern Road, London E15",0,0,pre-owned,485000.0,flat,0,leasehold,1 bed flat for sale,51.540125,-0.00045,58.0,1,1,1,2021-03-19,470000.0,0,0,0,Stratford,791,47
17404,17404,Newham,2021-03-19,Tyron Ash,0,"Westdown Road, Stratford E15",0,0,pre-owned,600000.0,Other,0,Other,5 bed property for sale,51.553901,-0.007502,140.0,5,3,0,2021-03-19,600000.0,1,1,1,Leyton,294,5
17405,17405,Newham,2021-03-18,Tyron Ash,0,"Grosvenor Road, London E7",0,0,pre-owned,500000.0,Other,0,Other,3 bed property for sale,51.542953,0.032048,116.0,3,2,1,2021-03-18,500000.0,0,0,1,Upton Park,729,14
17406,17406,Newham,2021-03-18,Yopa,1,"Shaftesbury Road, London E7",0,0,pre-owned,375000.0,flat,0,leasehold,2 bed flat for sale,51.540376,0.037752,67.0,2,1,1,2021-03-18,400000.0,0,0,0,Upton Park,641,6
17407,17407,Newham,2021-03-17,Madley Property,0,"Marmara Apartments, Western Gateway, London E16",0,0,pre-owned,600000.0,flat,0,leasehold,2 bed flat for sale,51.507885,0.021156,109.0,2,3,0,2021-03-17,600000.0,1,1,0,Royal Victoria,236,14
17408,17408,Newham,2021-03-17,Knight Bishop,0,"Sky View Tower, High Street Stratford E15",0,0,pre-owned,500000.0,flat,0,leasehold,2 bed flat for sale,51.530452,-0.013155,79.0,2,2,1,2021-03-17,500000.0,0,0,1,Pudding Mill Lane,455,2
17409,17409,Newham,2021-03-16,JLL - Shared Ownership,1,"Nelson Street, London E6",0,1,new,102500.0,flat,0,leasehold,2 bed flat for sale,51.53136,0.05562,73.0,2,1,1,2021-03-16,102500.0,1,0,0,East Ham,712,6
17410,17410,Newham,2021-03-16,Peach Properties,1,"Young Road, Canning Town E16",0,0,pre-owned,495000.0,end_terrace,0,Other,3 bed end terrace house for sale,51.513801,0.033547,97.0,3,1,1,2021-03-16,495000.0,1,0,1,Prince Regent,869,2
17411,17411,Newham,2021-03-15,Madison Brook International E16,0,"Hoola, Royal Victoria Dock E16",0,0,pre-owned,400000.0,flat,0,Other,1 bed flat for sale,51.50846,0.015274,54.0,1,1,1,2021-03-15,400000.0,1,0,0,Royal Victoria,239,9
17412,17412,Newham,2021-03-15,April Properties,0,"Maryland Street, London E15",0,0,pre-owned,325000.0,flat,0,Other,1 bed flat for sale,51.547976,0.00535,5.0,1,1,0,2021-03-15,340000.0,1,0,0,Stratford,890,19
17413,17413,Newham,2021-03-15,Strike,1,"Grove Crescent Road, London E15",0,0,pre-owned,409000.0,flat,0,leasehold,2 bed flat for sale,51.544028,0.000619,61.0,2,1,1,2021-03-15,417500.0,1,0,0,Stratford,842,37
17414,17414,Newham,2021-03-12,Colliers International Residential,1,"Gallions Point, London E16",0,0,new,483750.0,flat,0,leasehold,2 bed flat for sale,51.508423,0.073162,71.0,2,1,1,2021-03-12,483750.0,1,0,0,Gallions Reach,123,0
17415,17415,Newham,2021-03-12,Nest Seekers International,0,"High Street, London E15",0,0,pre-owned,600000.0,flat,0,Other,2 bed flat for sale,51.530502,-0.013016,78.0,2,2,0,2021-03-12,675000.0,0,0,0,Pudding Mill Lane,454,2
17416,17416,Newham,2021-03-12,Keatons - Royal Docks,1,"Capulet Mews, London E16",0,0,pre-owned,599950.0,end_terrace,0,leasehold,3 bed end terrace house for sale,51.505216,0.019496,116.0,3,2,1,2021-03-12,610000.0,0,0,0,Royal Victoria,469,12
17417,17417,Newham,2021-03-11,Madison Brook International E16,0,"The Oxygen Apartments, Royal Victoria Dock E16",0,0,pre-owned,375000.0,flat,0,Other,1 bed flat for sale,51.508445,0.019408,57.0,1,1,1,2021-03-11,375000.0,1,0,0,Royal Victoria,131,15
17418,17418,Newham,2021-03-11,Keatons - Stratford,1,"Sentinel Building, Liberty Bridge Road, London E15",0,0,pre-owned,400000.0,flat,0,leasehold,1 bed flat for sale,51.548757,-0.003543,51.0,1,1,1,2021-03-11,400000.0,1,0,0,Chesham,688,10
17419,17419,Newham,2021-03-10,Strawberry Star - Nine Elms,0,"Hoola, 3 Tidal Basin Road, Royal Docks, London E16",0,0,pre-owned,460000.0,flat,0,leasehold,1 bed flat for sale,51.508422,0.015589,63.0,1,1,1,2021-03-10,499000.0,1,0,0,Royal Victoria,168,8
17420,17420,Newham,2021-03-09,Urban Moves,0,"Burford Wharf Apartments, 3 Cam Road, London E15",0,1,pre-owned,152000.0,flat,0,Other,2 bed flat for sale,51.536702,-0.001115,82.0,2,0,0,2021-03-09,152000.0,0,1,0,Stratford,988,13
17421,17421,Newham,2021-03-09,Madison Brook International E16,0,"The Oxygen Apartments, Royal Victoria Dock E16",0,0,pre-owned,500000.0,flat,0,Other,2 bed flat for sale,51.508445,0.019408,75.0,2,2,1,2021-03-09,500000.0,0,0,0,Royal Victoria,131,15
17422,17422,Newham,2021-03-09,Keatons - Stratford,0,"Plashet Road, Plaistow, London E13",0,0,pre-owned,950000.0,semi_detached,0,freehold,7 bed semi-detached house for sale,51.536838,0.023434,286.0,7,5,2,2021-03-09,800000.0,0,0,1,Plaistow,778,1
17423,17423,Newham,2021-03-08,Keatons - Stratford,1,"Meeson Road, Stratford, London E15",0,0,pre-owned,400000.0,flat,0,leasehold,3 bed flat for sale,51.538137,0.01171,85.0,3,1,1,2021-03-08,400000.0,0,0,0,Plaistow,975,16
17424,17424,Newham,2021-03-05,Chestertons - New Homes UK,1,"Block 08 Maritime, Royal Wharf, London E16",0,0,new,660000.0,flat,0,leasehold,3 bed flat for sale,51.499738,0.030507,224.0,3,2,1,2021-03-05,660000.0,0,0,0,Prince Regent,1450,2
17425,17425,Newham,2021-03-05,Chestertons - New Homes UK,1,"North Woolwich Road, London E16",0,0,new,600000.0,flat,0,leasehold,2 bed flat for sale,51.500595,0.026179,129.0,2,2,1,2021-03-05,630000.0,0,1,1,Chesham,1412,2
17426,17426,Newham,2021-03-05,Chestertons - New Homes UK,1,"Starboard Town House, Royal Wharf, London E16",0,0,new,825000.0,terraced,0,leasehold,3 bed terraced house for sale,51.500595,0.026179,164.0,3,2,1,2021-03-05,835000.0,0,0,0,Chesham,1412,2
17427,17427,Newham,2021-03-05,Spencer James Residential,0,"Mamara Apartments, Royal Victoria E16",0,0,pre-owned,699500.0,flat,0,leasehold,3 bed flat for sale,51.507885,0.021084,122.0,3,3,1,2021-03-05,699500.0,1,1,0,Royal Victoria,285,14
17428,17428,Newham,2021-03-05,JOHNS&CO - Royal Wharf,0,"Barrier Point Road, Royal Docks, London E16",0,0,pre-owned,485000.0,flat,0,Other,2 bed flat for sale,51.501489,0.031719,69.0,2,2,1,2021-03-05,500000.0,1,1,1,Prince Regent,1541,3
17429,17429,Newham,2021-03-05,JOHNS&CO - Royal Wharf,0,"Commodore House, Royal Wharf, London E16",0,0,pre-owned,420000.0,flat,0,Other,1 bed flat for sale,51.49953,0.028534,53.0,1,1,1,2021-03-05,435000.0,1,0,0,Chesham,1505,2
17430,17430,Newham,2021-03-05,Keatons - Royal Docks,1,"Barrier Point Road, London E16",0,0,pre-owned,549950.0,flat,0,leasehold,2 bed flat for sale,51.501543,0.031696,89.0,2,2,1,2021-03-05,575000.0,1,1,0,Prince Regent,1546,3
17431,17431,Newham,2021-03-04,Property Inside London,1,"Hoola East Tower, Tidal Basin, Royal Victoria, London E16",0,0,pre-owned,610000.0,flat,0,leasehold,2 bed flat for sale,51.508329,0.01472,85.0,2,2,1,2021-03-04,610000.0,0,0,1,Royal Victoria,268,8
17432,17432,Newham,2021-03-04,Fraser & Co - City,0,"City Island, Tower Hamlets E14",0,0,pre-owned,480000.0,flat,0,leasehold,1 bed flat for sale,51.513715,0.006788,49.0,1,1,1,2021-03-04,480000.0,0,0,0,Canning Town,178,12
17433,17433,Newham,2021-03-03,Jamie Lester Properties,0,"Kempton Mews, London E6",0,0,pre-owned,350000.0,flat,0,leasehold,1 bed flat for sale,51.5358408703704,0.0592230679012345,51.0,1,1,0,2021-03-03,350000.0,1,0,0,East Ham,709,3
17434,17434,Newham,2021-03-02,Peabody,1,"Cooks Road, London E15",0,1,new,178500.0,flat,0,leasehold,3 bed flat for sale,51.531107,-0.014306,87.0,3,2,0,2021-03-02,163500.0,1,0,1,Pudding Mill Lane,454,3
17435,17435,Newham,2021-03-02,Belvoir,0,"Maryland Square, Stratford E15",0,0,pre-owned,345000.0,maisonette,0,leasehold,2 bed maisonette for sale,51.54847,0.008545,50.0,2,2,1,2021-03-02,300000.0,0,0,0,Stratford,1105,17
17436,17436,Newham,2021-03-01,Redrow - Pontoon Reach,1,"Thames Road, London E16",0,0,new,370000.0,flat,0,leasehold,1 bed flat for sale,51.502282,0.038343,46.0,1,1,0,2021-03-01,370000.0,1,0,1,Chesham,862,0
17437,17437,Newham,2021-02-27,Madison Brook International E16,0,"The Oxygen Apartments, Royal Victoria Dock E16",0,0,pre-owned,340000.0,flat,0,Other,1 bed flat for sale,51.508445,0.019408,44.0,1,1,1,2021-02-27,350000.0,1,0,0,Royal Victoria,131,15
17438,17438,Newham,2021-02-26,CBRE,1,"Brunel Street Works, Canning Town E16",0,0,new,575000.0,flat,0,leasehold,2 bed flat for sale,51.51205,0.01063,73.0,2,2,1,2021-02-26,575000.0,1,0,0,Canning Town,259,10
