,level_0,index,Borough,date_listed,agency_name,chain_free,address,isRetirementHome,isSharedOwnership,listingCondition,price,propertyType,isAuction,tenure,title,latitude,longitude,floor_area_msq,numBedrooms,numBathrooms,numLivingRooms,firstPublishedDate,firstPublishedPrice,balcony_terrace,parking,garden,closest_station_name,closest_station_distance_sec,pub_restaurant,amenities_shop
11800,11800,11800,Barnet,2021-04-01,Sean Heaney Homes and Property,1,"Hadley Highstone, Barnet EN5",0,0,pre-owned,899950.0,cottage,0,Other,3 bed cottage for sale,51.663997,-0.199259,192.0,3,2,4,2021-04-01,950000.0,0,1,1,High Barnet,1284,0,"[0, 0, 0, 0]"
11801,11801,11801,Barnet,2021-04-01,Nest Seekers International,0,"Winnington Road, London N2",0,0,pre-owned,10950000.0,detached,0,Other,8 bed detached house for sale,51.57893,-0.173714,953.0,8,0,0,2021-04-01,10950000.0,0,0,1,East Finchley,1020,0,"[1, 0, 0, 0]"
11802,11802,11802,Barnet,2021-04-01,LiFE Residential - Royal Wharf,0,"Reverence House, 8 Lismore Boulevard, London NW9",0,0,pre-owned,425000.0,flat,0,leasehold,2 bed flat for sale,51.59305,-0.242477,66.0,2,2,1,2021-04-01,475000.0,1,0,1,Colindale,906,3,"[5, 2, 0, 2]"
11803,11803,11803,Barnet,2021-04-01,Statons - Barnet,0,"Rowley Green Road, Arkley, Hertfordshire EN5",0,0,pre-owned,8500000.0,detached,0,freehold,6 bed detached house for sale,51.64736,-0.235649,1022.0,6,8,5,2021-04-01,8500000.0,1,0,1,High Barnet,2235,0,"[0, 1, 0, 0]"
11804,11804,11804,Barnet,2021-04-01,Statons - Totteridge,0,"Dancers Lane, Bentley Heath, Hertfordshire EN5",0,0,pre-owned,6975000.0,detached,0,freehold,6 bed detached house for sale,51.678212,-0.214759,698.0,6,6,7,2021-04-01,7250000.0,0,0,1,High Barnet,2660,1,"[0, 0, 0, 0]"
11805,11805,11805,Barnet,2021-04-01,Fine & Country,0,"Chandos Way, Wellgarth Road, London NW11",0,0,pre-owned,3500000.0,detached,0,Other,5 bed detached house for sale,51.57257,-0.18949,350.0,5,3,3,2021-04-01,3500000.0,0,1,1,Golders Green,770,5,"[2, 0, 0, 3]"
11806,11806,11806,Barnet,2021-04-01,"Adam Hayes Estate Agents, East Finchley",1,"Willow Way, London N3",0,0,pre-owned,950000.0,semi_detached,0,Other,3 bed semi-detached house for sale,51.603698,-0.186274,128.0,3,1,2,2021-04-01,950000.0,0,1,1,Upminster,514,3,"[1, 0, 0, 1]"
11807,11807,11807,Barnet,2021-04-01,Beauchamp Estates (New Homes),1,"Rowley Green Road, Barnet EN5",0,0,new,8500000.0,detached,0,freehold,6 bed detached house for sale,51.647186,-0.235163,1014.0,6,6,5,2021-04-01,8500000.0,0,1,1,High Barnet,2226,0,"[0, 1, 0, 0]"
11808,11808,11808,Barnet,2021-04-01,Chancellors - Stanmore,0,"Edgware, London HA8",0,0,pre-owned,575000.0,semi_detached,0,freehold,2 bed semi-detached house for sale,51.614162,-0.268016,96.0,2,0,0,2021-04-01,595000.0,0,1,0,Edgware,574,0,"[4, 0, 0, 1]"
11809,11809,11809,Barnet,2021-03-31,Mischa & Co,0,"Station Road, Edgware, Middlesex HA8",0,0,pre-owned,299950.0,flat,0,Other,2 bed flat for sale,51.615167,-0.275275,11.0,2,0,0,2021-03-31,299950.0,0,0,0,Edgware,238,4,"[1, 1, 0, 1]"
11810,11810,11810,Barnet,2021-03-31,Statons,0,"Sebright Road, Barnet, Hertfordshire EN5",0,0,pre-owned,825000.0,detached,0,freehold,4 bed detached house for sale,51.657156,-0.208605,148.0,4,3,2,2021-03-31,825000.0,0,0,1,High Barnet,983,7,"[7, 3, 0, 2]"
11811,11811,11811,Barnet,2021-03-31,Property Inside London,1,"Kensington Court, Grenville Place, London NW7",0,0,pre-owned,385000.0,flat,0,leasehold,2 bed flat for sale,51.615216,-0.258441,58.0,2,1,1,2021-03-31,385000.0,0,1,1,Upminster,1152,2,"[3, 0, 0, 0]"
11812,11812,11812,Barnet,2021-03-31,Statons,0,"Bedford Avenue, High Barnet, Hertfordshire EN5",0,0,pre-owned,975000.0,Other,0,freehold,3 bed property for sale,51.648129,-0.199279,164.0,3,1,2,2021-03-31,975000.0,1,1,1,High Barnet,398,1,"[7, 3, 0, 1]"
11813,11813,11813,Barnet,2021-03-31,Chancellors - Finchley,0,"Snowe Building, Regiment Hill, Mill Hill NW7",0,0,pre-owned,400000.0,flat,0,leasehold,1 bed flat for sale,51.611,-0.208,52.0,1,1,1,2021-03-31,425000.0,1,1,1,Mill Hill East,485,0,"[2, 1, 0, 1]"
11814,11814,11814,Barnet,2021-03-31,Chancellors - Highgate,0,"Highgate, London N6",0,0,pre-owned,800000.0,terraced,0,freehold,2 bed terraced house for sale,51.580784,-0.156849,81.0,2,1,1,2021-03-31,800000.0,1,1,1,Chesham,825,3,"[1, 2, 0, 1]"
11815,11815,11815,Barnet,2021-03-30,Cosway,0,"Wise Lane, London NW7",0,0,pre-owned,2000000.0,detached,0,Other,5 bed detached house for sale,51.61074,-0.230401,343.0,5,4,3,2021-03-30,2000000.0,0,1,1,Mill Hill East,1309,0,"[4, 0, 0, 0]"
11816,11816,11816,Barnet,2021-03-30,"Adam Hayes Estate Agents, East Finchley",0,"Chambers Gardens, East Finchley N2",0,0,pre-owned,360000.0,flat,0,Other,1 bed flat for sale,51.599899,-0.173429,67.0,1,1,1,2021-03-30,375000.0,0,0,1,East Finchley,1154,1,"[4, 2, 1, 0]"
11817,11817,11817,Barnet,2021-03-30,Barnard Marcus - North Finchley,1,"Kingsway, North Finchley, London N12",0,0,pre-owned,425000.0,flat,0,leasehold,2 bed flat for sale,51.612815,-0.17673,76.0,2,2,1,2021-03-30,450000.0,1,1,0,Woodside Park,838,8,"[4, 2, 0, 5]"
11818,11818,11818,Barnet,2021-03-30,"Adam Hayes Estate Agents, North Finchley",1,"Kingsway, North Flinchley N12",0,0,pre-owned,325000.0,flat,0,Other,1 bed flat for sale,51.611698,-0.177291,57.0,1,1,1,2021-03-30,330000.0,1,1,0,Chesham,763,7,"[4, 1, 0, 4]"
11819,11819,11819,Barnet,2021-03-30,Cosway,0,"Tudor Gables, Birkbeck Road, Mill Hill NW7",0,0,pre-owned,585000.0,maisonette,0,leasehold,3 bed maisonette for sale,51.618267,-0.239859,105.0,3,2,1,2021-03-30,600000.0,0,1,1,Upminster,2310,4,"[4, 1, 0, 1]"
11820,11820,11820,Barnet,2021-03-30,Bargets,0,"Heath Close, London NW11",0,0,pre-owned,3500000.0,detached,0,freehold,5 bed detached house for sale,51.572913,-0.189168,350.0,5,0,0,2021-03-30,3500000.0,0,1,1,Golders Green,762,5,"[2, 0, 0, 3]"
11821,11821,11821,Barnet,2021-03-30,Richard James Estate Agents,0,"Woodland Way, London NW7",0,0,pre-owned,550000.0,maisonette,0,share_of_freehold,3 bed maisonette for sale,51.612341,-0.247155,103.0,3,2,1,2021-03-30,550000.0,0,1,1,Upminster,1765,8,"[5, 1, 0, 2]"
11822,11822,11822,Barnet,2021-03-30,Barratt London - Hendon Waterside,1,"""Harp View Apartments"" at Moorhen Drive, Edgware NW9",0,0,new,524000.0,flat,0,leasehold,2 bed flat for sale,51.577406,-0.242778,72.0,2,2,1,2021-03-30,524000.0,1,1,0,Hendon Central,1159,4,"[3, 1, 0, 1]"
11823,11823,11823,Barnet,2021-03-29,Chancellors - Stanmore,0,"Edgware, London HA8",0,0,pre-owned,550000.0,semi_detached,0,freehold,3 bed semi-detached house for sale,51.605,-0.287,73.0,3,2,1,2021-03-29,575000.0,0,0,1,Canons Park,774,0,"[3, 0, 1, 0]"
11824,11824,11824,Barnet,2021-03-29,A to Z Property Services,1,"Braemar Avenue, Neasden NW10",0,0,pre-owned,349950.0,maisonette,0,share_of_freehold,2 bed maisonette for sale,51.564644,-0.256699,70.0,2,1,1,2021-03-29,349950.0,0,1,1,Neasden,1154,0,"[2, 0, 0, 1]"
11825,11825,11825,Barnet,2021-03-29,Douglas Martin Estate Agents,1,"Quadrant Close, The Burroughs, London NW4",0,0,pre-owned,425000.0,flat,0,Other,3 bed flat for sale,51.586181,-0.230128,79.0,3,1,1,2021-03-29,450000.0,0,0,0,Hendon Central,383,3,"[6, 0, 0, 2]"
11826,11826,11826,Barnet,2021-03-28,BM Properties,1,"Aerodrome Road, London NW9",0,0,new,469950.0,flat,0,leasehold,1 bed flat for sale,51.595129,-0.243793,56.0,1,1,1,2021-03-28,469950.0,1,0,0,Colindale,662,3,"[5, 2, 0, 3]"
11827,11827,11827,Barnet,2021-03-28,BM Properties,1,"Aerodrome Road, London NW9",0,0,new,299950.0,studio,0,leasehold,Studio for sale,51.595129,-0.243793,33.0,0,1,1,2021-03-28,299950.0,1,0,0,Colindale,662,3,"[5, 2, 0, 3]"
11828,11828,11828,Barnet,2021-03-26,Hoopers Estate Agents,0,"Braemar Avenue, London NW10",0,0,pre-owned,320000.0,maisonette,0,Other,2 bed maisonette for sale,51.565984,-0.25672,46.0,2,0,0,2021-03-26,339950.0,0,0,1,Neasden,1246,0,"[1, 0, 0, 1]"
11829,11829,11829,Barnet,2021-03-26,LRC - London Sales and Letting Agency,1,"Telegraph Avenue, Colindale, London NW9",0,0,new,352000.0,studio,0,leasehold,Studio for sale,51.5989451105263,-0.247741507894737,46.0,0,1,1,2021-03-26,352000.0,1,0,1,Colindale,485,4,"[6, 2, 0, 3]"
11830,11830,11830,Barnet,2021-03-26,LRC - London Sales and Letting Agency,1,"Telegraph Avenue, Colindale, London NW9",0,0,new,365000.0,flat,0,leasehold,1 bed flat for sale,51.5989451105263,-0.247741507894737,48.0,1,1,1,2021-03-26,365000.0,1,0,1,Colindale,485,4,"[6, 2, 0, 3]"
11831,11831,11831,Barnet,2021-03-26,LRC - London Sales and Letting Agency,1,"Telegraph Avenue, Colindale, London NW9",0,0,new,515000.0,flat,0,leasehold,2 bed flat for sale,51.5989451105263,-0.247741507894737,75.0,2,2,1,2021-03-26,515000.0,1,0,1,Colindale,485,4,"[6, 2, 0, 3]"
11832,11832,11832,Barnet,2021-03-26,Oyster Properties,0,"High Road, London N11",0,0,pre-owned,675000.0,terraced,0,freehold,4 bed terraced house for sale,51.613919,-0.13994,139.0,4,3,1,2021-03-26,750000.0,0,0,1,Arnos Grove,448,0,"[3, 0, 0, 3]"
11833,11833,11833,Barnet,2021-03-26,Chancellors - Barnet,1,"New Barnet, Hertfordshire EN5",0,0,pre-owned,850000.0,semi_detached,0,freehold,3 bed semi-detached house for sale,51.646507,-0.17303,156.0,3,2,2,2021-03-26,900000.0,0,1,0,Chesham,1238,4,"[3, 0, 0, 1]"
11834,11834,11834,Barnet,2021-03-26,Chancellors - Finchley,0,"Ballards Lane, Finchley N3",0,0,pre-owned,375000.0,flat,0,leasehold,2 bed flat for sale,51.60845,-0.18366,55.0,2,1,1,2021-03-26,400000.0,0,0,0,West Finchley,470,2,"[4, 1, 0, 2]"
11835,11835,11835,Barnet,2021-03-26,Bairstow Eves - Southgate Sales,1,"Bowes Road, Arnos Grove, London, . N11",0,0,pre-owned,375000.0,flat,0,Other,3 bed flat for sale,51.616554,-0.13885,74.0,3,1,1,2021-03-26,375000.0,0,0,0,Arnos Grove,310,0,"[3, 0, 0, 3]"
11836,11836,11836,Barnet,2021-03-26,Ellis & Co - Golders Green,1,"Templars Avenue, London NW11",0,0,pre-owned,599950.0,flat,0,leasehold,2 bed flat for sale,51.576579,-0.197938,75.0,2,1,1,2021-03-26,625000.0,0,0,1,Golders Green,511,10,"[3, 3, 0, 1]"
11837,11837,11837,Barnet,2021-03-26,"Doorsteps.co.uk, National",0,"Waverley Grove, Finchley N3, London",0,0,pre-owned,3450000.0,detached,0,Other,5 bed detached house for sale,51.593552,-0.209249,372.0,5,1,3,2021-03-26,3450000.0,0,1,1,Mill Hill East,1382,0,"[2, 0, 0, 0]"
11838,11838,11838,Barnet,2021-03-25,Hausman & Holmes,0,"Selborne Gardens, London NW4",0,0,pre-owned,400000.0,flat,0,Other,2 bed flat for sale,51.590007,-0.235888,56.0,2,1,1,2021-03-25,400000.0,0,1,1,Hendon Central,909,0,"[8, 0, 0, 0]"
11839,11839,11839,Barnet,2021-03-25,PGS Estates,0,"Heritage Avenue, Colindale NW9",0,0,pre-owned,465000.0,flat,0,leasehold,2 bed flat for sale,51.596515,-0.24299,79.0,2,2,1,2021-03-25,485000.0,1,1,0,Colindale,542,3,"[6, 2, 0, 2]"
11840,11840,11840,Barnet,2021-03-25,Statons - Barnet,1,"Wildernesse House, Wilderness Close, Edgware HA8",0,0,new,1250000.0,flat,0,share_of_freehold,3 bed flat for sale,51.619893,-0.268063,208.0,3,2,1,2021-03-25,1250000.0,0,1,0,Edgware,783,0,"[2, 0, 0, 0]"
11841,11841,11841,Barnet,2021-03-25,Robert Anthony Property,0,"Finchley Road, London NW2",0,0,pre-owned,340000.0,flat,0,leasehold,3 bed flat for sale,51.562205,-0.197092,56.0,3,1,1,2021-03-25,340000.0,0,0,0,Golders Green,937,4,"[5, 0, 0, 1]"
11842,11842,11842,Barnet,2021-03-25,Strike,1,"Meadway, London NW11",0,0,pre-owned,2150000.0,semi_detached,0,freehold,5 bed semi-detached house for sale,51.581286,-0.180403,223.0,5,5,2,2021-03-25,2150000.0,0,1,1,Golders Green,1301,0,"[5, 1, 0, 0]"
11843,11843,11843,Barnet,2021-03-25,Godfrey & Barr,1,"Golders Green Road, London NW11",0,0,new,1125000.0,flat,0,leasehold,3 bed flat for sale,51.578529,-0.208295,129.0,3,2,1,2021-03-25,1125000.0,1,1,1,Brent Cross,369,1,"[2, 2, 0, 2]"
11844,11844,11844,Barnet,2021-03-25,Goldschmidt & Howland - Temple Fortune,0,"Chandos Way, Golders Hill Park, London NW11",0,0,pre-owned,3500000.0,detached,0,leasehold,5 bed detached house for sale,51.572191,-0.189741,350.0,5,3,3,2021-03-25,3500000.0,0,1,1,Golders Green,812,6,"[2, 0, 0, 3]"
11845,11845,11845,Barnet,2021-03-25,Douglas Martin Estate Agents,1,"Great North Way, London NW4",0,0,pre-owned,850000.0,semi_detached,0,Other,3 bed semi-detached house for sale,51.598098,-0.22314,120.0,3,2,4,2021-03-25,850000.0,0,1,0,Hendon Central,1437,0,"[0, 1, 0, 0]"
11846,11846,11846,Barnet,2021-03-25,Godfrey & Barr,0,"Chandos Way, Wellgarth Road, London NW11",0,0,pre-owned,3500000.0,detached,0,freehold,5 bed detached house for sale,51.570942,-0.18459,350.0,5,3,3,2021-03-25,3500000.0,1,1,1,Golders Green,606,2,"[1, 0, 0, 0]"
11847,11847,11847,Barnet,2021-03-25,Hausman & Holmes,0,"Golders Green Road, London NW11",0,0,pre-owned,1250000.0,flat,0,Other,3 bed flat for sale,51.578022,-0.207171,143.0,3,2,1,2021-03-25,1250000.0,0,1,1,Brent Cross,357,5,"[1, 2, 0, 2]"
11848,11848,11848,Barnet,2021-03-25,Hausman & Holmes,0,"Golders Green Road, London NW11",0,0,pre-owned,1125000.0,flat,0,Other,3 bed flat for sale,51.577953,-0.207078,129.0,3,3,1,2021-03-25,1125000.0,0,1,1,Brent Cross,364,5,"[1, 2, 0, 2]"
11849,11849,11849,Barnet,2021-03-25,Hausman & Holmes,0,"Golders Green Road, London NW11",0,0,pre-owned,1225000.0,flat,0,Other,3 bed flat for sale,51.578487,-0.208235,143.0,3,2,1,2021-03-25,1225000.0,0,1,1,Brent Cross,364,2,"[2, 2, 0, 2]"
11850,11850,11850,Barnet,2021-03-25,Hausman & Holmes,0,"Aprey Gardens, London NW4",0,0,pre-owned,875000.0,Other,0,leasehold,5 bed property for sale,51.58863,-0.219767,142.0,5,2,2,2021-03-25,875000.0,0,0,1,Hendon Central,756,7,"[9, 0, 0, 2]"
11851,11851,11851,Barnet,2021-03-24,Austin Chambers & Co,0,"Summers Lane, London N12",0,0,pre-owned,625000.0,end_terrace,0,freehold,3 bed end terrace house for sale,51.60914,-0.164847,118.0,3,2,2,2021-03-24,700000.0,0,1,1,Chesham,1590,1,"[3, 0, 0, 1]"
11852,11852,11852,Barnet,2021-03-24,Sothebys Realty UK,1,"The Bishops Avenue, London N2",0,0,new,17000000.0,detached,0,freehold,8 bed detached house for sale,51.576313,-0.170859,1350.0,8,9,5,2021-03-24,17000000.0,1,0,1,East Finchley,1102,0,"[1, 0, 0, 0]"
11853,11853,11853,Barnet,2021-03-24,Barratt London - Ridgeway Views,1,"""Isaacs House"" at The Ridgeway, Mill Hill, London NW7",0,0,new,695000.0,flat,0,leasehold,2 bed flat for sale,51.6109153492823,-0.213386631578947,106.0,2,2,1,2021-03-24,695000.0,1,1,1,Mill Hill East,271,0,"[1, 1, 0, 1]"
11854,11854,11854,Barnet,2021-03-24,Barnard Marcus - North Finchley,1,"Holden Road, North Finchley, London N12",0,0,pre-owned,290000.0,flat,0,leasehold,1 bed flat for sale,51.621696,-0.185273,46.0,1,1,1,2021-03-24,290000.0,0,0,0,Woodside Park,399,0,"[4, 0, 0, 0]"
11855,11855,11855,Barnet,2021-03-24,Robert Lehrer Properties,0,"Aylmer Parade, East Finchley N2",0,0,pre-owned,370000.0,flat,0,leasehold,2 bed flat for sale,51.581969,-0.158205,78.0,2,2,1,2021-03-24,380000.0,0,0,0,East Finchley,747,3,"[1, 1, 0, 1]"
11856,11856,11856,Barnet,2021-03-23,Hunters - West Hampstead,0,"Fortune Green Road, West Hamstead NW6",0,0,pre-owned,420000.0,flat,0,freehold,1 bed flat for sale,51.556855,-0.195948,46.0,1,0,0,2021-03-23,435000.0,0,0,1,West Hampstead,948,2,"[6, 0, 0, 0]"
11857,11857,11857,Barnet,2021-03-23,Douglas Martin Estate Agents,1,"Barford Close, London NW4",0,0,pre-owned,325000.0,flat,0,Other,1 bed flat for sale,51.600372,-0.232166,71.0,1,1,1,2021-03-23,325000.0,0,0,0,Upminster,1529,0,"[2, 0, 0, 0]"
11858,11858,11858,Barnet,2021-03-23,Kingsleys Estates,0,"Greenfield Gardens, London NW2",0,0,pre-owned,1800000.0,detached,0,freehold,8 bed detached house for sale,51.562687,-0.20622,232.0,8,7,1,2021-03-23,2200000.0,0,1,1,Golders Green,1248,2,"[5, 1, 0, 0]"
11859,11859,11859,Barnet,2021-03-23,Martyn Gerrard - Land & New Homes,1,"Wildernesse House, Wildernesse Close, Edgware, London HA8",0,0,new,1250000.0,flat,0,share_of_freehold,3 bed flat for sale,51.621037,-0.269295,204.0,3,2,2,2021-03-23,1295000.0,0,0,0,Edgware,923,0,"[2, 0, 0, 0]"
11860,11860,11860,Barnet,2021-03-23,Martyn Gerrard - Mill Hill,1,"Wildernesse House, Wildernesse Close, Edgware, London HA8",0,0,new,1250000.0,flat,0,share_of_freehold,3 bed flat for sale,51.621037,-0.269295,204.0,3,2,2,2021-03-23,1295000.0,0,0,0,Edgware,923,0,"[2, 0, 0, 0]"
11861,11861,11861,Barnet,2021-03-23,Dreamview Estates,0,"The Vale, London NW11",0,0,pre-owned,585000.0,maisonette,0,share_of_freehold,2 bed maisonette for sale,51.567656,-0.20539,82.0,2,2,1,2021-03-23,585000.0,0,1,1,Upminster,852,0,"[2, 0, 0, 0]"
11862,11862,11862,Barnet,2021-03-23,Dreamview Estates,0,"Woodlands, London NW11",0,0,pre-owned,1475000.0,detached,0,freehold,4 bed detached house for sale,51.582467,-0.208963,145.0,4,3,2,2021-03-23,1575000.0,0,1,1,Brent Cross,668,0,"[4, 0, 0, 0]"
11863,11863,11863,Barnet,2021-03-23,TK International,1,"Chandos Way, Hampstead Garden Suburb, London NW11",0,0,new,3500000.0,Other,0,Other,5 bed property for sale,51.571331,-0.186291,361.0,5,3,3,2021-03-23,3500000.0,0,1,1,Golders Green,587,3,"[1, 0, 0, 0]"
11864,11864,11864,Barnet,2021-03-23,Barratt London - Millbrook Park,1,"""Violet Apartments"" at Bittacy Hill, London NW7",0,0,new,424000.0,flat,0,leasehold,1 bed flat for sale,51.608288,-0.209825,59.0,1,1,1,2021-03-23,424000.0,1,1,1,Mill Hill East,41,0,"[1, 1, 0, 1]"
11865,11865,11865,Barnet,2021-03-23,Douglas Martin Estate Agents,1,"Hollyview Close, London NW4",0,0,pre-owned,799950.0,terraced,0,Other,4 bed terraced house for sale,51.580963,-0.234499,170.0,4,3,2,2021-03-23,810000.0,0,0,0,Hendon Central,614,3,"[4, 1, 0, 1]"
11866,11866,11866,Barnet,2021-03-22,Chancellors - Finchley,1,"The Avenue, Finchley N3",0,0,pre-owned,1000000.0,semi_detached,0,freehold,4 bed semi-detached house for sale,51.592594,-0.190463,144.0,4,2,2,2021-03-22,1100000.0,0,0,0,Finchley Central,933,0,"[4, 0, 0, 0]"
11867,11867,11867,Barnet,2021-03-21,"Purplebricks, Head Office",0,"2 Loch Crescent, Edgware HA8",0,0,pre-owned,400000.0,flat,0,leasehold,2 bed flat for sale,51.623203,-0.287322,74.0,2,1,1,2021-03-21,400000.0,1,1,0,Upminster,949,0,"[1, 0, 0, 0]"
11868,11868,11868,Barnet,2021-03-19,Goldschmidt & Howland - Hampstead,1,"Finchley Road, London NW11",0,0,new,1400000.0,flat,0,leasehold,3 bed flat for sale,51.56302,-0.196829,148.0,3,3,1,2021-03-19,1550000.0,1,1,1,Golders Green,873,4,"[3, 0, 0, 1]"
11869,11869,11869,Barnet,2021-03-19,Goldschmidt & Howland - Hampstead,1,"Finchley Road, London NW11",0,0,new,950000.0,flat,0,leasehold,2 bed flat for sale,51.56302,-0.196829,118.0,2,2,1,2021-03-19,995000.0,1,1,1,Golders Green,873,4,"[3, 0, 0, 1]"
11870,11870,11870,Barnet,2021-03-19,Savills - Margaret Street RDS,1,"The Claves, Millbrook Park, Mill Hill, London NW7",0,0,new,600000.0,flat,0,leasehold,2 bed flat for sale,51.61072,-0.209498,80.0,2,2,1,2021-03-19,600000.0,1,1,1,Mill Hill East,494,0,"[2, 1, 0, 1]"
11871,11871,11871,Barnet,2021-03-19,Austin Chambers & Co,0,"Hatley Close, London N11",0,0,pre-owned,895000.0,detached,0,freehold,5 bed detached house for sale,51.616069,-0.157114,163.0,5,3,2,2021-03-19,925000.0,0,1,1,Arnos Grove,1425,1,"[4, 0, 0, 1]"
11872,11872,11872,Barnet,2021-03-19,Ellis & Co - Golders Green,1,"Beaufort Park, London NW11",0,0,pre-owned,435000.0,flat,0,leasehold,2 bed flat for sale,51.589382,-0.19473,70.0,2,1,1,2021-03-19,450000.0,1,0,1,Finchley Central,1445,1,"[3, 0, 1, 0]"
11873,11873,11873,Barnet,2021-03-19,Yopa,0,"Carlisle Place, London N11",0,0,pre-owned,460000.0,flat,0,freehold,2 bed flat for sale,51.617007,-0.143021,88.0,2,2,1,2021-03-19,480000.0,0,1,1,Arnos Grove,568,0,"[3, 0, 0, 2]"
11874,11874,11874,Barnet,2021-03-19,Statons - Totteridge,0,"Totteridge Green, Totteridge, London N20",0,0,pre-owned,6250000.0,detached,0,freehold,7 bed detached house for sale,51.629996,-0.193796,705.0,7,6,6,2021-03-19,6250000.0,1,0,1,Upminster,735,1,"[1, 0, 0, 0]"
11875,11875,11875,Barnet,2021-03-19,Brampton Real Estate,1,"Drayton Court, Asprey Park, Hope Close, London NW4",0,0,new,499950.0,flat,0,leasehold,2 bed flat for sale,51.597355,-0.220029,75.0,2,2,1,2021-03-19,499950.0,1,0,1,Mill Hill East,1446,0,"[2, 1, 0, 0]"
11876,11876,11876,Barnet,2021-03-18,Goldschmidt & Howland - Temple Fortune,0,"Beaufort Park, London NW11",0,0,pre-owned,435000.0,flat,0,Other,2 bed flat for sale,51.589382,-0.19473,70.0,2,1,1,2021-03-18,450000.0,0,0,0,Finchley Central,1445,1,"[3, 0, 1, 0]"
11877,11877,11877,Barnet,2021-03-18,Chancellors - Totteridge,0,"Friern Barnet, London N11,",0,0,pre-owned,550000.0,flat,0,leasehold,2 bed flat for sale,51.613625,-0.146785,68.0,2,2,1,2021-03-18,550000.0,0,0,0,Arnos Grove,1002,0,"[4, 0, 0, 2]"
11878,11878,11878,Barnet,2021-03-18,Strike,0,"Madoc Close, London NW2",0,0,pre-owned,500000.0,flat,0,leasehold,1 bed flat for sale,51.564303,-0.197782,48.0,1,1,1,2021-03-18,530000.0,0,1,0,Golders Green,815,4,"[3, 0, 0, 1]"
11879,11879,11879,Barnet,2021-03-18,Benham and Reeves - Kensington,0,"Croft House, 21 Heritage Avenue, Colindale NW9",0,0,pre-owned,230000.0,flat,0,leasehold,1 bed flat for sale,51.595704,-0.2423,27.0,1,1,1,2021-03-18,230000.0,0,0,0,Colindale,465,3,"[6, 2, 0, 2]"
11880,11880,11880,Barnet,2021-03-17,Chancellors - Barnet,0,"Cat Hill, Cockfosters EN4",0,0,pre-owned,850000.0,semi_detached,0,freehold,6 bed semi-detached house for sale,51.64537,-0.15279,107.0,6,6,0,2021-03-17,850000.0,0,1,1,Cockfosters,752,8,"[5, 0, 1, 0]"
11881,11881,11881,Barnet,2021-03-17,Douglas Martin Estate Agents,0,"Century Close, London NW4",0,0,pre-owned,999950.0,flat,0,Other,3 bed flat for sale,51.583751,-0.216619,144.0,3,2,1,2021-03-17,999950.0,1,0,1,Upminster,494,1,"[5, 0, 0, 1]"
11882,11882,11882,Barnet,2021-03-17,mi homes Property Agents,1,"Station Road, New Barnet, Barnet EN5",0,0,pre-owned,375000.0,flat,0,leasehold,2 bed flat for sale,51.648601,-0.178702,75.0,2,2,1,2021-03-17,400000.0,0,1,1,High Barnet,923,5,"[3, 0, 0, 0]"
11883,11883,11883,Barnet,2021-03-16,Winkworth - Finchley,1,"Henry Darlot Drive, Mill Hill East, London NW7",0,0,new,900000.0,flat,0,leasehold,3 bed flat for sale,51.614181,-0.207672,146.0,3,3,2,2021-03-16,900000.0,1,1,0,Mill Hill East,703,0,"[2, 0, 0, 0]"
11884,11884,11884,Barnet,2021-03-16,Nest Seekers International,0,"Holden Road, London N12",0,0,pre-owned,875000.0,flat,0,leasehold,3 bed flat for sale,51.617274,-0.186639,111.0,3,2,0,2021-03-16,825000.0,0,0,0,Woodside Park,227,0,"[5, 0, 0, 0]"
11885,11885,11885,Barnet,2021-03-15,Barratt London - Millbrook Park,1,"""Violet Apartments"" at Bittacy Hill, London NW7",0,0,new,558000.0,flat,0,leasehold,2 bed flat for sale,51.608288,-0.209825,71.0,2,2,1,2021-03-15,558000.0,1,1,1,Mill Hill East,41,0,"[1, 1, 0, 1]"
11886,11886,11886,Barnet,2021-03-15,Glentree,1,"The Templars, Finchley Road NW11",0,0,new,1450000.0,flat,0,Other,3 bed flat for sale,51.581409,-0.198651,161.0,3,3,1,2021-03-15,1450000.0,0,1,0,Golders Green,827,4,"[2, 1, 0, 2]"
11887,11887,11887,Barnet,2021-03-15,Winkworth - Hendon,1,"Hollyview Close, Hendon NW4",0,0,pre-owned,799950.0,terraced,0,freehold,5 bed terraced house for sale,51.581024,-0.234206,170.0,5,3,2,2021-03-15,810000.0,1,1,0,Hendon Central,624,4,"[4, 1, 0, 1]"
11888,11888,11888,Barnet,2021-03-15,Winkworth - Hendon,0,"Edgeworth Crescent, London NW4",0,0,pre-owned,1825000.0,detached,0,freehold,6 bed detached house for sale,51.586165,-0.234599,291.0,6,4,2,2021-03-15,1825000.0,1,0,1,Hendon Central,692,0,"[6, 0, 0, 1]"
11889,11889,11889,Barnet,2021-03-14,BM Properties,1,"Aerodrome Road, London NW9",0,0,new,834950.0,flat,0,leasehold,3 bed flat for sale,51.595129,-0.243793,97.0,3,3,1,2021-03-14,834950.0,0,0,0,Colindale,662,3,"[5, 2, 0, 3]"
11890,11890,11890,Barnet,2021-03-14,Roundtree Real Estate,1,"Finchley Lane, Hendon NW4",0,0,new,560000.0,flat,0,leasehold,2 bed flat for sale,51.590148,-0.21676,71.0,2,2,1,2021-03-14,560000.0,0,1,1,Hendon Central,1005,4,"[6, 1, 0, 1]"
11891,11891,11891,Barnet,2021-03-14,Finnerti,1,"Boulevard Drive, London NW9",0,0,new,525000.0,flat,0,Other,2 bed flat for sale,51.595954,-0.240259,77.0,2,2,1,2021-03-14,525000.0,0,0,0,Colindale,602,3,"[6, 2, 0, 2]"
11892,11892,11892,Barnet,2021-03-14,Finnerti,1,"Boulevard Drive, London NW9",0,0,new,410000.0,flat,0,Other,1 bed flat for sale,51.595977,-0.240253,52.0,1,1,1,2021-03-14,410000.0,0,0,0,Colindale,602,3,"[6, 2, 0, 2]"
11893,11893,11893,Barnet,2021-03-13,Godfrey & Barr,1,"Hammers Lane, London NW7",0,0,pre-owned,1400000.0,detached,0,freehold,4 bed detached house for sale,51.621372,-0.234663,194.0,4,3,4,2021-03-13,1550000.0,1,0,1,Mill Hill East,1753,1,"[4, 1, 0, 0]"
11894,11894,11894,Barnet,2021-03-12,Jeremy Leaf & Co,1,"Adastra House, 403 Nether Street, Finchley N3",0,0,new,425000.0,flat,0,leasehold,1 bed flat for sale,51.602719,-0.194376,53.0,1,0,0,2021-03-12,425000.0,1,0,1,Finchley Central,120,7,"[4, 0, 0, 2]"
11895,11895,11895,Barnet,2021-03-12,Anthony Pepe Palmers Green,0,"Accomodation Road, Barnet EN4",0,0,pre-owned,725000.0,terraced,0,freehold,4 bed terraced house for sale,51.632961,-0.147841,135.0,4,2,2,2021-03-12,750000.0,1,0,1,Chesham,1283,1,"[4, 0, 0, 0]"
11896,11896,11896,Barnet,2021-03-12,Statons,1,"Hadley Highstone, Barnet, Hertfordshire EN5",0,0,pre-owned,895000.0,Other,0,freehold,3 bed property for sale,51.665844,-0.199114,170.0,3,2,3,2021-03-12,945000.0,1,1,1,High Barnet,1435,0,"[0, 0, 0, 0]"
11897,11897,11897,Barnet,2021-03-12,Anthony Pepe Palmers Green,0,"Accomodation Road, Barnet EN4",0,0,pre-owned,725000.0,end_terrace,0,freehold,4 bed end terrace house for sale,51.632961,-0.147841,116.0,4,3,2,2021-03-12,775000.0,1,0,1,Chesham,1283,1,"[4, 0, 0, 0]"
11898,11898,11898,Barnet,2021-03-12,Winkworth Kingsbury,0,"Hitchin Lane, Stanmore HA7",0,1,pre-owned,240000.0,flat,0,leasehold,2 bed flat for sale,51.606493,-0.295836,71.0,2,1,1,2021-03-12,435000.0,0,0,1,Canons Park,217,2,"[4, 2, 0, 0]"
11899,11899,11899,Barnet,2021-03-12,Martin Allsuch,0,"Purcells Ave, Edgware HA8",0,0,pre-owned,769000.0,semi_detached,0,leasehold,3 bed semi-detached house for sale,51.617857,-0.280272,126.0,3,1,1,2021-03-12,769000.0,0,1,1,Edgware,550,1,"[1, 0, 0, 0]"
