,level_0,index,Borough,date_listed,agency_name,chain_free,address,isRetirementHome,isSharedOwnership,listingCondition,price,propertyType,isAuction,tenure,title,latitude,longitude,floor_area_msq,numBedrooms,numBathrooms,numLivingRooms,firstPublishedDate,firstPublishedPrice,balcony_terrace,parking,garden,closest_station_name,closest_station_distance_sec,pub_restaurant,amenities_shop
200,200,200,Camden,2021-06-09,Knight Frank - Hampstead Sales,1,"Arkwright Road, London NW3",0,0,pre-owned,999999.0,flat,0,Other,3 bed flat for sale,51.551013,-0.183616,96.0,3,1,1,2021-06-09,999999.0,0,0,1,Finchley Road,427,19,"[9, 1, 1, 2]"
201,201,201,Camden,2021-06-08,Sandfords - Regent's Park,0,"Marylebone Road, London NW1",0,0,pre-owned,725000.0,flat,0,leasehold,2 bed flat for sale,51.523456,-0.150822,57.0,2,0,0,2021-06-08,725000.0,0,0,1,Regent's Park,292,58,"[5, 18, 5, 1]"
202,202,202,Camden,2021-06-08,Savills - Hampstead,0,"Village Mount, Perrin's Court, Hampstead, London NW3",0,0,pre-owned,550000.0,flat,0,share_of_freehold,2 bed flat for sale,51.555547,-0.178199,41.0,2,1,1,2021-06-08,550000.0,0,0,0,Hampstead,158,31,"[12, 1, 3, 0]"
203,203,203,Camden,2021-06-08,Chancellors - Hampstead,0,"Dunrobin Court, Finchley Road, Hampstead NW3",0,0,pre-owned,800000.0,flat,0,share_of_freehold,2 bed flat for sale,51.551,-0.185,89.0,2,1,1,2021-06-08,850000.0,0,1,1,Finchley Road,516,25,"[5, 1, 1, 3]"
204,204,204,Camden,2021-06-08,Liv International,0,"The Visage, Winchester Road, Swiss Cottage NW3",0,0,pre-owned,870000.0,flat,0,Other,2 bed flat for sale,51.542331,-0.171457,84.0,2,2,1,2021-06-08,870000.0,1,1,0,Swiss Cottage,169,4,"[10, 1, 3, 2]"
205,205,205,Camden,2021-06-08,Heathgate,0,"Vane Close, London NW3",0,0,pre-owned,1999950.0,town_house,0,Other,4 bed town house for sale,51.554529,-0.174515,152.0,4,2,2,2021-06-08,2125000.0,1,1,1,Hampstead,308,32,"[16, 2, 3, 0]"
206,206,206,Camden,2021-06-08,Rose & Co,0,"Greencroft Gardens, South Hampstead, London NW6",0,0,pre-owned,659000.0,flat,0,Other,2 bed flat for sale,51.544846,-0.180952,65.0,2,1,1,2021-06-08,659000.0,1,0,1,Finchley Road,266,21,"[6, 1, 4, 4]"
207,207,207,Camden,2021-06-08,Fine & Country - Islington,0,"King's Cross Road, London WC1X",0,0,pre-owned,795000.0,flat,0,leasehold,2 bed flat for sale,51.527536,-0.115171,74.0,2,2,1,2021-06-08,795000.0,0,0,1,King's Cross St. Pancras,602,84,"[7, 7, 1, 1]"
208,208,208,Camden,2021-06-08,Vita Properties,1,"Greencroft Gardens, South Hampstead, London NW6",0,0,pre-owned,1275000.0,flat,0,share_of_freehold,3 bed flat for sale,51.54324,-0.187776,121.0,3,3,1,2021-06-08,1275000.0,0,0,0,West Hampstead,498,11,"[7, 1, 0, 3]"
209,209,209,Camden,2021-06-07,Savills - Hampstead,0,"Lyndhurst Road, Hampstead, London NW3",0,0,pre-owned,1500000.0,flat,0,leasehold,3 bed flat for sale,51.551789,-0.174209,124.0,3,2,2,2021-06-07,1650000.0,1,0,1,Hampstead,519,31,"[17, 3, 1, 1]"
210,210,210,Camden,2021-06-07,Savills - Hampstead,0,"Frognal Lane, Hampstead, London NW3",0,0,pre-owned,8650000.0,semi_detached,0,freehold,6 bed semi-detached house for sale,51.554579,-0.183632,478.0,6,4,3,2021-06-07,8650000.0,0,0,1,Hampstead,427,23,"[11, 0, 3, 0]"
211,211,211,Camden,2021-06-07,Drivers & Norris,0,"Widdenham Road, Islington, London N7",0,0,pre-owned,675000.0,flat,0,leasehold,2 bed flat for sale,51.55381,-0.116043,74.0,2,1,1,2021-06-07,675000.0,0,0,1,Holloway Road,316,32,"[9, 5, 0, 6]"
212,212,212,Camden,2021-06-07,Olivers Town - Kentish Town,0,"Grafton Road, Kentish Town NW5",0,0,pre-owned,375000.0,flat,0,leasehold,1 bed flat for sale,51.54983,-0.148455,39.0,1,1,1,2021-06-07,375000.0,0,0,0,Chesham,595,24,"[6, 3, 1, 4]"
213,213,213,Camden,2021-06-07,Dexters - Kentish Town & Camden,1,"Hadley Street, London NW1",0,0,pre-owned,1400000.0,Other,0,freehold,4 bed property for sale,51.546274,-0.146336,126.0,4,2,1,2021-06-07,1400000.0,1,0,1,Kentish Town,537,58,"[9, 5, 2, 8]"
214,214,214,Camden,2021-06-07,Dexters - Kentish Town & Camden,1,"Camden Street, London NW1",0,0,pre-owned,1575000.0,Other,0,freehold,4 bed property for sale,51.542254,-0.141186,182.0,4,3,1,2021-06-07,1575000.0,0,0,0,Camden Town,312,87,"[7, 4, 2, 5]"
215,215,215,Camden,2021-06-07,Keatons - Kentish Town,1,"Camden Road, Camden Town, London NW1",0,0,pre-owned,500000.0,flat,0,leasehold,2 bed flat for sale,51.54688,-0.131397,64.0,2,1,1,2021-06-07,550000.0,0,0,0,Kentish Town,686,13,"[10, 4, 0, 3]"
216,216,216,Camden,2021-06-07,Bargets,0,"Clarence Terrace, Regents Park, London NW1",0,0,pre-owned,3295000.0,maisonette,0,leasehold,3 bed maisonette for sale,51.52517,-0.15942,145.0,3,0,0,2021-06-07,3500000.0,1,1,0,Baker Street,347,34,"[16, 4, 2, 1]"
217,217,217,Camden,2021-06-07,Chestertons - Camden & Primrose Hill,0,"Camden Park Road, London NW1",0,0,pre-owned,1550000.0,Other,0,freehold,5 bed property for sale,51.546268,-0.128033,218.0,5,2,2,2021-06-07,1550000.0,0,0,1,Caledonian Road,675,11,"[8, 2, 1, 3]"
218,218,218,Camden,2021-06-07,The Agency UK,1,"Westbere Road, London NW2",0,0,pre-owned,800000.0,maisonette,0,leasehold,5 bed maisonette for sale,51.553258,-0.205833,138.0,5,1,1,2021-06-07,800000.0,0,0,0,Kilburn,647,15,"[4, 1, 0, 0]"
219,219,219,Camden,2021-06-07,Hamptons - Hyde Park & Bayswater Sales,0,"Hyde Park Mansions, Cabbell Street, London NW1",0,0,pre-owned,950000.0,flat,0,leasehold,5 bed flat for sale,51.518611,-0.167411,156.0,5,3,1,2021-06-07,950000.0,0,0,1,Edgware Road (B),127,110,"[18, 4, 0, 6]"
220,220,220,Camden,2021-06-06,Chancellors - Hampstead,0,"Romney Court, Haverstock Hill, Belsize Park NW3",0,0,pre-owned,600000.0,flat,0,leasehold,1 bed flat for sale,51.548,-0.162,45.0,1,1,1,2021-06-06,650000.0,0,1,1,Belsize Park,274,16,"[7, 5, 1, 1]"
221,221,221,Camden,2021-06-04,Hunters - West Hampstead,0,"Pandora Road, London NW6",0,0,pre-owned,800000.0,flat,0,Other,2 bed flat for sale,51.5498,-0.195001,88.0,2,0,0,2021-06-04,800000.0,0,0,1,West Hampstead,503,15,"[6, 2, 0, 2]"
222,222,222,Camden,2021-06-04,Cluttons - Hyde Park,0,"Palgrave Gardens, London NW1",0,0,pre-owned,1500000.0,flat,0,share_of_freehold,4 bed flat for sale,51.526756,-0.165134,81.0,4,2,1,2021-06-04,1500000.0,1,1,1,Marylebone,679,23,"[13, 0, 1, 3]"
223,223,223,Camden,2021-06-04,Savills - St. John's Wood & Regents Park,0,"Bell Street, Lisson Grove, London NW1",0,0,pre-owned,425000.0,flat,0,share_of_freehold,1 bed flat for sale,51.521616,-0.167632,41.0,1,1,1,2021-06-04,450000.0,0,0,0,Chesham,213,68,"[24, 4, 1, 4]"
224,224,224,Camden,2021-06-04,Arlington Residential,0,"Fortune Green Road, London, London NW6",0,0,pre-owned,600000.0,flat,0,Other,2 bed flat for sale,51.553818,-0.195616,65.0,2,2,1,2021-06-04,600000.0,0,0,0,West Hampstead,675,9,"[8, 2, 0, 2]"
225,225,225,Camden,2021-06-04,Strike,1,"Cleve Road, London NW6",0,0,pre-owned,775000.0,flat,0,share_of_freehold,2 bed flat for sale,51.544006,-0.191107,65.0,2,1,1,2021-06-04,775000.0,1,0,1,West Hampstead,325,17,"[9, 1, 0, 3]"
226,226,226,Camden,2021-06-04,Dexters - Kentish Town & Camden,1,"Albert Street, London NW1",0,0,pre-owned,625000.0,flat,0,leasehold,1 bed flat for sale,51.534494,-0.141927,60.0,1,1,1,2021-06-04,625000.0,0,0,0,Mornington Crescent,423,60,"[8, 1, 1, 6]"
227,227,227,Camden,2021-06-04,Parkheath - West & South Hampstead,0,"Crediton Hill, London NW6",0,0,pre-owned,1425000.0,flat,0,Other,4 bed flat for sale,51.551662,-0.189061,118.0,4,3,1,2021-06-04,1425000.0,0,0,1,West Hampstead,532,11,"[4, 2, 0, 3]"
228,228,228,Camden,2021-06-04,Hadleigh Residential,1,"College Crescent, London NW3",0,0,pre-owned,699950.0,flat,0,leasehold,2 bed flat for sale,51.5442,-0.175661,58.0,2,1,1,2021-06-04,699950.0,1,0,0,Swiss Cottage,218,20,"[13, 2, 4, 5]"
229,229,229,Camden,2021-06-03,Daniel Daggers Real Estate,0,"St Katharine's Precinct, London NW1",0,0,pre-owned,11950000.0,semi_detached,0,leasehold,5 bed semi-detached house for sale,51.533934,-0.147029,429.0,5,5,3,2021-06-03,11950000.0,0,1,1,Camden Town,615,34,"[4, 1, 1, 5]"
230,230,230,Camden,2021-06-03,Savills - St. John's Wood & Regents Park,0,"Visage Apartments, Winchester Road, Swiss Cottage, London NW3",0,0,pre-owned,2250000.0,flat,0,leasehold,3 bed flat for sale,51.54261,-0.172038,172.0,3,2,1,2021-06-03,2250000.0,1,1,0,Swiss Cottage,120,6,"[10, 1, 3, 2]"
231,231,231,Camden,2021-06-03,Keatons - Kentish Town,1,"Grafton Road, Kentish Town, London NW5",0,0,pre-owned,575000.0,flat,0,leasehold,2 bed flat for sale,51.54983,-0.148455,75.0,2,2,1,2021-06-03,575000.0,1,0,0,Chesham,595,24,"[6, 3, 1, 4]"
232,232,232,Camden,2021-06-03,Salter Rex,1,"Prince Of Wales Road, London NW5",0,0,pre-owned,525000.0,flat,0,leasehold,3 bed flat for sale,51.546588,-0.142876,73.0,3,1,1,2021-06-03,525000.0,0,0,0,Kentish Town,427,54,"[11, 7, 2, 5]"
233,233,233,Camden,2021-06-03,Ideal Place,0,"Caledonian Road, London N7",0,0,pre-owned,525000.0,flat,0,leasehold,2 bed flat for sale,51.554403,-0.118279,49.0,2,1,1,2021-06-03,525000.0,0,0,0,Holloway Road,459,21,"[11, 3, 1, 4]"
234,234,234,Camden,2021-06-03,Metropole,0,"Lisson Grove, Marylebone NW1",0,0,pre-owned,1199950.0,terraced,0,leasehold,3 bed terraced house for sale,51.524129,-0.167787,108.0,3,2,1,2021-06-03,1199950.0,1,0,0,Chesham,467,42,"[18, 3, 2, 2]"
235,235,235,Camden,2021-06-03,TK International,0,"Platts Lane, London NW3",0,0,pre-owned,3950000.0,Other,0,Other,5 bed property for sale,51.561576,-0.192172,347.0,5,4,3,2021-06-03,4050000.0,0,0,1,Golders Green,1117,4,"[3, 0, 0, 1]"
236,236,236,Camden,2021-06-03,Knight Frank - Hampstead Sales,1,"Netherhall Gardens, London NW3",0,0,pre-owned,900000.0,flat,0,freehold,2 bed flat for sale,51.549723,-0.179199,76.0,2,2,1,2021-06-03,900000.0,1,0,1,Finchley Road,347,17,"[15, 1, 2, 3]"
237,237,237,Camden,2021-06-03,Goldschmidt & Howland - Camden,0,"Rochester Square, Camden, London NW1",0,0,pre-owned,2000000.0,semi_detached,0,freehold,5 bed semi-detached house for sale,51.543601,-0.13458,220.0,5,3,2,2021-06-03,2000000.0,0,0,1,Chesham,568,27,"[5, 3, 1, 5]"
238,238,238,Camden,2021-06-03,Heywoods Estate Agents,0,"Belsize Park, Belsize Park NW3",0,0,pre-owned,1395000.0,flat,0,share_of_freehold,2 bed flat for sale,51.546983,-0.172358,100.0,2,2,1,2021-06-03,1495000.0,1,0,1,Swiss Cottage,395,15,"[16, 1, 4, 2]"
239,239,239,Camden,2021-06-03,Knight Frank - Hampstead Sales,1,"Windsor Court, Platts Lane, London NW3",0,0,pre-owned,1080000.0,flat,0,Other,2 bed flat for sale,51.559,-0.1942,106.0,2,2,2,2021-06-03,1080000.0,1,1,1,West Hampstead,1152,4,"[7, 0, 0, 1]"
240,240,240,Camden,2021-06-03,Arlington Residential,0,"Winchester Road, Swiss Cottage, London NW3",0,0,pre-owned,830000.0,flat,0,leasehold,1 bed flat for sale,51.542378,-0.172338,78.0,1,2,1,2021-06-03,830000.0,0,1,0,Swiss Cottage,140,6,"[10, 1, 3, 2]"
241,241,241,Camden,2021-06-02,Olivers Town - Kentish Town,1,"Charlton Kings Road, Kentish Town NW5",0,0,pre-owned,650000.0,flat,0,share_of_freehold,1 bed flat for sale,51.551041,-0.132366,65.0,1,1,1,2021-06-02,650000.0,0,1,0,Chesham,598,7,"[10, 3, 1, 3]"
242,242,242,Camden,2021-06-02,Olivers Town - Kentish Town,1,"Forge Place, Chalk Farm NW1",0,0,pre-owned,625000.0,flat,0,leasehold,2 bed flat for sale,51.545344,-0.148522,79.0,2,1,1,2021-06-02,625000.0,1,0,0,Chalk Farm,453,68,"[8, 3, 2, 7]"
243,243,243,Camden,2021-06-02,Heywoods Estate Agents,0,"Belsize Park Gardens, Belsize Park NW3",0,0,pre-owned,635000.0,Other,0,share_of_freehold,1 bed property for sale,51.547289,-0.166998,49.0,1,1,1,2021-06-02,635000.0,0,0,1,Belsize Park,323,13,"[11, 4, 2, 3]"
244,244,244,Camden,2021-06-02,Keatons - Kentish Town,0,"Caversham Road, Kentish Town, London NW5",0,0,pre-owned,475000.0,flat,0,leasehold,1 bed flat for sale,51.548207,-0.134574,57.0,1,1,1,2021-06-02,500000.0,0,0,1,Kentish Town,477,35,"[8, 5, 1, 7]"
245,245,245,Camden,2021-06-02,Parkheath - West & South Hampstead,0,"Priory Road, London NW6",0,0,pre-owned,925000.0,flat,0,Other,3 bed flat for sale,51.542625,-0.188863,88.0,3,1,1,2021-06-02,925000.0,0,0,1,West Hampstead,477,15,"[9, 1, 0, 4]"
246,246,246,Camden,2021-06-02,Savills - Primrose Hill,0,"Edis Street, Primrose Hill, London NW1",0,0,pre-owned,2000000.0,maisonette,0,share_of_freehold,2 bed maisonette for sale,51.539876,-0.151959,112.0,2,0,0,2021-06-02,2000000.0,1,0,0,Chalk Farm,526,64,"[7, 3, 2, 4]"
247,247,247,Camden,2021-06-02,Goldschmidt & Howland - Hampstead,1,"Belsize Park Firehouse, 36 Lancaster Grove, Belsize Park NW3",0,0,new,600000.0,flat,0,leasehold,1 bed flat for sale,51.545612,-0.167812,50.0,1,1,1,2021-06-02,600000.0,1,0,0,Chesham,511,9,"[9, 5, 2, 3]"
248,248,248,Camden,2021-06-02,Goldschmidt & Howland - Hampstead,1,"Belsize Park Firehouse, 36 Lancaster Grove, Belsize Park NW3",0,0,new,730000.0,flat,0,leasehold,1 bed flat for sale,51.545637,-0.167778,50.0,1,1,1,2021-06-02,730000.0,1,1,0,Chesham,510,9,"[9, 5, 2, 3]"
249,249,249,Camden,2021-06-02,Tyron Ash,0,"Camley Street, London N1C",0,0,pre-owned,900000.0,flat,0,leasehold,2 bed flat for sale,51.53778,-0.130266,77.0,2,2,1,2021-06-02,900000.0,1,0,0,Chesham,713,21,"[8, 3, 2, 1]"
250,250,250,Camden,2021-06-02,Martyn Gerrard - Kentish Town,0,"Malden Road, Kentish Town, London NW5",0,0,pre-owned,690000.0,flat,0,leasehold,2 bed flat for sale,51.549758,-0.153659,87.0,2,1,1,2021-06-02,725000.0,1,0,1,Chalk Farm,620,12,"[9, 3, 0, 1]"
251,251,251,Camden,2021-06-02,Chestertons - St John's Wood,0,"Cosway Street, Marylebone, London NW1",0,0,pre-owned,465000.0,flat,0,leasehold,1 bed flat for sale,51.521541,-0.165689,32.0,1,1,1,2021-06-02,465000.0,0,0,0,Edgware Road (B),288,66,"[24, 4, 1, 5]"
252,252,252,Camden,2021-06-02,Alexanders,0,"West End Lane, West Hampstead, London NW6",0,0,pre-owned,450000.0,flat,0,leasehold,2 bed flat for sale,51.551845,-0.19294,52.0,2,1,1,2021-06-02,465000.0,0,0,0,West Hampstead,533,9,"[5, 2, 0, 2]"
253,253,253,Camden,2021-06-01,"Purplebricks, Head Office",1,"Lamble Street, London NW5",0,0,pre-owned,600000.0,flat,0,leasehold,5 bed flat for sale,51.553396,-0.152796,93.0,5,2,1,2021-06-01,650000.0,0,0,0,Chesham,866,6,"[9, 1, 0, 1]"
254,254,254,Camden,2021-06-01,Benham and Reeves - Kensington,0,"Hand Axe Yard, London WC1X",0,0,pre-owned,1000000.0,flat,0,leasehold,2 bed flat for sale,51.529402,-0.120925,70.0,2,2,1,2021-06-01,1200000.0,1,0,0,King's Cross St. Pancras,253,93,"[9, 6, 2, 4]"
255,255,255,Camden,2021-06-01,Daker Estates,0,"Old Marylebone Road, Marylebone, London NW1",0,0,pre-owned,650000.0,flat,0,leasehold,1 bed flat for sale,51.519514,-0.165511,49.0,1,1,1,2021-06-01,650000.0,1,1,0,Edgware Road (B),294,91,"[16, 4, 0, 6]"
256,256,256,Camden,2021-06-01,Dexters - Kentish Town & Camden,0,"Queens Crescent, London NW5",0,0,pre-owned,2250000.0,Other,0,freehold,5 bed property for sale,51.546375,-0.154921,194.0,5,3,2,2021-06-01,2250000.0,0,0,0,Chalk Farm,365,27,"[7, 7, 1, 4]"
257,257,257,Camden,2021-06-01,Parkheath - West & South Hampstead,0,"West End Lane, London NW6",0,0,pre-owned,900000.0,flat,0,Other,3 bed flat for sale,51.552036,-0.191607,93.0,3,2,1,2021-06-01,950000.0,1,0,0,West Hampstead,479,9,"[4, 2, 0, 2]"
258,258,258,Camden,2021-06-01,Noahs,0,"Onyx Apartments, Camley Street, London N1C",0,0,pre-owned,1000000.0,flat,0,Other,2 bed flat for sale,51.537296,-0.129994,77.0,2,2,1,2021-06-01,1000000.0,1,0,0,King's Cross St. Pancras,673,22,"[9, 3, 2, 1]"
259,259,259,Camden,2021-06-01,Knight Frank - Belsize Park Sales,0,"Pond Street, London NW3",0,0,pre-owned,850000.0,flat,0,Other,2 bed flat for sale,51.5538,-0.165283,88.0,2,2,1,2021-06-01,850000.0,1,1,0,Belsize Park,463,28,"[10, 3, 1, 1]"
260,260,260,Camden,2021-06-01,"Blane, Rosen & Co",0,"Belsize Park, Belsize Park NW3",0,0,pre-owned,6250000.0,semi_detached,0,freehold,18 bed semi-detached house for sale,51.548558,-0.171468,666.0,18,15,4,2021-06-01,6250000.0,0,1,1,Chesham,473,16,"[17, 1, 2, 0]"
261,261,261,Camden,2021-06-01,Hadleigh Residential,0,"Belsize Park Gardens, London NW3",0,0,pre-owned,1200000.0,flat,0,Other,2 bed flat for sale,51.546699,-0.165464,123.0,2,1,1,2021-06-01,1200000.0,0,0,1,Belsize Park,345,17,"[9, 5, 1, 3]"
262,262,262,Camden,2021-06-01,Heywoods Estate Agents,0,"Buckland Crescent, Belsize Park NW3",0,0,pre-owned,1295000.0,flat,0,share_of_freehold,2 bed flat for sale,51.546399,-0.172482,116.0,2,2,1,2021-06-01,1295000.0,0,0,1,Swiss Cottage,348,14,"[16, 1, 4, 3]"
263,263,263,Camden,2021-05-30,TK International,1,"West Heath Road, Hampstead NW3",0,0,new,3950000.0,Other,0,leasehold,4 bed property for sale,51.565067,-0.194619,271.0,4,3,4,2021-05-30,4150000.0,1,1,1,Golders Green,691,4,"[3, 0, 0, 1]"
264,264,264,Camden,2021-05-30,TK International,1,"West Heath Road, Hampstead NW3",0,0,new,4250000.0,Other,0,leasehold,4 bed property for sale,51.565086,-0.19463,269.0,4,3,4,2021-05-30,4250000.0,1,1,1,Golders Green,690,4,"[3, 0, 0, 1]"
265,265,265,Camden,2021-05-29,Knight Frank - Islington Sales,0,"Hand Axe Yard, London WC1X",0,0,pre-owned,1000000.0,flat,0,leasehold,2 bed flat for sale,51.529402,-0.120925,80.0,2,1,1,2021-05-29,1000000.0,1,0,0,King's Cross St. Pancras,253,93,"[9, 6, 2, 4]"
266,266,266,Camden,2021-05-29,Knight Frank - Hampstead Sales,0,"Holly Mount, London NW3",0,0,pre-owned,1795000.0,terraced,0,Other,3 bed terraced house for sale,51.557559,-0.1792,84.0,3,2,0,2021-05-29,1795000.0,0,0,1,Hampstead,143,31,"[10, 0, 3, 0]"
267,267,267,Camden,2021-05-29,Mapesbury Estate Agents,0,"Jubilee Heights, Shoot Up Hill, Kilburn NW2",0,0,pre-owned,525000.0,flat,0,Other,2 bed flat for sale,51.54787,-0.205307,74.0,2,1,0,2021-05-29,525000.0,1,1,0,Kilburn,166,12,"[5, 2, 1, 0]"
268,268,268,Camden,2021-05-29,Amber & Co Ltd,0,"Camden Park Road, Camden NW1",0,0,pre-owned,1550000.0,terraced,0,freehold,8 bed terraced house for sale,51.546268,-0.128033,200.0,8,7,8,2021-05-29,1550000.0,1,0,0,Caledonian Road,675,11,"[8, 2, 1, 3]"
269,269,269,Camden,2021-05-29,Next Property,0,"Monica Shaw Court, Purchese Street, Kings Cross NW1",0,0,pre-owned,495000.0,flat,0,leasehold,1 bed flat for sale,51.532021,-0.130622,48.0,1,1,1,2021-05-29,495000.0,0,0,0,Chesham,524,64,"[17, 3, 2, 3]"
270,270,270,Camden,2021-05-28,Hunters - West Hampstead,0,"Narcissus Road, London NW6",0,0,pre-owned,2400000.0,Other,0,Other,4 bed property for sale,51.550979,-0.19569,220.0,4,0,0,2021-05-28,2400000.0,0,0,1,West Hampstead,600,12,"[4, 2, 0, 2]"
271,271,271,Camden,2021-05-28,LRC - London Sales and Letting Agency,1,"Phoenix Place, Holborn, London WC1X",0,0,new,1230000.0,flat,0,leasehold,2 bed flat for sale,51.524503,-0.112088,80.0,2,2,1,2021-05-28,1230000.0,1,0,1,Chancery Lane,525,85,"[13, 6, 1, 2]"
272,272,272,Camden,2021-05-28,LRC - London Sales and Letting Agency,1,"Phoenix Place, Holborn, London WC1X",0,0,new,899000.0,flat,0,leasehold,1 bed flat for sale,51.524503,-0.112088,51.0,1,1,1,2021-05-28,899000.0,1,0,1,Chancery Lane,525,85,"[13, 6, 1, 2]"
273,273,273,Camden,2021-05-28,Goldschmidt & Howland - Camden,0,"Prowse Place, Camden, London NW1",0,0,pre-owned,925000.0,terraced,0,freehold,2 bed terraced house for sale,51.542598,-0.140932,80.0,2,1,1,2021-05-28,925000.0,0,0,1,Camden Town,354,81,"[7, 4, 2, 3]"
274,274,274,Camden,2021-05-28,Charmill Residential,0,"Prowse Place, London NW1",0,0,pre-owned,925000.0,Other,0,Other,3 bed property for sale,51.542453,-0.140841,80.0,3,1,1,2021-05-28,925000.0,1,0,1,Camden Town,366,83,"[7, 4, 2, 4]"
275,275,275,Camden,2021-05-28,Property Divas Limited,0,"Chalcot Gardens, London NW3",0,0,pre-owned,1025000.0,flat,0,leasehold,2 bed flat for sale,51.54636,-0.161478,67.0,2,2,1,2021-05-28,1025000.0,1,0,0,Belsize Park,469,14,"[6, 5, 1, 2]"
276,276,276,Camden,2021-05-28,Goldschmidt & Howland - Hampstead,1,"West Heath Road, Hampstead, London NW3",0,0,new,3950000.0,terraced,0,freehold,4 bed terraced house for sale,51.564988,-0.19502,269.0,4,3,3,2021-05-28,4150000.0,1,1,1,Golders Green,706,4,"[3, 0, 0, 1]"
277,277,277,Camden,2021-05-28,Goldschmidt & Howland - Hampstead,1,"West Heath Road, Hampstead, London NW3",0,0,new,4250000.0,terraced,0,freehold,4 bed terraced house for sale,51.564988,-0.19502,271.0,4,3,3,2021-05-28,4250000.0,1,1,1,Golders Green,706,4,"[3, 0, 0, 1]"
278,278,278,Camden,2021-05-28,Savills - Hampstead,1,"Parkhill Road, London NW3",0,0,new,1200000.0,flat,0,leasehold,2 bed flat for sale,51.548916,-0.158963,82.0,2,2,1,2021-05-28,1200000.0,1,1,0,Belsize Park,515,17,"[8, 5, 1, 2]"
279,279,279,Camden,2021-05-28,Knight Frank - Belsize Park Sales,0,"Parkhill Road, Belsize Park, London NW3",0,0,pre-owned,1200000.0,flat,0,leasehold,3 bed flat for sale,51.55013,-0.15859,82.0,3,2,2,2021-05-28,1200000.0,1,1,0,Belsize Park,464,24,"[6, 6, 1, 3]"
280,280,280,Camden,2021-05-28,Strike,1,"West End Lane, London NW6",0,0,pre-owned,1000000.0,flat,0,leasehold,3 bed flat for sale,51.55094,-0.191786,124.0,3,1,1,2021-05-28,1100000.0,0,0,0,West Hampstead,367,11,"[4, 2, 0, 2]"
281,281,281,Camden,2021-05-28,John D Wood & Co. - Primrose Hill Sales,0,"Regents Park Road, Primrose Hill, London NW1",0,0,pre-owned,1350000.0,flat,0,share_of_freehold,2 bed flat for sale,51.53992,-0.157019,68.0,2,1,1,2021-05-28,1350000.0,1,0,0,Chalk Farm,508,24,"[5, 4, 2, 3]"
282,282,282,Camden,2021-05-27,Hamptons - Islington Sales,0,"St. Pancras Chambers, Euston Road, London NW1",0,0,pre-owned,2000000.0,flat,0,leasehold,2 bed flat for sale,51.529891,-0.125412,151.0,2,3,1,2021-05-27,2000000.0,1,0,0,King's Cross St. Pancras,336,99,"[13, 6, 3, 3]"
283,283,283,Camden,2021-05-27,Savills - Hampstead,0,"Maresfield Gardens, Hampstead, London NW3",0,0,pre-owned,1500000.0,flat,0,leasehold,3 bed flat for sale,51.550698,-0.178075,109.0,3,2,1,2021-05-27,1500000.0,0,0,1,Finchley Road,481,23,"[16, 2, 1, 3]"
284,284,284,Camden,2021-05-27,Goldschmidt & Howland - Hampstead,1,"Fitzjohns Avenue, Hampstead, London NW3",0,0,new,875000.0,flat,0,leasehold,2 bed flat for sale,51.547179,-0.176258,69.0,2,2,1,2021-05-27,875000.0,0,0,0,Finchley Road,356,25,"[15, 2, 4, 4]"
285,285,285,Camden,2021-05-27,Goldschmidt & Howland - Hampstead,1,"Fitzjohns Avenue, Hampstead, London NW3",0,0,new,1650000.0,flat,0,leasehold,3 bed flat for sale,51.547685,-0.176263,134.0,3,3,1,2021-05-27,1650000.0,0,0,1,Finchley Road,396,24,"[16, 1, 3, 3]"
286,286,286,Camden,2021-05-27,Parkheath - West & South Hampstead,0,"Dynham Road, London NW6",0,0,pre-owned,475000.0,flat,0,Other,2 bed flat for sale,51.544029,-0.193973,48.0,2,1,1,2021-05-27,475000.0,0,0,1,West Hampstead,333,30,"[10, 2, 1, 5]"
287,287,287,Camden,2021-05-27,Knight Frank - Islington Sales,0,"St Pancras Chambers, Euston Road, London NW1",0,0,pre-owned,1400000.0,flat,0,leasehold,2 bed flat for sale,51.529672,-0.125287,107.0,2,2,1,2021-05-27,1400000.0,0,1,0,King's Cross St. Pancras,172,100,"[15, 7, 3, 4]"
288,288,288,Camden,2021-05-27,Hadleigh Residential,0,"Adamson Road, London NW3",0,0,pre-owned,950000.0,flat,0,Other,2 bed flat for sale,51.544799,-0.17278,81.0,2,1,1,2021-05-27,950000.0,1,0,0,Swiss Cottage,166,10,"[13, 2, 3, 5]"
289,289,289,Camden,2021-05-27,Sandfords - Regent's Park,0,"Chester Close North, London NW1",0,0,pre-owned,1695000.0,Other,0,leasehold,3 bed property for sale,51.529753,-0.144714,133.0,3,0,0,2021-05-27,1695000.0,0,0,0,Great Portland Street,535,21,"[3, 2, 1, 3]"
290,290,290,Camden,2021-05-27,Marcus Parfitt,0,"Pilgrims Lane, Hampstead Village NW3",0,0,pre-owned,6950000.0,semi_detached,0,freehold,5 bed semi-detached house for sale,51.556358,-0.170823,352.0,5,3,3,2021-05-27,6950000.0,0,1,1,Hampstead,489,29,"[13, 2, 1, 1]"
291,291,291,Camden,2021-05-27,Keatons - Kentish Town,0,"Gaisford Street, Kentish Town, London NW5",0,0,pre-owned,400000.0,flat,0,leasehold,1 bed flat for sale,51.547738,-0.139569,43.0,1,1,1,2021-05-27,400000.0,1,0,1,Kentish Town,309,40,"[10, 5, 2, 5]"
292,292,292,Camden,2021-05-27,Liv International,0,"Belsize Park Gardens, Belsize Park NW3",0,0,pre-owned,1000000.0,flat,0,leasehold,2 bed flat for sale,51.546002,-0.163004,89.0,2,1,2,2021-05-27,1000000.0,1,0,1,Belsize Park,463,10,"[7, 5, 0, 2]"
293,293,293,Camden,2021-05-26,Chestertons - Camden & Primrose Hill,0,"Grafton Terrace, Kentish Town, London NW5",0,0,pre-owned,2000000.0,terraced,0,freehold,4 bed terraced house for sale,51.549878,-0.155535,204.0,4,3,2,2021-05-26,2000000.0,1,0,1,Chalk Farm,602,15,"[9, 5, 0, 2]"
294,294,294,Camden,2021-05-26,Savills - Hampstead,0,"Maresfield Gardens, Hampstead, London NW3",0,0,pre-owned,850000.0,flat,0,share_of_freehold,2 bed flat for sale,51.548306,-0.178055,70.0,2,2,1,2021-05-26,850000.0,0,0,0,Finchley Road,352,24,"[14, 1, 3, 3]"
295,295,295,Camden,2021-05-26,Sail Homes,1,"2 Palgrave Gardens, London NW1",0,0,pre-owned,1000000.0,flat,0,leasehold,2 bed flat for sale,51.525626,-0.162988,94.0,2,2,1,2021-05-26,1000000.0,1,1,1,Marylebone,488,34,"[17, 2, 1, 2]"
296,296,296,Camden,2021-05-26,CBRE,0,"Mercer Street, Covent Garden WC2H",0,0,pre-owned,900000.0,flat,0,leasehold,2 bed flat for sale,51.513362,-0.126618,63.0,2,1,1,2021-05-26,795000.0,1,0,0,Covent Garden,187,561,"[13, 4, 51, 12]"
297,297,297,Camden,2021-05-26,Knights Lettings & Property Sales,0,"Holmefield Court, Belsize Grove, London NW3",0,0,pre-owned,490000.0,flat,0,leasehold,1 bed flat for sale,51.54928,-0.164386,43.0,1,1,1,2021-05-26,490000.0,0,0,1,Belsize Park,156,25,"[14, 5, 1, 1]"
298,298,298,Camden,2021-05-26,Stone Real Estate,1,"1 Espalier Gardens, London NW6",0,0,new,850000.0,flat,0,leasehold,3 bed flat for sale,51.54335,-0.19964,100.0,3,2,0,2021-05-26,850000.0,0,0,0,Kilburn,406,33,"[11, 2, 1, 8]"
299,299,299,Camden,2021-05-26,Stone Real Estate,1,"1 Espalier Gardens, London NW6",0,0,new,615000.0,flat,0,leasehold,2 bed flat for sale,51.54335,-0.19964,64.0,2,1,0,2021-05-26,615000.0,0,0,0,Kilburn,406,33,"[11, 2, 1, 8]"
