,level_0,index,Borough,date_listed,agency_name,chain_free,address,isRetirementHome,isSharedOwnership,listingCondition,price,propertyType,isAuction,tenure,title,latitude,longitude,floor_area_msq,numBedrooms,numBathrooms,numLivingRooms,firstPublishedDate,firstPublishedPrice,balcony_terrace,parking,garden,closest_station_name,closest_station_distance_sec,pub_restaurant,amenities_shop
8200,8200,8200,Tower Hamlets,2021-01-13,Foxtons - Wapping,0,"Maynards Quay, Wapping, London E1W",0,0,pre-owned,1000000.0,detached,0,Other,5 bed detached house for sale,51.508485,-0.055066,139.0,5,3,1,2021-01-13,1050000.0,0,1,0,Chesham,388,7,"[10, 2, 0, 0]"
8201,8201,8201,Tower Hamlets,2021-01-13,IREIS Properties,1,"55 Marsh Wall, Isle Of Dogs, London E14",0,0,new,785000.0,studio,0,leasehold,Studio for sale,51.501173,-0.017235,51.0,0,1,0,2021-01-13,785000.0,0,0,1,South Quay,231,51,"[6, 4, 1, 3]"
8202,8202,8202,Tower Hamlets,2021-01-13,Circa London,1,"Landmark Pinnacle, 10 Marsh Wall E14",0,0,new,999999.0,flat,0,Other,2 bed flat for sale,51.502013,-0.024765,84.0,2,2,2,2021-01-13,999999.0,1,0,1,Chesham,610,53,"[4, 2, 2, 3]"
8203,8203,8203,Tower Hamlets,2021-01-13,Ballymore - Goodluck Hope,1,"Orchard Place, London E14",0,0,new,720500.0,flat,0,leasehold,2 bed flat for sale,51.508043,0.007271,72.0,2,2,1,2021-01-13,720500.0,1,0,0,Canning Town,902,7,"[1, 0, 0, 0]"
8204,8204,8204,Tower Hamlets,2021-01-13,Strike,1,"Wards Place, London E14",0,0,pre-owned,660000.0,flat,0,leasehold,1 bed flat for sale,51.501603,-0.022651,51.0,1,1,1,2021-01-13,700000.0,0,0,0,Chesham,284,58,"[4, 4, 1, 3]"
8205,8205,8205,Tower Hamlets,2021-01-12,Ludlow Thompson - Docklands,1,"Gowers Walk, London E1",0,0,pre-owned,650000.0,flat,0,leasehold,2 bed flat for sale,51.51275,-0.067955,72.0,2,1,1,2021-01-12,675000.0,1,0,0,Aldgate East,444,75,"[19, 5, 3, 6]"
8206,8206,8206,Tower Hamlets,2021-01-12,"RiverHomes, South West & Central London Branch",0,"Hermitage Moorings, Wapping High Street, Wapping E1W",0,0,pre-owned,680000.0,houseboat,0,Other,2 bed houseboat for sale,51.503799,-0.065019,119.0,2,1,1,2021-01-12,680000.0,0,0,0,Chesham,533,22,"[6, 1, 0, 1]"
8207,8207,8207,Tower Hamlets,2021-01-12,Hamptons - City Sales,1,"Addis House, Lindley Street, London E1",0,0,pre-owned,400000.0,flat,0,leasehold,2 bed flat for sale,51.518764,-0.053433,64.0,2,1,1,2021-01-12,425000.0,1,0,0,Stepney Green,555,20,"[10, 8, 1, 2]"
8208,8208,8208,Tower Hamlets,2021-01-12,Dexters - Canary Wharf,1,"Gaselee Street, London E14",0,0,pre-owned,325000.0,flat,0,leasehold,1 bed flat for sale,51.506553,-0.007205,46.0,1,1,1,2021-01-12,325000.0,0,1,0,Blackwall,184,9,"[1, 1, 0, 1]"
8209,8209,8209,Tower Hamlets,2021-01-12,Ballymore - Goodluck Hope,0,"Orchard Place, London E14",0,0,pre-owned,430000.0,flat,0,leasehold,1 bed flat for sale,51.509474,0.005619,45.0,1,1,1,2021-01-12,430000.0,1,0,0,Chesham,499,6,"[1, 0, 0, 1]"
8210,8210,8210,Tower Hamlets,2021-01-11,Hastings International - London Bridge,1,"The Jacquard, The Silk District, London E1",0,0,new,535000.0,flat,0,Other,1 bed flat for sale,51.517572,-0.057157,51.0,1,0,0,2021-01-11,550000.0,1,0,1,Whitechapel,366,30,"[17, 10, 1, 3]"
8211,8211,8211,Tower Hamlets,2021-01-11,Atkinson Mcleod - Canary Wharf,0,"New Providence Wharf, Fairmont Avenue, London E14",0,0,pre-owned,725000.0,flat,0,leasehold,2 bed flat for sale,51.5057,-0.005194,93.0,2,2,1,2021-01-11,725000.0,1,1,0,Blackwall,323,9,"[0, 0, 0, 1]"
8212,8212,8212,Tower Hamlets,2021-01-11,Keatons - Shoreditch,0,"Wheler House, Quaker Street, London E1",0,0,pre-owned,550000.0,flat,0,leasehold,4 bed flat for sale,51.521918,-0.074803,84.0,4,1,1,2021-01-11,650000.0,0,0,0,Shoreditch,240,179,"[14, 2, 4, 3]"
8213,8213,8213,Tower Hamlets,2021-01-11,JLL - New Homes,1,"Lock No19, Hackney Wick E3",0,0,new,700000.0,flat,0,leasehold,3 bed flat for sale,51.53843,-0.02205,88.0,3,2,1,2021-01-11,700000.0,0,0,0,Pudding Mill Lane,865,7,"[2, 1, 2, 0]"
8214,8214,8214,Tower Hamlets,2021-01-09,Ellis & Co - Bethnal Green,0,"Sunlight Square, London E2",0,0,pre-owned,1100000.0,flat,0,share_of_freehold,2 bed flat for sale,51.525864,-0.057236,14.0,2,2,1,2021-01-09,1000000.0,1,1,0,Bethnal Green,279,25,"[13, 1, 2, 4]"
8215,8215,8215,Tower Hamlets,2021-01-08,Hurford Salvi Carr - Islington & Shoreditch,0,"Hackney Road, London E2",0,0,pre-owned,730000.0,flat,0,leasehold,4 bed flat for sale,51.532489,-0.058815,118.0,4,4,1,2021-01-08,730000.0,0,0,1,Bethnal Green,581,24,"[11, 1, 0, 1]"
8216,8216,8216,Tower Hamlets,2021-01-08,JOHNS&CO - New Providence Wharf,0,"Orion, Goodluck Hope, London E14",0,0,pre-owned,499999.0,flat,0,Other,1 bed flat for sale,51.509474,0.005619,52.0,1,1,1,2021-01-08,520000.0,1,0,0,Chesham,499,6,"[1, 0, 0, 1]"
8217,8217,8217,Tower Hamlets,2021-01-07,Hastings International - Rotherhithe,0,"Paisley Court 15 Clyde Square Limehouse Guide Price £400, 000 - £425, 000, Limehouse Guide Price £400, 000 - £425, 000 E14",0,0,pre-owned,400000.0,flat,0,Other,1 bed flat for sale,51.514288,-0.026886,48.0,1,0,0,2021-01-07,425000.0,0,0,0,Westferry,483,5,"[8, 2, 0, 2]"
8218,8218,8218,Tower Hamlets,2021-01-07,JOHNS&CO - New Providence Wharf,1,"Douglass Tower, Goodluck Hope, London E14",0,0,new,830000.0,flat,0,Other,2 bed flat for sale,51.509474,0.005619,75.0,2,2,1,2021-01-07,830000.0,0,0,1,Chesham,499,6,"[1, 0, 0, 1]"
8219,8219,8219,Tower Hamlets,2021-01-07,JOHNS&CO - Canary Wharf,1,"Wardian, West Tower, London E14",0,0,new,500000.0,studio,0,Other,Studio for sale,51.5001481546392,-0.0154863745704467,38.0,0,1,1,2021-01-07,500000.0,1,0,1,South Quay,341,43,"[5, 4, 1, 2]"
8220,8220,8220,Tower Hamlets,2021-01-06,Property Liaisons,0,"West Gardens, London E1W",0,0,pre-owned,700000.0,terraced,0,freehold,3 bed terraced house for sale,51.509092,-0.056626,96.0,3,2,1,2021-01-06,750000.0,0,0,1,Shadwell,342,9,"[12, 4, 0, 2]"
8221,8221,8221,Tower Hamlets,2021-01-06,Waterview - Shad Thames,0,"The Highway, London E1W",0,0,pre-owned,975000.0,flat,0,share_of_freehold,2 bed flat for sale,51.509923,-0.046338,111.0,2,2,1,2021-01-06,975000.0,1,1,0,Limehouse,485,11,"[6, 3, 1, 0]"
8222,8222,8222,Tower Hamlets,2021-01-06,JOHNS&CO - New Providence Wharf,0,"Kent Building, London City Island, London E14",0,0,pre-owned,660000.0,flat,0,Other,2 bed flat for sale,51.511632,0.004571,78.0,2,2,1,2021-01-06,685000.0,0,1,1,Canning Town,399,6,"[1, 1, 0, 4]"
8223,8223,8223,Tower Hamlets,2021-01-06,Dexters - Wapping,0,"The Highway, London E1W",0,0,pre-owned,975000.0,flat,0,share_of_freehold,2 bed flat for sale,51.509923,-0.046338,111.0,2,2,1,2021-01-06,975000.0,1,1,0,Limehouse,485,11,"[6, 3, 1, 0]"
8224,8224,8224,Tower Hamlets,2021-01-05,Trevlyn Properties Ltd,1,"Marsh Wall, London E14",0,0,new,839995.0,flat,0,leasehold,2 bed flat for sale,51.500878,-0.021961,78.0,2,2,1,2021-01-05,839995.0,1,0,0,Chesham,191,48,"[5, 4, 1, 3]"
8225,8225,8225,Tower Hamlets,2021-01-05,Trevlyn Properties Ltd,1,"Marsh Wall, London E14",0,0,new,629995.0,flat,0,leasehold,1 bed flat for sale,51.500878,-0.021961,51.0,1,1,1,2021-01-05,629995.0,1,0,0,Chesham,191,48,"[5, 4, 1, 3]"
8226,8226,8226,Tower Hamlets,2021-01-05,Urban Moves,0,"Ivy Point, 5 Hannaford Walk, London E3",0,1,pre-owned,121500.0,flat,0,Other,2 bed flat for sale,51.524235,-0.014722,74.0,2,0,0,2021-01-05,121500.0,1,1,0,Bromley-By-Bow,244,5,"[9, 3, 0, 2]"
8227,8227,8227,Tower Hamlets,2021-01-05,Stirling Ackroyd - Shoreditch,0,"Luxe Tower, 12 Dock Street, London E1",0,0,pre-owned,695000.0,flat,0,leasehold,2 bed flat for sale,51.509954,-0.068375,62.0,2,2,1,2021-01-05,740000.0,0,0,1,Tower Gateway,450,58,"[7, 5, 3, 5]"
8228,8228,8228,Tower Hamlets,2021-01-05,Trevlyn Properties Ltd,1,"City Island Way, London E14",0,0,new,455000.0,studio,0,leasehold,Studio for sale,51.5120470724638,-0.0074119468599033,36.0,0,1,1,2021-01-05,455000.0,1,0,0,Chesham,381,8,"[4, 3, 0, 2]"
8229,8229,8229,Tower Hamlets,2021-01-05,Knight Frank - Canary Wharf Sales,0,"Flamborough Street, London E14",0,0,pre-owned,800000.0,terraced,0,Other,3 bed terraced house for sale,51.513685,-0.038854,102.0,3,2,2,2021-01-05,850000.0,0,0,1,Limehouse,193,16,"[10, 0, 1, 1]"
8230,8230,8230,Wandsworth,2021-07-04,Ballymore - Embassy Gardens,1,"Embassy Gardens Marketing Suite, 3 Viaduct Gardens, Nine Elms, London SW11",0,0,new,870000.0,flat,0,leasehold,1 bed flat for sale,51.482054,-0.130488,59.0,1,1,1,2021-07-04,870000.0,1,0,1,Vauxhall,619,18,"[3, 2, 0, 2]"
8231,8231,8231,Wandsworth,2021-07-04,Ballymore - Embassy Gardens,1,"Embassy Gardens Marketing Suite, 3 Viaduct Gardens, Nine Elms, London SW11",0,0,new,705000.0,flat,0,leasehold,1 bed flat for sale,51.482054,-0.130488,53.0,1,1,1,2021-07-04,705000.0,1,0,1,Vauxhall,619,18,"[3, 2, 0, 2]"
8232,8232,8232,Wandsworth,2021-07-04,Ballymore - Embassy Gardens,1,"Embassy Gardens Marketing Suite, 3 Viaduct Gardens, Nine Elms, London SW11",0,0,new,690000.0,flat,0,leasehold,1 bed flat for sale,51.482054,-0.130488,39.0,1,1,1,2021-07-04,690000.0,0,0,1,Vauxhall,619,18,"[3, 2, 0, 2]"
8233,8233,8233,Wandsworth,2021-07-04,Ballymore - Embassy Gardens,1,"Embassy Gardens Marketing Suite, 3 Viaduct Gardens, Nine Elms, London SW11",0,0,new,670000.0,flat,0,leasehold,1 bed flat for sale,51.482054,-0.130488,39.0,1,1,1,2021-07-04,670000.0,0,0,1,Vauxhall,619,18,"[3, 2, 0, 2]"
8234,8234,8234,Wandsworth,2021-07-03,CC Gray Estates,1,"West Hill, London SW15",0,0,new,2200000.0,semi_detached,0,freehold,4 bed semi-detached house for sale,51.455678,-0.205159,186.0,4,3,1,2021-07-03,2200000.0,0,1,1,East Putney,621,13,"[6, 2, 0, 0]"
8235,8235,8235,Wandsworth,2021-07-03,London West Properties and Finance,0,"Embankment Gardens, London SW3",0,0,pre-owned,1695000.0,flat,0,freehold,2 bed flat for sale,51.484959,-0.157104,80.0,2,2,1,2021-07-03,1695000.0,0,0,0,Sloane Square,942,4,"[3, 1, 0, 0]"
8236,8236,8236,Wandsworth,2021-07-02,Grand Estates,1,"Kirtling Street, Nine Elms, London SW8",0,0,new,1070000.0,studio,0,leasehold,Studio for sale,51.4801051153846,-0.134300346153846,56.0,0,0,0,2021-07-02,1070000.0,0,0,0,Chesham,878,8,"[1, 1, 0, 2]"
8237,8237,8237,Wandsworth,2021-07-02,Grand Estates,1,"Kirtling Street, Nine Elms, London SW11",0,0,new,1070000.0,studio,0,leasehold,Studio for sale,51.4816718461538,-0.145094,56.0,0,0,0,2021-07-02,1070000.0,1,0,0,Chesham,1510,13,"[3, 1, 1, 3]"
8238,8238,8238,Wandsworth,2021-07-02,Grand Estates,1,"Hotspur St, Nine Elms, London SW11",0,0,new,1750000.0,flat,0,leasehold,2 bed flat for sale,51.4816718461538,-0.145094,93.0,2,0,0,2021-07-02,1750000.0,0,0,0,Chesham,1510,13,"[3, 1, 1, 3]"
8239,8239,8239,Wandsworth,2021-07-02,LRC - London Sales and Letting Agency,0,"Viaduct Gardens, Nine Elms, London SW11",0,0,pre-owned,1223500.0,flat,0,leasehold,3 bed flat for sale,51.482031,-0.130636,98.0,3,2,1,2021-07-02,1223500.0,1,0,1,Vauxhall,624,17,"[3, 2, 0, 2]"
8240,8240,8240,Wandsworth,2021-07-02,LRC - London Sales and Letting Agency,0,"Viaduct Gardens, Nine Elms, London SW11",0,0,pre-owned,999950.0,flat,0,leasehold,3 bed flat for sale,51.482031,-0.130636,84.0,3,2,1,2021-07-02,999950.0,1,0,1,Vauxhall,624,17,"[3, 2, 0, 2]"
8241,8241,8241,Wandsworth,2021-07-02,LRC - London Sales and Letting Agency,0,"Viaduct Gardens, Nine Elms, London SW11",0,0,pre-owned,840000.0,flat,0,leasehold,2 bed flat for sale,51.482031,-0.130636,74.0,2,2,1,2021-07-02,840000.0,1,0,1,Vauxhall,624,17,"[3, 2, 0, 2]"
8242,8242,8242,Wandsworth,2021-07-02,LRC - London Sales and Letting Agency,1,"Viaduct Gardens, Nine Elms, London SW11",0,0,new,669500.0,flat,0,leasehold,1 bed flat for sale,51.482031,-0.130636,49.0,1,1,1,2021-07-02,669500.0,1,0,1,Vauxhall,624,17,"[3, 2, 0, 2]"
8243,8243,8243,Wandsworth,2021-07-02,Aspire - Battersea,1,"Oakley House, Battersea, London SW11",0,0,new,1200000.0,flat,0,leasehold,1 bed flat for sale,51.481949,-0.146409,57.0,1,1,1,2021-07-02,1200000.0,0,0,1,Sloane Square,1177,12,"[3, 1, 1, 3]"
8244,8244,8244,Wandsworth,2021-07-02,Aspire - Battersea,1,"Oakley House, Battersea, London SW11",0,0,new,1800000.0,flat,0,leasehold,2 bed flat for sale,51.481949,-0.146409,99.0,2,2,1,2021-07-02,1800000.0,0,0,1,Sloane Square,1177,12,"[3, 1, 1, 3]"
8245,8245,8245,Wandsworth,2021-07-02,Aspire - Battersea,1,"Oakley House, Battersea, London SW11",0,0,new,1750000.0,flat,0,leasehold,2 bed flat for sale,51.481949,-0.146409,100.0,2,2,1,2021-07-02,1750000.0,0,0,1,Sloane Square,1177,12,"[3, 1, 1, 3]"
8246,8246,8246,Wandsworth,2021-07-02,"James Pendleton, Battersea Northcote Road Office",1,"Glycena Road, Battersea, London SW11",0,0,pre-owned,600000.0,flat,0,share_of_freehold,2 bed flat for sale,51.465992,-0.158592,82.0,2,2,1,2021-07-02,600000.0,0,0,0,Clapham South,1348,29,"[11, 1, 1, 1]"
8247,8247,8247,Wandsworth,2021-07-02,Savills - Putney,0,"Southfields Road, Putney, London SW18",0,0,pre-owned,1000000.0,end_terrace,0,freehold,4 bed end terrace house for sale,51.454076,-0.199729,198.0,4,2,2,2021-07-02,1000000.0,1,0,1,Chesham,783,22,"[7, 1, 2, 3]"
8248,8248,8248,Wandsworth,2021-07-02,"James Pendleton, Wandsworth Town and Tonsleys Office",1,"Dorset House, 18 Ram Street, London SW18",0,0,pre-owned,575000.0,flat,0,leasehold,1 bed flat for sale,51.457817,-0.192283,63.0,1,1,1,2021-07-02,575000.0,1,0,1,East Putney,1090,33,"[11, 2, 2, 3]"
8249,8249,8249,Wandsworth,2021-07-02,Knight Frank - Wandsworth Sales,1,"Alderbrook Road, London SW12",0,0,pre-owned,850000.0,flat,0,Other,2 bed flat for sale,51.450499,-0.150597,100.0,2,2,1,2021-07-02,850000.0,0,0,1,Clapham South,293,14,"[12, 1, 0, 3]"
8250,8250,8250,Wandsworth,2021-07-02,JOHNS&CO - Nine Elms,0,"Capital Building, Embassy Gardens, Nine Elms, London SW11",0,0,pre-owned,4500000.0,flat,0,Other,3 bed flat for sale,51.482065,-0.135589,173.0,3,3,2,2021-07-02,4500000.0,1,1,0,Chesham,712,9,"[3, 0, 0, 2]"
8251,8251,8251,Wandsworth,2021-07-02,Savills - Clapham,0,"Gosberton Road, London SW12",0,0,pre-owned,1600000.0,terraced,0,freehold,5 bed terraced house for sale,51.445297,-0.15909,203.0,5,2,1,2021-07-02,1600000.0,0,0,1,Balham,646,14,"[9, 1, 0, 4]"
8252,8252,8252,Wandsworth,2021-07-02,Radstock Property,1,"Regent House, 16 Lombard Road, London SW11",0,0,new,550000.0,flat,0,leasehold,1 bed flat for sale,51.474782,-0.175029,84.0,1,1,1,2021-07-02,550000.0,0,1,0,South Kensington,2043,27,"[7, 1, 0, 1]"
8253,8253,8253,Wandsworth,2021-07-02,Hamptons - Balham Sales,1,"Alderbrook Road, London SW12",0,0,pre-owned,850000.0,flat,0,leasehold,2 bed flat for sale,51.450059,-0.15036,98.0,2,2,1,2021-07-02,850000.0,0,0,1,Clapham South,330,13,"[12, 1, 0, 4]"
8254,8254,8254,Wandsworth,2021-07-02,Appartel,1,"Vicentia Court, Battersea, London SW11",0,0,new,765000.0,flat,0,leasehold,1 bed flat for sale,51.468901,-0.179679,70.0,1,2,1,2021-07-02,765000.0,1,0,0,Chesham,1901,12,"[3, 2, 0, 1]"
8255,8255,8255,Wandsworth,2021-07-02,John D Wood & Co. - Battersea Sales,1,"Emu Road, Battersea, London SW8",0,0,pre-owned,700000.0,flat,0,share_of_freehold,2 bed flat for sale,51.469945,-0.151561,80.0,2,1,1,2021-07-02,700000.0,1,0,0,Clapham Common,1198,28,"[6, 1, 0, 0]"
8256,8256,8256,Wandsworth,2021-07-02,Realm Estates,0,"Dalby Road, Wandsworth SW18",0,0,pre-owned,1095000.0,terraced,0,freehold,2 bed terraced house for sale,51.460346,-0.185701,100.0,2,1,2,2021-07-02,1095000.0,0,0,1,Parsons Green,1738,20,"[6, 1, 0, 0]"
8257,8257,8257,Wandsworth,2021-07-02,Dexters - Putney,0,"Southfields Road, London SW18",0,0,pre-owned,950000.0,Other,0,freehold,4 bed property for sale,51.454386,-0.199564,139.0,4,1,2,2021-07-02,950000.0,0,0,1,Chesham,769,24,"[7, 1, 2, 4]"
8258,8258,8258,Wandsworth,2021-07-02,Marsh & Parsons - Balham & Clapham South,0,"Hydethorpe Road, London SW12",0,0,pre-owned,1350000.0,terraced,0,freehold,4 bed terraced house for sale,51.445471,-0.138723,1672.0,4,2,2,2021-07-02,1350000.0,0,0,1,Chesham,966,0,"[9, 0, 0, 0]"
8259,8259,8259,Wandsworth,2021-07-02,Rampton Baseley,0,"Roseneath Road, London SW11",0,0,pre-owned,1500000.0,terraced,0,freehold,4 bed terraced house for sale,51.45397,-0.15529,167.0,4,2,2,2021-07-02,1500000.0,0,0,1,Clapham South,499,3,"[9, 1, 0, 2]"
8260,8260,8260,Wandsworth,2021-07-02,Rampton Baseley,0,"Ellerton Road, London SW18",0,0,pre-owned,925000.0,flat,0,share_of_freehold,3 bed flat for sale,51.445718,-0.178545,95.0,3,2,1,2021-07-02,925000.0,0,0,1,Chesham,1490,1,"[3, 0, 0, 0]"
8261,8261,8261,Wandsworth,2021-07-02,"Purplebricks, Head Office",0,"Nutwell Street, London SW17",0,0,pre-owned,550000.0,flat,0,freehold,2 bed flat for sale,51.425281,-0.169489,59.0,2,1,1,2021-07-02,550000.0,0,0,1,Tooting Broadway,260,81,"[5, 3, 0, 4]"
8262,8262,8262,Wandsworth,2021-07-02,Monteo London,1,"Ambassador Builiding, 5 New Union Square, London SW8",0,0,new,785000.0,flat,0,leasehold,1 bed flat for sale,51.4801051153846,-0.134300346153846,58.0,1,1,1,2021-07-02,785000.0,0,1,0,Chesham,878,8,"[1, 1, 0, 2]"
8263,8263,8263,Wandsworth,2021-07-01,Savills - Putney,0,"Langside Avenue, Putney, London SW15",0,0,pre-owned,2025000.0,semi_detached,0,freehold,5 bed semi-detached house for sale,51.463355,-0.242308,281.0,5,3,2,2021-07-01,2025000.0,0,0,1,East Putney,1806,4,"[2, 0, 0, 1]"
8264,8264,8264,Wandsworth,2021-07-01,Savills - Putney,0,"Gwendolen Avenue, Putney, London SW15",0,0,pre-owned,4750000.0,Other,0,freehold,6 bed property for sale,51.460547,-0.223054,417.0,6,4,4,2021-07-01,4750000.0,0,0,1,East Putney,783,17,"[5, 3, 0, 3]"
8265,8265,8265,Wandsworth,2021-07-01,Chestertons - Wandsworth,0,"Marcus Street, London SW18",0,0,pre-owned,500000.0,flat,0,leasehold,2 bed flat for sale,51.454892,-0.189665,56.0,2,1,1,2021-07-01,500000.0,0,0,0,Chesham,1312,24,"[8, 1, 2, 4]"
8266,8266,8266,Wandsworth,2021-07-01,Prime London (Central and Riverside),0,"One Riverlight Quay, Nine Elms, London SW11",0,0,pre-owned,1600000.0,flat,0,Other,2 bed flat for sale,51.482471,-0.136364,104.0,2,2,1,2021-07-01,1600000.0,0,1,0,Chesham,764,10,"[2, 0, 0, 1]"
8267,8267,8267,Wandsworth,2021-07-01,Hamptons - Earlsfield & Southfields Sales,1,"George View House, 36 Knaresborough Drive, London SW18",0,0,pre-owned,750000.0,flat,0,leasehold,2 bed flat for sale,51.444695,-0.19377,85.0,2,2,1,2021-07-01,750000.0,1,1,1,Chesham,835,17,"[6, 1, 1, 2]"
8268,8268,8268,Wandsworth,2021-06-30,Savills - Wandsworth,0,"Beacon Tower, 1 Spectrum Way, London SW18",0,0,pre-owned,550000.0,flat,0,leasehold,1 bed flat for sale,51.456177,-0.197214,56.0,1,1,1,2021-06-30,550000.0,1,0,0,East Putney,854,26,"[7, 2, 2, 3]"
8269,8269,8269,Wandsworth,2021-06-30,Savills - Clapham,0,"Westwood House, 47 Old Devonshire Road, London SW12",0,0,pre-owned,750000.0,flat,0,leasehold,3 bed flat for sale,51.446213,-0.148159,97.0,3,2,1,2021-06-30,750000.0,1,0,0,Chesham,552,27,"[10, 0, 0, 5]"
8270,8270,8270,Wandsworth,2021-06-30,MyLondonHome Battersea,1,"One Riverlight Quay, Nine Elms Lane, Nine Elms SW11",0,0,pre-owned,1100000.0,flat,0,leasehold,2 bed flat for sale,51.482331,-0.13612,103.0,2,2,1,2021-06-30,1100000.0,1,0,1,Chesham,732,9,"[2, 0, 0, 1]"
8271,8271,8271,Wandsworth,2021-06-30,Catalyst - The Switch,1,"Plough Lane, Wimbledon SW17",0,1,new,395000.0,flat,0,leasehold,1 bed flat for sale,51.4309254779117,-0.176801457831325,50.0,1,1,0,2021-06-30,395000.0,1,0,1,Tooting Broadway,683,7,"[5, 2, 1, 0]"
8272,8272,8272,Wandsworth,2021-06-30,Catalyst - The Switch,1,"Plough Lane, Wimbledon SW17",0,1,new,296250.0,flat,0,leasehold,1 bed flat for sale,51.4309254779117,-0.176801457831325,52.0,1,1,0,2021-06-30,296250.0,1,0,1,Tooting Broadway,683,7,"[5, 2, 1, 0]"
8273,8273,8273,Wandsworth,2021-06-30,Catalyst - The Switch,1,"Plough Lane, Wimbledon SW17",0,1,new,98750.0,flat,0,leasehold,1 bed flat for sale,51.4309254779117,-0.176801457831325,50.0,1,1,0,2021-06-30,98750.0,1,0,1,Tooting Broadway,683,7,"[5, 2, 1, 0]"
8274,8274,8274,Wandsworth,2021-06-30,MyLondonHome Battersea,1,"This Space, 1 Cornell Square, Nine Elms SW8",0,0,pre-owned,380000.0,flat,0,leasehold,1 bed flat for sale,51.475687,-0.131628,42.0,1,1,1,2021-06-30,380000.0,1,1,0,Stockwell,635,14,"[7, 1, 2, 1]"
8275,8275,8275,Wandsworth,2021-06-30,Savills - South West London RDS,1,"The Ram Quarter, Ram Street, Wandsworth, London SW18",0,0,new,862000.0,flat,0,leasehold,2 bed flat for sale,51.457274,-0.194248,98.0,2,0,0,2021-06-30,862000.0,0,1,0,East Putney,932,29,"[11, 2, 2, 3]"
8276,8276,8276,Wandsworth,2021-06-30,Nested Ltd,0,"Hebdon Road, Tooting, London SW17",0,0,pre-owned,1050000.0,terraced,0,freehold,4 bed terraced house for sale,51.43419,-0.169348,164.0,4,2,2,2021-06-30,1050000.0,0,0,1,Chesham,696,18,"[8, 3, 0, 1]"
8277,8277,8277,Wandsworth,2021-06-30,Winkworth Southfields,0,"Viewfield Road, London SW18",0,0,pre-owned,525000.0,flat,0,share_of_freehold,2 bed flat for sale,51.452899,-0.206252,70.0,2,1,1,2021-06-30,525000.0,1,0,1,Chesham,788,5,"[5, 1, 0, 1]"
8278,8278,8278,Wandsworth,2021-06-30,Knight Frank - Wandsworth Sales,1,"Greyswood Street, Furzedown SW16",0,0,pre-owned,550000.0,flat,0,freehold,2 bed flat for sale,51.420869,-0.147603,60.0,2,1,1,2021-06-30,550000.0,0,0,0,Chesham,1306,3,"[5, 0, 0, 0]"
8279,8279,8279,Wandsworth,2021-06-30,MyLondonHome Battersea,0,"Queenstown Road, Battersea SW8",0,0,pre-owned,925000.0,terraced,0,freehold,3 bed terraced house for sale,51.475687,-0.147089,97.0,3,2,2,2021-06-30,925000.0,1,0,1,Clapham Common,1339,12,"[4, 1, 0, 2]"
8280,8280,8280,Wandsworth,2021-06-30,Knight Frank - Battersea and Riverside Sales,0,"Vicentia Court, Bridges Court Road, London SW11",0,0,pre-owned,1100000.0,flat,0,Other,2 bed flat for sale,51.468892,-0.17968,97.0,2,2,1,2021-06-30,1100000.0,1,1,0,Chesham,1901,12,"[3, 2, 0, 1]"
8281,8281,8281,Wandsworth,2021-06-30,Barratt London - Springfield Place,1,"""Buttercup House"" at Glenburnie Road, London SW17",0,0,new,573000.0,flat,0,leasehold,2 bed flat for sale,51.437358,-0.172373,63.0,2,2,1,2021-06-30,573000.0,1,0,0,Chesham,1278,0,"[6, 1, 0, 0]"
8282,8282,8282,Wandsworth,2021-06-29,JLL - New Homes,1,"Ram Quarter, Wandsworth SW18",0,0,new,865000.0,flat,0,Other,2 bed flat for sale,51.45707,-0.19252,86.0,2,2,1,2021-06-29,865000.0,1,0,1,Chesham,1027,33,"[10, 2, 2, 3]"
8283,8283,8283,Wandsworth,2021-06-29,JLL - New Homes,1,"Ram Quarter, Wandsworth SW18",0,0,new,830000.0,flat,0,Other,2 bed flat for sale,51.45707,-0.19252,86.0,2,2,1,2021-06-29,830000.0,1,0,1,Chesham,1027,33,"[10, 2, 2, 3]"
8284,8284,8284,Wandsworth,2021-06-29,JLL - New Homes,1,"Ram Quarter, Wandsworth SW18",0,0,new,862000.0,flat,0,Other,2 bed flat for sale,51.45707,-0.19252,98.0,2,2,1,2021-06-29,862000.0,0,0,1,Chesham,1027,33,"[10, 2, 2, 3]"
8285,8285,8285,Wandsworth,2021-06-29,Ludlow Thompson - Tooting,1,"Links Road, London SW17",0,0,pre-owned,695000.0,semi_detached,0,Other,3 bed semi-detached house for sale,51.418615,-0.151562,93.0,3,1,1,2021-06-29,695000.0,1,0,1,Tooting Broadway,1207,2,"[4, 0, 0, 0]"
8286,8286,8286,Wandsworth,2021-06-29,JT Clarke London,0,"Longbeach Road, Battersea, London SW11",0,0,pre-owned,875000.0,flat,0,freehold,2 bed flat for sale,51.464066,-0.158608,100.0,2,1,1,2021-06-29,875000.0,0,0,1,Clapham South,1210,45,"[10, 2, 1, 1]"
8287,8287,8287,Wandsworth,2021-06-29,Nest Seekers International,0,"Great Eastern Wharf, Parkgate Road, London SW11",0,0,pre-owned,2195000.0,flat,0,Other,3 bed flat for sale,51.478985,-0.16794,177.0,3,2,0,2021-06-29,2195000.0,0,1,0,Chesham,1487,20,"[6, 0, 0, 2]"
8288,8288,8288,Wandsworth,2021-06-29,"James Pendleton, Clapham South, Abbeville Village & Balham Office",0,"Cavendish Road, Balham, London SW12",0,0,pre-owned,450000.0,flat,0,share_of_freehold,1 bed flat for sale,51.452366,-0.142668,72.0,1,1,1,2021-06-29,450000.0,1,0,0,Clapham South,372,13,"[7, 1, 0, 4]"
8289,8289,8289,Wandsworth,2021-06-29,Loney Miller,1,"Lavenham Road, London SW18",0,0,pre-owned,475000.0,maisonette,0,freehold,1 bed maisonette for sale,51.442485,-0.199299,43.0,1,1,1,2021-06-29,475000.0,0,0,1,Southfields,612,4,"[6, 0, 0, 1]"
8290,8290,8290,Wandsworth,2021-06-29,Moveli,0,"Nantes Close, London SW18",0,0,pre-owned,400000.0,flat,0,leasehold,2 bed flat for sale,51.461612,-0.181783,50.0,2,1,1,2021-06-29,400000.0,0,0,0,Chesham,1728,25,"[7, 2, 0, 0]"
8291,8291,8291,Wandsworth,2021-06-29,CB Williams Property,0,"Comyn Road, Battersea SW11",0,0,pre-owned,900000.0,flat,0,share_of_freehold,3 bed flat for sale,51.461749,-0.168218,95.0,3,2,1,2021-06-29,900000.0,0,0,1,Clapham South,1467,59,"[7, 4, 0, 4]"
8292,8292,8292,Wandsworth,2021-06-29,CB Williams Property,0,"Wandsworth Common Westside, London SW18",0,0,pre-owned,700000.0,flat,0,leasehold,2 bed flat for sale,51.456263,-0.180703,83.0,2,1,1,2021-06-29,700000.0,0,0,1,Parsons Green,2095,15,"[7, 1, 0, 0]"
8293,8293,8293,Wandsworth,2021-06-29,Hamptons - Balham Sales,1,"Balham Park Mansions, Balham Park Road, London SW12",0,0,pre-owned,725000.0,flat,0,leasehold,3 bed flat for sale,51.444035,-0.15995,96.0,3,2,1,2021-06-29,725000.0,0,0,1,Balham,597,13,"[10, 1, 0, 0]"
8294,8294,8294,Wandsworth,2021-06-29,John D Wood & Co. - Battersea Sales,0,"Overstrand Mansions, Prince Of Wales Drive, London SW11",0,0,pre-owned,1500000.0,flat,0,share_of_freehold,4 bed flat for sale,51.474864,-0.158994,139.0,4,2,2,2021-06-29,1500000.0,0,0,0,Sloane Square,1894,16,"[5, 0, 1, 1]"
8295,8295,8295,Wandsworth,2021-06-29,Dexters - Northcote Road,0,"Broomwood Road, London SW11",0,0,pre-owned,850000.0,flat,0,leasehold,3 bed flat for sale,51.46114,-0.162923,93.0,3,2,1,2021-06-29,850000.0,0,0,0,Clapham South,1152,61,"[5, 3, 1, 4]"
8296,8296,8296,Wandsworth,2021-06-29,Barratt London - Springfield Place,1,"""Buttercup House"" at Glenburnie Road, London SW17",0,0,new,595000.0,flat,0,leasehold,2 bed flat for sale,51.437358,-0.172373,69.0,2,2,1,2021-06-29,595000.0,1,0,0,Chesham,1278,0,"[6, 1, 0, 0]"
8297,8297,8297,Wandsworth,2021-06-29,Barratt London - Springfield Place,1,"""Buttercup House"" at Glenburnie Road, London SW17",0,0,new,600000.0,flat,0,leasehold,2 bed flat for sale,51.437358,-0.172373,71.0,2,2,1,2021-06-29,600000.0,0,0,1,Chesham,1278,0,"[6, 1, 0, 0]"
8298,8298,8298,Wandsworth,2021-06-29,Barratt London - Springfield Place,1,"""Bluebell House"" at Glenburnie Road, London SW17",0,0,new,598000.0,flat,0,leasehold,2 bed flat for sale,51.437358,-0.172373,67.0,2,2,1,2021-06-29,598000.0,1,0,0,Chesham,1278,0,"[6, 1, 0, 0]"
8299,8299,8299,Wandsworth,2021-06-28,Savills - Northcote Road,0,"Wroughton Road, London SW11",0,0,pre-owned,1685000.0,terraced,0,freehold,5 bed terraced house for sale,51.45327,-0.159417,178.0,5,2,2,2021-06-28,1685000.0,0,0,1,Clapham South,736,9,"[11, 2, 0, 1]"
